[
  {
    "id": "nagasaki-art-1",
    "type": "art",
    "name": "佐世保市博物館島瀬美術センター",
    "prefecture": "長崎県",
    "postCode": "857-0806",
    "address": "長崎県佐世保市島瀬町6−22",
    "city": "させぼ",
    "image": "",
    "url": "https://shimabi.com/",
    "latlng": "",
    "lat": "",
    "lng": "",
    "isClosed": ""
  },
  {
    "id": "nagasaki-art-2",
    "type": "art",
    "name": "諫早市美術・歴史館",
    "prefecture": "長崎県",
    "postCode": "854-0014",
    "address": "長崎県諫早市東小路町2−33",
    "city": "いさはや",
    "image": "",
    "url": "https://www.city.isahaya.nagasaki.jp/site/bireki/",
    "latlng": "",
    "lat": "",
    "lng": "",
    "isClosed": ""
  },
  {
    "id": "nagasaki-art-3",
    "type": "art",
    "name": "雲仙ビードロ美術館",
    "prefecture": "長崎県",
    "postCode": "854-0621",
    "address": "長崎県雲仙市小浜町雲仙320",
    "city": "うんぜん",
    "image": "",
    "url": "https://unzenvidro.weebly.com/",
    "latlng": "",
    "lat": "",
    "lng": "",
    "isClosed": ""
  },
  {
    "id": "nagasaki-art-4",
    "type": "art",
    "name": "ハウステンボス美術館・博物館",
    "prefecture": "長崎県",
    "postCode": "859-3243",
    "address": "長崎県佐世保市ハウステンボス町7−1 ハウステンボス美術館",
    "city": "させぼ",
    "image": "",
    "url": "https://www.huistenbosch.co.jp/museum/",
    "latlng": "",
    "lat": "",
    "lng": "",
    "isClosed": ""
  },
  {
    "id": "nagasaki-art-5",
    "type": "art",
    "name": "長崎県美術館",
    "prefecture": "長崎県",
    "postCode": "850-0862",
    "address": "長崎県長崎市出島町2−1",
    "city": "ながさき",
    "image": "",
    "url": "http://www.nagasaki-museum.jp/",
    "latlng": "",
    "lat": "",
    "lng": "",
    "isClosed": ""
  }
]