[
  {
    "id": "nagasaki-museum-1",
    "type": "museum",
    "name": "平戸市生月町博物館・島の館",
    "prefecture": "長崎県",
    "postCode": "859-5706",
    "address": "長崎県平戸市生月町南免4289−1",
    "city": "ひらど",
    "image": "",
    "url": "https://www.hira-shin.jp/shimanoyakata/",
    "latlng": "",
    "lat": "",
    "lng": "",
    "isClosed": ""
  },
  {
    "id": "nagasaki-museum-2",
    "type": "museum",
    "name": "松浦史料博物館",
    "prefecture": "長崎県",
    "postCode": "859-5152",
    "address": "長崎県平戸市鏡川町12",
    "city": "ひらど",
    "image": "",
    "url": "http://www.matsura.or.jp/",
    "latlng": "",
    "lat": "",
    "lng": "",
    "isClosed": ""
  },
  {
    "id": "nagasaki-museum-3",
    "type": "museum",
    "name": "長崎市恐竜博物館",
    "prefecture": "長崎県",
    "postCode": "851-0505",
    "address": "長崎県長崎市野母町568−1",
    "city": "ながさき",
    "image": "",
    "url": "https://nd-museum.jp/",
    "latlng": "",
    "lat": "",
    "lng": "",
    "isClosed": ""
  },
  {
    "id": "nagasaki-museum-4",
    "type": "museum",
    "name": "大村市歴史資料館",
    "prefecture": "長崎県",
    "postCode": "856-0831",
    "address": "長崎県大村市東本町481",
    "city": "おおむら",
    "image": "",
    "url": "https://www.omura-dejihaku.jp/omura/",
    "latlng": "",
    "lat": "",
    "lng": "",
    "isClosed": ""
  },
  {
    "id": "nagasaki-museum-5",
    "type": "museum",
    "name": "壱岐市立一支国博物館",
    "prefecture": "長崎県",
    "postCode": "811-5322",
    "address": "長崎県壱岐市芦辺町深江鶴亀触515−1",
    "city": "いき",
    "image": "",
    "url": "http://www.iki-haku.jp/",
    "latlng": "",
    "lat": "",
    "lng": "",
    "isClosed": ""
  },
  {
    "id": "nagasaki-museum-6",
    "type": "museum",
    "name": "西海国立公園九十九島動植物園「森きらら」",
    "prefecture": "長崎県",
    "postCode": "857-1231",
    "address": "長崎県佐世保市船越町2172 九十九島動植物園森きらら",
    "city": "させぼ",
    "image": "",
    "url": "https://morikirara.jp/",
    "latlng": "",
    "lat": "",
    "lng": "",
    "isClosed": ""
  },
  {
    "id": "nagasaki-museum-7",
    "type": "museum",
    "name": "長崎孔子廟中国歴代博物館",
    "prefecture": "長崎県",
    "postCode": "850-0918",
    "address": "長崎県長崎市大浦町10−36",
    "city": "ながさき",
    "image": "",
    "url": "https://nagasaki-koushibyou.com/",
    "latlng": "",
    "lat": "",
    "lng": "",
    "isClosed": ""
  },
  {
    "id": "nagasaki-museum-8",
    "type": "museum",
    "name": "長崎純心大学博物館",
    "prefecture": "長崎県",
    "postCode": "852-8142",
    "address": "長崎県長崎市三ツ山町235 ヤヌワリオホール (J棟)",
    "city": "ながさき",
    "image": "",
    "url": "https://www.n-junshin.ac.jp/univ/research/museum/",
    "latlng": "",
    "lat": "",
    "lng": "",
    "isClosed": ""
  },
  {
    "id": "nagasaki-museum-9",
    "type": "museum",
    "name": "長崎歴史文化博物館",
    "prefecture": "長崎県",
    "postCode": "850-0007",
    "address": "長崎県長崎市立山1丁目1−1",
    "city": "ながさき",
    "image": "",
    "url": "http://www.nmhc.jp/",
    "latlng": "",
    "lat": "",
    "lng": "",
    "isClosed": ""
  },
  {
    "id": "nagasaki-museum-10",
    "type": "museum",
    "name": "長崎バイオパーク",
    "prefecture": "長崎県",
    "postCode": "851-3302",
    "address": "長崎県西海市西彼町中山郷2291−1",
    "city": "さいかい",
    "image": "",
    "url": "http://www.biopark.co.jp/",
    "latlng": "",
    "lat": "",
    "lng": "",
    "isClosed": ""
  },
  {
    "id": "nagasaki-museum-11",
    "type": "museum",
    "name": "新上五島町鯨賓館ミュージアム",
    "prefecture": "長崎県",
    "postCode": "857-4211",
    "address": "長崎県南松浦郡新上五島町有川郷578−36",
    "city": "しんかみごとう",
    "image": "",
    "url": "http://www.town.shinkamigoto.nagasaki.jp/geihinkan/",
    "latlng": "",
    "lat": "",
    "lng": "",
    "isClosed": ""
  }
]