[
  {
    "id": "shizuoka-art-1",
    "type": "art",
    "name": "ＭＯＡ美術館",
    "prefecture": "静岡県",
    "postCode": "413-8511",
    "address": "静岡県熱海市桃山町26−2",
    "city": "あたみ",
    "image": "",
    "url": "https://www.moaart.or.jp/",
    "latlng": "[35.1089874, 139.0757469]",
    "lat": 35.1089874,
    "lng": 139.0757469,
    "isClosed": ""
  },
  {
    "id": "shizuoka-art-2",
    "type": "art",
    "name": "池田２０世紀美術館",
    "prefecture": "静岡県",
    "postCode": "414-0052",
    "address": "静岡県伊東市十足614",
    "city": "いとう",
    "image": "",
    "url": "https://ikeda20.or.jp/",
    "latlng": "[34.9206584, 139.1043514]",
    "lat": 34.9206584,
    "lng": 139.1043514,
    "isClosed": ""
  },
  {
    "id": "shizuoka-art-3",
    "type": "art",
    "name": "崔如琢美術館",
    "prefecture": "静岡県",
    "postCode": "413-0231",
    "address": "静岡県伊東市富戸1101−10",
    "city": "いとう",
    "image": "",
    "url": "http://www.yoko.or.jp/about/",
    "latlng": "[34.9138901, 139.1208451]",
    "lat": 34.9138901,
    "lng": 139.1208451,
    "isClosed": ""
  },
  {
    "id": "shizuoka-art-4",
    "type": "art",
    "name": "掛川市二の丸美術館",
    "prefecture": "静岡県",
    "postCode": "436-0079",
    "address": "静岡県掛川市掛川1142−1",
    "city": "かけがわ",
    "image": "",
    "url": "https://k-kousya.or.jp/ninomaru/",
    "latlng": "[34.7758204, 138.0145376]",
    "lat": 34.7758204,
    "lng": 138.0145376,
    "isClosed": ""
  },
  {
    "id": "shizuoka-art-5",
    "type": "art",
    "name": "静岡県立美術館",
    "prefecture": "静岡県",
    "postCode": "422-8002",
    "address": "静岡県静岡市駿河区谷田53−2",
    "city": "しずおか",
    "image": "",
    "url": "https://spmoa.shizuoka.shizuoka.jp/",
    "latlng": "[34.992351, 138.4462711]",
    "lat": 34.992351,
    "lng": 138.4462711,
    "isClosed": ""
  },
  {
    "id": "shizuoka-art-6",
    "type": "art",
    "name": "静岡市立芹沢銈介美術館",
    "prefecture": "静岡県",
    "postCode": "422-8033",
    "address": "静岡県静岡市駿河区登呂5丁目10−5",
    "city": "しずおか",
    "image": "",
    "url": "https://www.seribi.jp/",
    "latlng": "[34.9551238, 138.4081376]",
    "lat": 34.9551238,
    "lng": 138.4081376,
    "isClosed": ""
  },
  {
    "id": "shizuoka-art-7",
    "type": "art",
    "name": "上原美術館",
    "prefecture": "静岡県",
    "postCode": "413-0715",
    "address": "静岡県下田市宇土金341",
    "city": "しもだ",
    "image": "",
    "url": "https://uehara-museum.or.jp/",
    "latlng": "[34.7285691, 138.9255982]",
    "lat": 34.7285691,
    "lng": 138.9255982,
    "isClosed": ""
  },
  {
    "id": "shizuoka-art-8",
    "type": "art",
    "name": "ベルナール・ビュフェ美術館",
    "prefecture": "静岡県",
    "postCode": "411-0931",
    "address": "静岡県駿東郡長泉町東野515−57 クレマチスの丘 515-57",
    "city": "ながいずみ",
    "image": "",
    "url": "https://www.clematis-no-oka.co.jp/buffet-museum/",
    "latlng": "[35.1711737, 138.8693405]",
    "lat": 35.1711737,
    "lng": 138.8693405,
    "isClosed": ""
  },
  {
    "id": "shizuoka-art-9",
    "type": "art",
    "name": "公益財団法人　平野美術館",
    "prefecture": "静岡県",
    "postCode": "430-0942",
    "address": "静岡県浜松市中央区元浜町166番地 2階",
    "city": "はままつ",
    "image": "",
    "url": "http://www.hirano-museum.jp/index.html",
    "latlng": "[34.7156934, 137.7312289]",
    "lat": 34.7156934,
    "lng": 137.7312289,
    "isClosed": ""
  },
  {
    "id": "shizuoka-art-10",
    "type": "art",
    "name": "浜松市秋野不矩美術館",
    "prefecture": "静岡県",
    "postCode": "431-3314",
    "address": "静岡県浜松市天竜区二俣町二俣130",
    "city": "はままつ",
    "image": "",
    "url": "https://www.akinofuku-museum.jp/",
    "latlng": "[34.8648999, 137.8193252]",
    "lat": 34.8648999,
    "lng": 137.8193252,
    "isClosed": ""
  },
  {
    "id": "shizuoka-art-11",
    "type": "art",
    "name": "浜松市美術館",
    "prefecture": "静岡県",
    "postCode": "430-0947",
    "address": "静岡県浜松市中央区松城町100−1",
    "city": "はままつ",
    "image": "",
    "url": "https://www.city.hamamatsu.shizuoka.jp/artmuse/",
    "latlng": "[34.7118489, 137.7237363]",
    "lat": 34.7118489,
    "lng": 137.7237363,
    "isClosed": ""
  },
  {
    "id": "shizuoka-art-12",
    "type": "art",
    "name": "公益社団法人　佐野美術館",
    "prefecture": "静岡県",
    "postCode": "411-0838",
    "address": "静岡県三島市中田町1−43",
    "city": "みしま",
    "image": "",
    "url": "https://www.sanobi.or.jp/",
    "latlng": "[35.1149348, 138.9159251]",
    "lat": 35.1149348,
    "lng": 138.9159251,
    "isClosed": ""
  },
  {
    "id": "shizuoka-art-13",
    "type": "art",
    "name": "静岡市東海道広重美術館",
    "prefecture": "静岡県",
    "postCode": "421-3103",
    "address": "静岡県静岡市清水区由比297−1",
    "city": "しずおか",
    "image": "",
    "url": "https://tokaido-hiroshige.jp/",
    "latlng": "[35.1080251, 138.5670998]",
    "lat": 35.1080251,
    "lng": 138.5670998,
    "isClosed": ""
  },
  {
    "id": "shizuoka-art-14",
    "type": "art",
    "name": "静岡市美術館",
    "prefecture": "静岡県",
    "postCode": "420-0852",
    "address": "静岡県静岡市葵区紺屋町17−1 葵タワー 3F",
    "city": "しずおか",
    "image": "",
    "url": "https://shizubi.jp/",
    "latlng": "[34.9725369, 138.3867008]",
    "lat": 34.9725369,
    "lng": 138.3867008,
    "isClosed": ""
  }
]