[
  {
    "id": "shizuoka-museum-1",
    "type": "museum",
    "name": "磐田市香りの博物館",
    "prefecture": "静岡県",
    "postCode": "438-0821",
    "address": "静岡県磐田市立野2019−15",
    "city": "いわた",
    "image": "",
    "url": "https://www.iwata-kaori.jp/",
    "latlng": "[34.7154975, 137.819559]",
    "lat": 34.7154975,
    "lng": 137.819559,
    "isClosed": ""
  },
  {
    "id": "shizuoka-museum-2",
    "type": "museum",
    "name": "一般財団法人　清水港湾博物館（フェルケール博物館）",
    "prefecture": "静岡県",
    "postCode": "424-0943",
    "address": "静岡県静岡市清水区港町2丁目8−11",
    "city": "しずおか",
    "image": "",
    "url": "https://www.verkehr-museum.jp/",
    "latlng": "[35.0076294, 138.4933698]",
    "lat": 35.0076294,
    "lng": 138.4933698,
    "isClosed": ""
  },
  {
    "id": "shizuoka-museum-3",
    "type": "museum",
    "name": "久能山東照宮博物館",
    "prefecture": "静岡県",
    "postCode": "422-8011",
    "address": "静岡県静岡市駿河区根古屋390",
    "city": "しずおか",
    "image": "",
    "url": "https://www.toshogu.or.jp/kt_museum/",
    "latlng": "[34.9633249, 138.467355]",
    "lat": 34.9633249,
    "lng": 138.467355,
    "isClosed": ""
  },
  {
    "id": "shizuoka-museum-4",
    "type": "museum",
    "name": "公益財団法人　駿府博物館",
    "prefecture": "静岡県",
    "postCode": "422-8033",
    "address": "静岡県静岡市駿河区登呂3丁目1−1",
    "city": "しずおか",
    "image": "",
    "url": "http://www.sbs-bunkafukushi.com/museum/",
    "latlng": "[34.9603249, 138.4056383]",
    "lat": 34.9603249,
    "lng": 138.4056383,
    "isClosed": ""
  },
  {
    "id": "shizuoka-museum-5",
    "type": "museum",
    "name": "静岡市立登呂博物館",
    "prefecture": "静岡県",
    "postCode": "422-8033",
    "address": "静岡県静岡市駿河区登呂5丁目10−5",
    "city": "しずおか",
    "image": "",
    "url": "https://www.shizuoka-toromuseum.jp/",
    "latlng": "[34.9551238, 138.4081376]",
    "lat": 34.9551238,
    "lng": 138.4081376,
    "isClosed": ""
  },
  {
    "id": "shizuoka-museum-6",
    "type": "museum",
    "name": "島田市博物館",
    "prefecture": "静岡県",
    "postCode": "427-0037",
    "address": "静岡県島田市河原1丁目5−50",
    "city": "しまだ",
    "image": "",
    "url": "https://www.city.shimada.shizuoka.jp/shimahaku",
    "latlng": "[34.8313362, 138.1544068]",
    "lat": 34.8313362,
    "lng": 138.1544068,
    "isClosed": ""
  },
  {
    "id": "shizuoka-museum-7",
    "type": "museum",
    "name": "月光天文台",
    "prefecture": "静岡県",
    "postCode": "419-0101",
    "address": "静岡県田方郡函南町桑原1308−222",
    "city": "かんなみ",
    "image": "",
    "url": "https://gekkou.or.jp/",
    "latlng": "[35.1283843, 138.9920153]",
    "lat": 35.1283843,
    "lng": 138.9920153,
    "isClosed": ""
  },
  {
    "id": "shizuoka-museum-8",
    "type": "museum",
    "name": "沼津市戸田造船郷土資料博物館",
    "prefecture": "静岡県",
    "postCode": "410-3402",
    "address": "静岡県沼津市戸田2710−1",
    "city": "ぬまづ",
    "image": "",
    "url": "https://www.city.numazu.shizuoka.jp/kurashi/shisetsu/zosen/",
    "latlng": "[34.9767758, 138.7665092]",
    "lat": 34.9767758,
    "lng": 138.7665092,
    "isClosed": ""
  },
  {
    "id": "shizuoka-museum-9",
    "type": "museum",
    "name": "沼津市明治史料館",
    "prefecture": "静岡県",
    "postCode": "410-0051",
    "address": "静岡県沼津市西熊堂372−1",
    "city": "ぬまづ",
    "image": "",
    "url": "https://www.city.numazu.shizuoka.jp/kurashi/shisetsu/meiji/",
    "latlng": "[35.121853, 138.8583319]",
    "lat": 35.121853,
    "lng": 138.8583319,
    "isClosed": ""
  },
  {
    "id": "shizuoka-museum-10",
    "type": "museum",
    "name": "沼津市歴史民俗資料館",
    "prefecture": "静岡県",
    "postCode": "410-0822",
    "address": "静岡県沼津市下香貫2802−1",
    "city": "ぬまづ",
    "image": "",
    "url": "https://www.city.numazu.shizuoka.jp/kurashi/shisetsu/rekishiminzoku/",
    "latlng": "[35.0779899, 138.8716064]",
    "lat": 35.0779899,
    "lng": 138.8716064,
    "isClosed": ""
  },
  {
    "id": "shizuoka-museum-11",
    "type": "museum",
    "name": "浜松市博物館",
    "prefecture": "静岡県",
    "postCode": "432-8018",
    "address": "静岡県浜松市中央区蜆塚4丁目22−1",
    "city": "はままつ",
    "image": "",
    "url": "https://www.city.hamamatsu.shizuoka.jp/hamahaku/",
    "latlng": "[34.7125076, 137.7034857]",
    "lat": 34.7125076,
    "lng": 137.7034857,
    "isClosed": ""
  },
  {
    "id": "shizuoka-museum-12",
    "type": "museum",
    "name": "藤枝市郷土博物館",
    "prefecture": "静岡県",
    "postCode": "426-0014",
    "address": "静岡県藤枝市若王子500",
    "city": "ふじえだ",
    "image": "",
    "url": "https://www.city.fujieda.shizuoka.jp/kyodomuse/index.html",
    "latlng": "[34.8763031, 138.2568466]",
    "lat": 34.8763031,
    "lng": 138.2568466,
    "isClosed": ""
  },
  {
    "id": "shizuoka-museum-13",
    "type": "museum",
    "name": "富士市立博物館",
    "prefecture": "静岡県",
    "postCode": "417-0061",
    "address": "静岡県富士市伝法66−2",
    "city": "ふじ",
    "image": "",
    "url": "https://museum.city.fuji.shizuoka.jp/",
    "latlng": "[35.1855759, 138.6800195]",
    "lat": 35.1855759,
    "lng": 138.6800195,
    "isClosed": ""
  },
  {
    "id": "shizuoka-museum-14",
    "type": "museum",
    "name": "奇石博物館",
    "prefecture": "静岡県",
    "postCode": "418-0111",
    "address": "静岡県富士宮市山宮3670",
    "city": "ふじのみや",
    "image": "",
    "url": "http://www.kiseki-jp.com/",
    "latlng": "[35.2820179, 138.6399354]",
    "lat": 35.2820179,
    "lng": 138.6399354,
    "isClosed": ""
  },
  {
    "id": "shizuoka-museum-15",
    "type": "museum",
    "name": "三島市郷土資料館",
    "prefecture": "静岡県",
    "postCode": "411-0036",
    "address": "静岡県三島市一番町19−19−3",
    "city": "みしま",
    "image": "",
    "url": "https://www.city.mishima.shizuoka.jp/kyoudo/",
    "latlng": "[35.1226381, 138.9098743]",
    "lat": 35.1226381,
    "lng": 138.9098743,
    "isClosed": ""
  },
  {
    "id": "shizuoka-museum-16",
    "type": "museum",
    "name": "磐田市旧見付学校",
    "prefecture": "静岡県",
    "postCode": "438-0086",
    "address": "静岡県磐田市見付2452",
    "city": "いわた",
    "image": "",
    "url": "https://www.city.iwata.shizuoka.jp/shisetsu_guide/toshokan_bunka/tenji/1003509.html",
    "latlng": "[34.7275124, 137.8569868]",
    "lat": 34.7275124,
    "lng": 137.8569868,
    "isClosed": ""
  },
  {
    "id": "shizuoka-museum-17",
    "type": "museum",
    "name": "熱川バナナワニ園",
    "prefecture": "静岡県",
    "postCode": "413-0302",
    "address": "静岡県賀茂郡東伊豆町奈良本1253−10",
    "city": "ひがしいず",
    "image": "",
    "url": "http://bananawani.jp/",
    "latlng": "[34.8166554, 139.068147]",
    "lat": 34.8166554,
    "lng": 139.068147,
    "isClosed": ""
  },
  {
    "id": "shizuoka-museum-18",
    "type": "museum",
    "name": "東海大学海洋科学博物館",
    "prefecture": "静岡県",
    "postCode": "424-8620",
    "address": "静岡県静岡市清水区三保2389",
    "city": "しずおか",
    "image": "",
    "url": "https://www.umi.muse-tokai.jp/",
    "latlng": "[35.0190474, 138.5181759]",
    "lat": 35.0190474,
    "lng": 138.5181759,
    "isClosed": ""
  },
  {
    "id": "shizuoka-museum-19",
    "type": "museum",
    "name": "東海大学自然史博物館",
    "prefecture": "静岡県",
    "postCode": "424-0901",
    "address": "静岡県静岡市清水区三保2389",
    "city": "しずおか",
    "image": "",
    "url": "https://www.sizen.muse-tokai.jp/",
    "latlng": "[35.0190474, 138.5181759]",
    "lat": 35.0190474,
    "lng": 138.5181759,
    "isClosed": ""
  },
  {
    "id": "shizuoka-museum-20",
    "type": "museum",
    "name": "浜名湖オルゴールミュージアム",
    "prefecture": "静岡県",
    "postCode": "431-1209",
    "address": "静岡県浜松市中央区舘山寺町1891",
    "city": "はままつ",
    "image": "",
    "url": "https://www.hamanako-orgel.jp/",
    "latlng": "[34.770013, 137.6203303]",
    "lat": 34.770013,
    "lng": 137.6203303,
    "isClosed": ""
  },
  {
    "id": "shizuoka-museum-21",
    "type": "museum",
    "name": "浜松市楽器博物館",
    "prefecture": "静岡県",
    "postCode": "430-7790",
    "address": "静岡県浜松市中央区中央3丁目9−1",
    "city": "はままつ",
    "image": "",
    "url": "https://www.gakkihaku.jp/",
    "latlng": "[34.70665940000001, 137.73847]",
    "lat": 34.70665940000001,
    "lng": 137.73847,
    "isClosed": ""
  },
  {
    "id": "shizuoka-museum-22",
    "type": "museum",
    "name": "三嶋大社宝物館",
    "prefecture": "静岡県",
    "postCode": "411-0035",
    "address": "静岡県三島市大宮町2丁目1−5",
    "city": "みしま",
    "image": "",
    "url": "http://mishimataisha.or.jp/treasure/",
    "latlng": "[35.1221771, 138.9193973]",
    "lat": 35.1221771,
    "lng": 138.9193973,
    "isClosed": ""
  },
  {
    "id": "shizuoka-museum-23",
    "type": "museum",
    "name": "焼津市歴史民俗資料館",
    "prefecture": "静岡県",
    "postCode": "425-0071",
    "address": "静岡県焼津市三ケ名1550",
    "city": "やいづ",
    "image": "",
    "url": "https://www.city.yaizu.lg.jp/rekimin/",
    "latlng": "[34.8644549, 138.3065148]",
    "lat": 34.8644549,
    "lng": 138.3065148,
    "isClosed": ""
  },
  {
    "id": "shizuoka-museum-24",
    "type": "museum",
    "name": "静岡市歴史博物館",
    "prefecture": "静岡県",
    "postCode": "420-0853",
    "address": "静岡県静岡市葵区追手町4−16",
    "city": "しずおか",
    "image": "",
    "url": "https://scmh.jp/",
    "latlng": "[34.976665, 138.384767]",
    "lat": 34.976665,
    "lng": 138.384767,
    "isClosed": ""
  }
]