[
  {
    "id": "okayama-art-1",
    "type": "art",
    "name": "井原市立平櫛田中美術館",
    "prefecture": "岡山県",
    "postCode": "715-0019",
    "address": "岡山県井原市井原町315",
    "city": "いばら",
    "image": "",
    "url": "http://www.city.ibara.okayama.jp/denchu_museum/",
    "latlng": "[34.5980477, 133.4634644]",
    "lat": 34.5980477,
    "lng": 133.4634644,
    "isClosed": ""
  },
  {
    "id": "okayama-art-2",
    "type": "art",
    "name": "華鴒大塚美術館",
    "prefecture": "岡山県",
    "postCode": "715-0024",
    "address": "岡山県井原市高屋町3丁目11−5",
    "city": "いばら",
    "image": "",
    "url": "https://www.hanatori-museum.jp/",
    "latlng": "[34.58149700000001, 133.4335832]",
    "lat": 34.58149700000001,
    "lng": 133.4335832,
    "isClosed": ""
  },
  {
    "id": "okayama-art-3",
    "type": "art",
    "name": "犬島精錬所美術館",
    "prefecture": "岡山県",
    "postCode": "704-8153",
    "address": "岡山県岡山市東区犬島327−4",
    "city": "おかやま",
    "image": "",
    "url": "https://benesse-artsite.jp/art/seirensho.html",
    "latlng": "[34.5668571, 134.1052893]",
    "lat": 34.5668571,
    "lng": 134.1052893,
    "isClosed": ""
  },
  {
    "id": "okayama-art-4",
    "type": "art",
    "name": "岡山市立オリエント美術館",
    "prefecture": "岡山県",
    "postCode": "700-0814",
    "address": "岡山県岡山市北区天神町9−31",
    "city": "おかやま",
    "image": "",
    "url": "https://www.city.okayama.jp/orientmuseum/",
    "latlng": "[34.6663857, 133.9301647]",
    "lat": 34.6663857,
    "lng": 133.9301647,
    "isClosed": ""
  },
  {
    "id": "okayama-art-5",
    "type": "art",
    "name": "林原美術館",
    "prefecture": "岡山県",
    "postCode": "700-0823",
    "address": "岡山県岡山市北区丸の内2丁目7−15",
    "city": "おかやま",
    "image": "",
    "url": "http://www.hayashibara-museumofart.jp/",
    "latlng": "[34.663555, 133.9332888]",
    "lat": 34.663555,
    "lng": 133.9332888,
    "isClosed": ""
  },
  {
    "id": "okayama-art-6",
    "type": "art",
    "name": "夢二郷土美術館",
    "prefecture": "岡山県",
    "postCode": "703-8256",
    "address": "岡山県岡山市中区浜2丁目1−32",
    "city": "おかやま",
    "image": "",
    "url": "https://yumeji-art-museum.com/",
    "latlng": "[34.6707961, 133.9345617]",
    "lat": 34.6707961,
    "lng": 133.9345617,
    "isClosed": ""
  },
  {
    "id": "okayama-art-7",
    "type": "art",
    "name": "やかげ郷土美術館",
    "prefecture": "岡山県",
    "postCode": "714-1201",
    "address": "岡山県小田郡矢掛町矢掛3118−1",
    "city": "やかげ",
    "image": "",
    "url": "https://museum.yakage-kyouiku.info/",
    "latlng": "[34.6249083, 133.5873402]",
    "lat": 34.6249083,
    "lng": 133.5873402,
    "isClosed": ""
  },
  {
    "id": "okayama-art-8",
    "type": "art",
    "name": "笠岡市立竹喬美術館",
    "prefecture": "岡山県",
    "postCode": "714-0087",
    "address": "岡山県笠岡市六番町1−17",
    "city": "かさおか",
    "image": "",
    "url": "https://www.city.kasaoka.okayama.jp/site/museum/",
    "latlng": "[34.4970674, 133.5163236]",
    "lat": 34.4970674,
    "lng": 133.5163236,
    "isClosed": ""
  },
  {
    "id": "okayama-art-9",
    "type": "art",
    "name": "奈義町現代美術館",
    "prefecture": "岡山県",
    "postCode": "708-1323",
    "address": "岡山県勝田郡奈義町豊沢441",
    "city": "なぎ",
    "image": "",
    "url": "https://www.town.nagi.okayama.jp/moca/",
    "latlng": "[35.1241042, 134.1748765]",
    "lat": 35.1241042,
    "lng": 134.1748765,
    "isClosed": ""
  },
  {
    "id": "okayama-art-10",
    "type": "art",
    "name": "大原美術館",
    "prefecture": "岡山県",
    "postCode": "710-8575",
    "address": "岡山県倉敷市中央1丁目1−15",
    "city": "くらしき",
    "image": "",
    "url": "https://www.ohara.or.jp/",
    "latlng": "[34.5961977, 133.7704916]",
    "lat": 34.5961977,
    "lng": 133.7704916,
    "isClosed": ""
  },
  {
    "id": "okayama-art-11",
    "type": "art",
    "name": "倉敷市立美術館",
    "prefecture": "岡山県",
    "postCode": "710-0046",
    "address": "岡山県倉敷市中央2丁目6−1",
    "city": "くらしき",
    "image": "",
    "url": "https://www.city.kurashiki.okayama.jp/kcam/",
    "latlng": "[34.5956213, 133.7691265]",
    "lat": 34.5956213,
    "lng": 133.7691265,
    "isClosed": ""
  },
  {
    "id": "okayama-art-12",
    "type": "art",
    "name": "瀬戸内市立美術館",
    "prefecture": "岡山県",
    "postCode": "701-4302",
    "address": "岡山県瀬戸内市牛窓町牛窓4911",
    "city": "せとうち",
    "image": "",
    "url": "https://www.city.setouchi.lg.jp/site/museum/",
    "latlng": "[34.6206332, 134.1468031]",
    "lat": 34.6206332,
    "lng": 134.1468031,
    "isClosed": ""
  },
  {
    "id": "okayama-art-13",
    "type": "art",
    "name": "高梁市成羽美術館",
    "prefecture": "岡山県",
    "postCode": "716-0111",
    "address": "岡山県高梁市成羽町下原1068−3",
    "city": "たかはし",
    "image": "",
    "url": "https://nariwa-museum.or.jp/",
    "latlng": "[34.7806723, 133.5366996]",
    "lat": 34.7806723,
    "lng": 133.5366996,
    "isClosed": ""
  },
  {
    "id": "okayama-art-14",
    "type": "art",
    "name": "高梁市歴史美術館",
    "prefecture": "岡山県",
    "postCode": "716-0043",
    "address": "岡山県高梁市原田北町1203−1",
    "city": "たかはし",
    "image": "",
    "url": "https://www.city.takahashi.lg.jp/site/takahashi-historical-museum/",
    "latlng": "[34.7853386, 133.6149148]",
    "lat": 34.7853386,
    "lng": 133.6149148,
    "isClosed": ""
  },
  {
    "id": "okayama-art-15",
    "type": "art",
    "name": "新見美術館",
    "prefecture": "岡山県",
    "postCode": "718-0017",
    "address": "岡山県新見市西方361",
    "city": "にいみ",
    "image": "",
    "url": "https://www.city.niimi.okayama.jp/usr/art/",
    "latlng": "[34.9852807, 133.4572942]",
    "lat": 34.9852807,
    "lng": 133.4572942,
    "isClosed": ""
  },
  {
    "id": "okayama-art-16",
    "type": "art",
    "name": "BIZEN中南米美術館",
    "prefecture": "岡山県",
    "postCode": "701-3204",
    "address": "岡山県備前市日生町日生241−10",
    "city": "びぜん",
    "image": "",
    "url": "https://www.latinamerica.jp/",
    "latlng": "[34.734379, 134.2717541]",
    "lat": 34.734379,
    "lng": 134.2717541,
    "isClosed": ""
  },
  {
    "id": "okayama-art-17",
    "type": "art",
    "name": "岡山県立美術館",
    "prefecture": "岡山県",
    "postCode": "700-0814",
    "address": "岡山県岡山市北区天神町8−48",
    "city": "おかやま",
    "image": "",
    "url": "https://okayama-kenbi.info/",
    "latlng": "[34.6676211, 133.9298928]",
    "lat": 34.6676211,
    "lng": 133.9298928,
    "isClosed": ""
  }
]