[
  {
    "id": "okayama-museum-1",
    "type": "museum",
    "name": "岡山県立博物館",
    "prefecture": "岡山県",
    "postCode": "703-8257",
    "address": "岡山県岡山市北区後楽園1−5",
    "city": "おかやま",
    "image": "",
    "url": "https://www.pref.okayama.jp/site/kenhaku/",
    "latlng": "[34.667457, 133.9338764]",
    "lat": 34.667457,
    "lng": 133.9338764,
    "isClosed": ""
  },
  {
    "id": "okayama-museum-2",
    "type": "museum",
    "name": "公益財団法人吉備路文学館",
    "prefecture": "岡山県",
    "postCode": "700-0807",
    "address": "岡山県岡山市北区南方3丁目5−35",
    "city": "おかやま",
    "image": "",
    "url": "http://www.kibiji.or.jp/",
    "latlng": "[34.6751835, 133.9239013]",
    "lat": 34.6751835,
    "lng": 133.9239013,
    "isClosed": ""
  },
  {
    "id": "okayama-museum-3",
    "type": "museum",
    "name": "倉敷科学センター",
    "prefecture": "岡山県",
    "postCode": "712-8046",
    "address": "岡山県倉敷市福田町古新田940 倉敷科学センター",
    "city": "くらしき",
    "image": "",
    "url": "https://kurakagaku.jp/",
    "latlng": "[34.5360822, 133.769166]",
    "lat": 34.5360822,
    "lng": 133.769166,
    "isClosed": ""
  },
  {
    "id": "okayama-museum-4",
    "type": "museum",
    "name": "倉敷考古館",
    "prefecture": "岡山県",
    "postCode": "710-0046",
    "address": "岡山県倉敷市中央1丁目3−13",
    "city": "くらしき",
    "image": "",
    "url": "http://www.kurashikikoukokan.com/",
    "latlng": "[34.5961106, 133.771913]",
    "lat": 34.5961106,
    "lng": 133.771913,
    "isClosed": ""
  },
  {
    "id": "okayama-museum-5",
    "type": "museum",
    "name": "倉敷市立自然史博物館",
    "prefecture": "岡山県",
    "postCode": "710-0046",
    "address": "岡山県倉敷市中央2丁目6−1",
    "city": "くらしき",
    "image": "",
    "url": "https://www.city.kurashiki.okayama.jp/musnat/",
    "latlng": "[34.5956213, 133.7691265]",
    "lat": 34.5956213,
    "lng": 133.7691265,
    "isClosed": ""
  },
  {
    "id": "okayama-museum-6",
    "type": "museum",
    "name": "倉敷民藝館",
    "prefecture": "岡山県",
    "postCode": "710-0046",
    "address": "岡山県倉敷市中央1丁目4−11",
    "city": "くらしき",
    "image": "",
    "url": "http://kurashiki-mingeikan.com/",
    "latlng": "[34.5955071, 133.7715391]",
    "lat": 34.5955071,
    "lng": 133.7715391,
    "isClosed": ""
  },
  {
    "id": "okayama-museum-7",
    "type": "museum",
    "name": "野崎家塩業歴史館",
    "prefecture": "岡山県",
    "postCode": "711-0913",
    "address": "岡山県倉敷市児島味野1丁目11−19",
    "city": "くらしき",
    "image": "",
    "url": "https://www.nozakike.or.jp/",
    "latlng": "[34.4718515, 133.8028129]",
    "lat": 34.4718515,
    "lng": 133.8028129,
    "isClosed": ""
  },
  {
    "id": "okayama-museum-8",
    "type": "museum",
    "name": "備前長船刀剣博物館",
    "prefecture": "岡山県",
    "postCode": "701-4271",
    "address": "岡山県瀬戸内市長船町長船966",
    "city": "せとうち",
    "image": "",
    "url": "https://www.city.setouchi.lg.jp/site/token/",
    "latlng": "[34.6998392, 134.0989814]",
    "lat": 34.6998392,
    "lng": 134.0989814,
    "isClosed": ""
  },
  {
    "id": "okayama-museum-9",
    "type": "museum",
    "name": "市立玉野海洋博物館",
    "prefecture": "岡山県",
    "postCode": "706-0028",
    "address": "岡山県玉野市渋川2丁目6−1",
    "city": "たまの",
    "image": "",
    "url": "https://www.city.tamano.lg.jp/site/kaihaku/",
    "latlng": "[34.4549099, 133.9054431]",
    "lat": 34.4549099,
    "lng": 133.9054431,
    "isClosed": ""
  },
  {
    "id": "okayama-museum-10",
    "type": "museum",
    "name": "津山郷土博物館",
    "prefecture": "岡山県",
    "postCode": "708-0022",
    "address": "岡山県津山市山下92",
    "city": "つやま",
    "image": "",
    "url": "http://www.tsu-haku.jp/",
    "latlng": "[35.0608728, 134.0056672]",
    "lat": 35.0608728,
    "lng": 134.0056672,
    "isClosed": ""
  },
  {
    "id": "okayama-museum-11",
    "type": "museum",
    "name": "つやま自然のふしぎ館（津山科学教育博物館）",
    "prefecture": "岡山県",
    "postCode": "708-0022",
    "address": "岡山県津山市山下98−1",
    "city": "つやま",
    "image": "",
    "url": "http://www.fushigikan.jp/",
    "latlng": "[35.0608311, 134.0044952]",
    "lat": 35.0608311,
    "lng": 134.0044952,
    "isClosed": ""
  },
  {
    "id": "okayama-museum-12",
    "type": "museum",
    "name": "津山洋学資料館",
    "prefecture": "岡山県",
    "postCode": "708-0831",
    "address": "岡山県津山市上之町5",
    "city": "つやま",
    "image": "",
    "url": "http://www.tsuyama-yougaku.jp/",
    "latlng": "[35.0636687, 134.0161898]",
    "lat": 35.0636687,
    "lng": 134.0161898,
    "isClosed": ""
  },
  {
    "id": "okayama-museum-13",
    "type": "museum",
    "name": "岡山天文博物館",
    "prefecture": "岡山県",
    "postCode": "719-0232",
    "address": "岡山県浅口市鴨方町本庄3037−5",
    "city": "あさくち",
    "image": "",
    "url": "http://ww1.city.asakuchi.okayama.jp/museum/",
    "latlng": "[34.5763817, 133.5954243]",
    "lat": 34.5763817,
    "lng": 133.5954243,
    "isClosed": ""
  },
  {
    "id": "okayama-museum-14",
    "type": "museum",
    "name": "岡山シティミュージアム",
    "prefecture": "岡山県",
    "postCode": "700-0024",
    "address": "岡山県岡山市北区駅元町15−1",
    "city": "おかやま",
    "image": "",
    "url": "https://www.city.okayama.jp/okayama-city-museum/",
    "latlng": "[34.6666264, 133.9158047]",
    "lat": 34.6666264,
    "lng": 133.9158047,
    "isClosed": ""
  },
  {
    "id": "okayama-museum-15",
    "type": "museum",
    "name": "岡山市半田山植物園",
    "prefecture": "岡山県",
    "postCode": "700-0004",
    "address": "岡山県岡山市北区法界院3−1 岡山市半田山植物園",
    "city": "おかやま",
    "image": "",
    "url": "https://www.okayama-park.or.jp/facility/handayama",
    "latlng": "[34.69178, 133.931944]",
    "lat": 34.69178,
    "lng": 133.931944,
    "isClosed": ""
  }
]