[
  {
    "id": "ehime-museum-1",
    "type": "museum",
    "name": "今治市村上海賊ミュージアム",
    "prefecture": "愛媛県",
    "postCode": "794-2203",
    "address": "愛媛県今治市宮窪町宮窪1285 内",
    "city": "いまばり",
    "image": "",
    "url": "https://www.city.imabari.ehime.jp/museum/suigun/",
    "latlng": "[34.168955, 133.087651]",
    "lat": 34.168955,
    "lng": 133.087651,
    "isClosed": ""
  },
  {
    "id": "ehime-museum-2",
    "type": "museum",
    "name": "愛媛文華館",
    "prefecture": "愛媛県",
    "postCode": "794-0037",
    "address": "愛媛県今治市黄金町2丁目6−2",
    "city": "いまばり",
    "image": "",
    "url": "https://ehimebunkakan.jp/",
    "latlng": "[34.0643631, 133.0051149]",
    "lat": 34.0643631,
    "lng": 133.0051149,
    "isClosed": ""
  },
  {
    "id": "ehime-museum-3",
    "type": "museum",
    "name": "大三島海事博物館",
    "prefecture": "愛媛県",
    "postCode": "794-1304",
    "address": "愛媛県今治市大三島町宮浦3327",
    "city": "いまばり",
    "image": "",
    "url": "https://www.city.imabari.ehime.jp/kanko/spot/?a=242",
    "latlng": "[34.2476296, 133.0042874]",
    "lat": 34.2476296,
    "lng": 133.0042874,
    "isClosed": ""
  },
  {
    "id": "ehime-museum-4",
    "type": "museum",
    "name": "大山祇神社宝物館",
    "prefecture": "愛媛県",
    "postCode": "794-1304",
    "address": "愛媛県今治市大三島町宮浦3327",
    "city": "いまばり",
    "image": "",
    "url": "https://oomishimagu.jp/national-treasure/",
    "latlng": "[34.2476296, 133.0042874]",
    "lat": 34.2476296,
    "lng": 133.0042874,
    "isClosed": ""
  },
  {
    "id": "ehime-museum-5",
    "type": "museum",
    "name": "宇和島市立伊達博物館",
    "prefecture": "愛媛県",
    "postCode": "798-0061",
    "address": "愛媛県宇和島市御殿町9−14",
    "city": "うわじま",
    "image": "",
    "url": "https://www.city.uwajima.ehime.jp/site/datehaku-top/",
    "latlng": "[33.2159189, 132.5626412]",
    "lat": 33.2159189,
    "lng": 132.5626412,
    "isClosed": ""
  },
  {
    "id": "ehime-museum-6",
    "type": "museum",
    "name": "大洲市立博物館",
    "prefecture": "愛媛県",
    "postCode": "795-0054",
    "address": "愛媛県大洲市中村618−1",
    "city": "おおず",
    "image": "",
    "url": "https://www.city.ozu.ehime.jp/soshiki/bunkasports/0282.html",
    "latlng": "[33.513729, 132.5462063]",
    "lat": 33.513729,
    "lng": 132.5462063,
    "isClosed": ""
  },
  {
    "id": "ehime-museum-7",
    "type": "museum",
    "name": "愛媛民芸館",
    "prefecture": "愛媛県",
    "postCode": "793-0023",
    "address": "愛媛県西条市明屋敷238−8",
    "city": "さいじょう",
    "image": "",
    "url": "https://ehimemingeikan.jp/",
    "latlng": "[33.9195939, 133.1796539]",
    "lat": 33.9195939,
    "lng": 133.1796539,
    "isClosed": ""
  },
  {
    "id": "ehime-museum-8",
    "type": "museum",
    "name": "愛媛県歴史文化博物館",
    "prefecture": "愛媛県",
    "postCode": "797-0015",
    "address": "愛媛県西予市宇和町卯之町4丁目11−2",
    "city": "せいよ",
    "image": "",
    "url": "https://www.i-rekihaku.jp/",
    "latlng": "[33.3636585, 132.5183164]",
    "lat": 33.3636585,
    "lng": 132.5183164,
    "isClosed": ""
  },
  {
    "id": "ehime-museum-9",
    "type": "museum",
    "name": "東温市立歴史民俗資料館",
    "prefecture": "愛媛県",
    "postCode": "791-0211",
    "address": "愛媛県東温市見奈良509−3",
    "city": "とうおん",
    "image": "",
    "url": "https://www.city.toon.ehime.jp/soshiki/23/2431.html",
    "latlng": "[33.7930212, 132.871322]",
    "lat": 33.7930212,
    "lng": 132.871322,
    "isClosed": ""
  },
  {
    "id": "ehime-museum-10",
    "type": "museum",
    "name": "愛媛県総合科学博物館",
    "prefecture": "愛媛県",
    "postCode": "792-0060",
    "address": "愛媛県新居浜市大生院2133−2",
    "city": "にいはま",
    "image": "",
    "url": "https://www.i-kahaku.jp/",
    "latlng": "[33.9099275, 133.2439441]",
    "lat": 33.9099275,
    "lng": 133.2439441,
    "isClosed": ""
  },
  {
    "id": "ehime-museum-11",
    "type": "museum",
    "name": "伊丹十三記念館",
    "prefecture": "愛媛県",
    "postCode": "790-0932",
    "address": "愛媛県松山市東石井1丁目6−10",
    "city": "まつやま",
    "image": "",
    "url": "https://itami-kinenkan.jp/",
    "latlng": "[33.8179677, 132.7780892]",
    "lat": 33.8179677,
    "lng": 132.7780892,
    "isClosed": ""
  },
  {
    "id": "ehime-museum-12",
    "type": "museum",
    "name": "松山市考古館",
    "prefecture": "愛媛県",
    "postCode": "791-8032",
    "address": "愛媛県松山市南斎院町乙67-6",
    "city": "まつやま",
    "image": "",
    "url": "https://www.cul-spo.or.jp/koukokan/",
    "latlng": "[33.839854, 132.7352969]",
    "lat": 33.839854,
    "lng": 132.7352969,
    "isClosed": ""
  },
  {
    "id": "ehime-museum-13",
    "type": "museum",
    "name": "松山市立子規記念博物館",
    "prefecture": "愛媛県",
    "postCode": "790-0857",
    "address": "愛媛県松山市道後公園1−30",
    "city": "まつやま",
    "image": "",
    "url": "https://shiki-museum.com/",
    "latlng": "[33.849666, 132.7872072]",
    "lat": 33.849666,
    "lng": 132.7872072,
    "isClosed": ""
  },
  {
    "id": "ehime-museum-14",
    "type": "museum",
    "name": "伊方町文化交流施設　佐田岬半島ミュージアム",
    "prefecture": "愛媛県",
    "postCode": "796-0506",
    "address": "愛媛県西宇和郡伊方町塩成乙293 道の駅 佐田岬半島ミュージアム",
    "city": "いかた",
    "image": "",
    "url": "https://sadamisakihanto-museum.jp/",
    "latlng": "[33.4475429, 132.2577798]",
    "lat": 33.4475429,
    "lng": 132.2577798,
    "isClosed": ""
  },
  {
    "id": "ehime-museum-15",
    "type": "museum",
    "name": "西条市立西条郷土博物館",
    "prefecture": "愛媛県",
    "postCode": "793-0023",
    "address": "愛媛県西条市明屋敷237−1",
    "city": "さいじょう",
    "image": "",
    "url": "https://www.saijo-museum.com/",
    "latlng": "[33.9196092, 133.1796582]",
    "lat": 33.9196092,
    "lng": 133.1796582,
    "isClosed": ""
  },
  {
    "id": "ehime-museum-16",
    "type": "museum",
    "name": "高畠華宵大正ロマン館",
    "prefecture": "愛媛県",
    "postCode": "791-0222",
    "address": "愛媛県東温市下林丙654 1",
    "city": "とうおん",
    "image": "",
    "url": "https://www.kashomuseum.org/",
    "latlng": "[33.7636139, 132.8686604]",
    "lat": 33.7636139,
    "lng": 132.8686604,
    "isClosed": ""
  },
  {
    "id": "ehime-museum-17",
    "type": "museum",
    "name": "新居浜市広瀬歴史記念館",
    "prefecture": "愛媛県",
    "postCode": "792-0046",
    "address": "愛媛県新居浜市上原2丁目10−42",
    "city": "にいはま",
    "image": "",
    "url": "https://www.city.niihama.lg.jp/soshiki/hirose/",
    "latlng": "[33.9189026, 133.2857228]",
    "lat": 33.9189026,
    "lng": 133.2857228,
    "isClosed": ""
  },
  {
    "id": "ehime-museum-18",
    "type": "museum",
    "name": "松山市坂の上の雲ミュージアム",
    "prefecture": "愛媛県",
    "postCode": "790-0001",
    "address": "愛媛県松山市一番町3丁目20",
    "city": "まつやま",
    "image": "",
    "url": "https://www.sakanouenokumomuseum.jp/",
    "latlng": "[33.8415293, 132.7690939]",
    "lat": 33.8415293,
    "lng": 132.7690939,
    "isClosed": ""
  }
]