[
  {
    "id": "miyazaki-museum-1",
    "type": "museum",
    "name": "宮崎県立西都原考古博物館",
    "prefecture": "宮崎県",
    "postCode": "881-0005",
    "address": "宮崎県西都市三宅5670",
    "city": "さいと",
    "image": "",
    "url": "https://saito-muse.pref.miyazaki.jp/web/index.html",
    "latlng": "",
    "lat": "",
    "lng": "",
    "isClosed": ""
  },
  {
    "id": "miyazaki-museum-2",
    "type": "museum",
    "name": "都城島津邸",
    "prefecture": "宮崎県",
    "postCode": "885-0055",
    "address": "宮崎県都城市早鈴町18−5",
    "city": "みやこのじょう",
    "image": "",
    "url": "https://www.city.miyakonojo.miyazaki.jp/site/shimazu/",
    "latlng": "",
    "lat": "",
    "lng": "",
    "isClosed": ""
  },
  {
    "id": "miyazaki-museum-3",
    "type": "museum",
    "name": "宮崎県総合博物館",
    "prefecture": "宮崎県",
    "postCode": "880-0053",
    "address": "宮崎県宮崎市神宮2丁目4−4",
    "city": "みやざき",
    "image": "",
    "url": "https://www.miyazaki-archive.jp/museum/",
    "latlng": "",
    "lat": "",
    "lng": "",
    "isClosed": ""
  },
  {
    "id": "miyazaki-museum-4",
    "type": "museum",
    "name": "椎葉民俗芸能博物館",
    "prefecture": "宮崎県",
    "postCode": "883-1601",
    "address": "宮崎県東臼杵郡椎葉村下福良1822−4",
    "city": "しいば",
    "image": "",
    "url": "https://www.shiibakanko.jp/tourism/spot/spot3",
    "latlng": "",
    "lat": "",
    "lng": "",
    "isClosed": ""
  },
  {
    "id": "miyazaki-museum-5",
    "type": "museum",
    "name": "宮崎市フェニックス自然動物園",
    "prefecture": "宮崎県",
    "postCode": "880-0122",
    "address": "宮崎県宮崎市塩路浜山3083−42 宮崎市フェニックス自然動物園",
    "city": "みやざき",
    "image": "",
    "url": "https://www.miyazaki-city-zoo.jp/",
    "latlng": "",
    "lat": "",
    "lng": "",
    "isClosed": ""
  },
  {
    "id": "miyazaki-museum-6",
    "type": "museum",
    "name": "宮崎大学農学部附属農業博物館",
    "prefecture": "宮崎県",
    "postCode": "889-2155",
    "address": "宮崎県宮崎市学園木花台西1丁目1 農業博物館",
    "city": "みやざき",
    "image": "",
    "url": "https://www.miyazaki-u.ac.jp/museum/",
    "latlng": "",
    "lat": "",
    "lng": "",
    "isClosed": ""
  }
]