[
  {
    "id": "nara-museum-1",
    "type": "museum",
    "name": "大亀和尚民芸館",
    "prefecture": "奈良県",
    "postCode": "633-2166",
    "address": "奈良県宇陀市大宇陀迫間422−1",
    "city": "うだ",
    "image": "",
    "url": "http://daiki-mingeikan.or.jp/",
    "latlng": "[34.4804895, 135.9234138]",
    "lat": 34.4804895,
    "lng": 135.9234138,
    "isClosed": ""
  },
  {
    "id": "nara-museum-2",
    "type": "museum",
    "name": "香芝市二上山博物館",
    "prefecture": "奈良県",
    "postCode": "639-0243",
    "address": "奈良県香芝市藤山1丁目17−17 香芝市ふたがみ文化センター 1階",
    "city": "かしば",
    "image": "",
    "url": "https://www.city.kashiba.lg.jp/life/6/39/",
    "latlng": "[34.5426315, 135.6993178]",
    "lat": 34.5426315,
    "lng": 135.6993178,
    "isClosed": ""
  },
  {
    "id": "nara-museum-3",
    "type": "museum",
    "name": "橿原市昆虫館",
    "prefecture": "奈良県",
    "postCode": "634-0024",
    "address": "奈良県橿原市南山町624",
    "city": "かしはら",
    "image": "",
    "url": "https://www.city.kashihara.nara.jp/kanko_bunka_sports/konchukan/index.html",
    "latlng": "[34.491849, 135.8240804]",
    "lat": 34.491849,
    "lng": 135.8240804,
    "isClosed": ""
  },
  {
    "id": "nara-museum-4",
    "type": "museum",
    "name": "奈良県立橿原考古学研究所附属博物館",
    "prefecture": "奈良県",
    "postCode": "634-0065",
    "address": "奈良県橿原市畝傍町50−2",
    "city": "かしはら",
    "image": "",
    "url": "http://www.kashikoken.jp/museum/top.html",
    "latlng": "[34.4922331, 135.7913422]",
    "lat": 34.4922331,
    "lng": 135.7913422,
    "isClosed": ""
  },
  {
    "id": "nara-museum-5",
    "type": "museum",
    "name": "歴史に憩う橿原市博物館",
    "prefecture": "奈良県",
    "postCode": "634-0826",
    "address": "奈良県橿原市川西町858−1",
    "city": "かしはら",
    "image": "",
    "url": "https://www.city.kashihara.nara.jp/soshiki/1059/gyomu/4/2415.html",
    "latlng": "[34.4796629, 135.7716855]",
    "lat": 34.4796629,
    "lng": 135.7716855,
    "isClosed": ""
  },
  {
    "id": "nara-museum-6",
    "type": "museum",
    "name": "葛城市歴史博物館",
    "prefecture": "奈良県",
    "postCode": "639-2123",
    "address": "奈良県葛城市忍海250−1",
    "city": "かつらぎ",
    "image": "",
    "url": "https://www.city.katsuragi.nara.jp/soshiki/rekishihakubutsukan/4/1121.html",
    "latlng": "[34.477211, 135.7309655]",
    "lat": 34.477211,
    "lng": 135.7309655,
    "isClosed": ""
  },
  {
    "id": "nara-museum-7",
    "type": "museum",
    "name": "市立五條文化博物館",
    "prefecture": "奈良県",
    "postCode": "637-0091",
    "address": "奈良県五條市北山町930−2",
    "city": "ごじょう",
    "image": "",
    "url": "https://www.city.gojo.lg.jp/soshiki/bunka/1/1/1233.html",
    "latlng": "[34.3793793, 135.6854373]",
    "lat": 34.3793793,
    "lng": 135.6854373,
    "isClosed": ""
  },
  {
    "id": "nara-museum-8",
    "type": "museum",
    "name": "水平社博物館",
    "prefecture": "奈良県",
    "postCode": "639-2244",
    "address": "奈良県御所市柏原235−2",
    "city": "ごせ",
    "image": "",
    "url": "http://www1.mahoroba.ne.jp/~suihei/",
    "latlng": "[34.4603762, 135.761219]",
    "lat": 34.4603762,
    "lng": 135.761219,
    "isClosed": ""
  },
  {
    "id": "nara-museum-9",
    "type": "museum",
    "name": "春日大社　萬葉植物園（神苑）",
    "prefecture": "奈良県",
    "postCode": "630-8212",
    "address": "奈良県奈良市春日野町160 萬葉植物園",
    "city": "なら",
    "image": "",
    "url": "https://www.kasugataisha.or.jp/manyou-s/",
    "latlng": "[34.6824519, 135.8442139]",
    "lat": 34.6824519,
    "lng": 135.8442139,
    "isClosed": ""
  },
  {
    "id": "nara-museum-10",
    "type": "museum",
    "name": "春日大社国宝殿",
    "prefecture": "奈良県",
    "postCode": "630-8212",
    "address": "奈良県奈良市春日野町160",
    "city": "なら",
    "image": "",
    "url": "https://www.kasugataisha.or.jp/museum/",
    "latlng": "[34.6811433, 135.8484725]",
    "lat": 34.6811433,
    "lng": 135.8484725,
    "isClosed": ""
  },
  {
    "id": "nara-museum-11",
    "type": "museum",
    "name": "法隆寺大宝蔵殿",
    "prefecture": "奈良県",
    "postCode": "636-0115",
    "address": "奈良県生駒郡斑鳩町法隆寺山内1",
    "city": "いこま",
    "image": "",
    "url": "http://www.horyuji.or.jp/garan/daihozoin/",
    "latlng": "[34.613683, 135.7331301]",
    "lat": 34.613683,
    "lng": 135.7331301,
    "isClosed": ""
  },
  {
    "id": "nara-museum-12",
    "type": "museum",
    "name": "高松塚壁画館",
    "prefecture": "奈良県",
    "postCode": "634-0144",
    "address": "奈良県高市郡明日香村平田439",
    "city": "あすか",
    "image": "",
    "url": "https://www.asukabito.or.jp/hekigakan.html",
    "latlng": "[34.4624606, 135.8055559]",
    "lat": 34.4624606,
    "lng": 135.8055559,
    "isClosed": ""
  },
  {
    "id": "nara-museum-13",
    "type": "museum",
    "name": "奈良文化財研究所　飛鳥資料館",
    "prefecture": "奈良県",
    "postCode": "634-0102",
    "address": "奈良県高市郡明日香村奥山601",
    "city": "あすか",
    "image": "",
    "url": "https://www.nabunken.go.jp/asuka/",
    "latlng": "[34.484405, 135.8250329]",
    "lat": 34.484405,
    "lng": 135.8250329,
    "isClosed": ""
  },
  {
    "id": "nara-museum-14",
    "type": "museum",
    "name": "天理大学附属天理参考館",
    "prefecture": "奈良県",
    "postCode": "632-8540",
    "address": "奈良県天理市守目堂町250",
    "city": "てんり",
    "image": "",
    "url": "https://www.sankokan.jp/",
    "latlng": "[34.5975768, 135.84273]",
    "lat": 34.5975768,
    "lng": 135.84273,
    "isClosed": ""
  },
  {
    "id": "nara-museum-15",
    "type": "museum",
    "name": "帝塚山大学附属博物館",
    "prefecture": "奈良県",
    "postCode": "631-0062",
    "address": "奈良県奈良市帝塚山7丁目1−1",
    "city": "なら",
    "image": "",
    "url": "https://www.tezukayama-u.ac.jp/museum/",
    "latlng": "[34.6857968, 135.7223077]",
    "lat": 34.6857968,
    "lng": 135.7223077,
    "isClosed": ""
  },
  {
    "id": "nara-museum-16",
    "type": "museum",
    "name": "奈良国立博物館",
    "prefecture": "奈良県",
    "postCode": "630-8213",
    "address": "奈良県奈良市登大路町50",
    "city": "なら",
    "image": "",
    "url": "https://www.narahaku.go.jp/",
    "latlng": "[34.683196, 135.8366777]",
    "lat": 34.683196,
    "lng": 135.8366777,
    "isClosed": ""
  },
  {
    "id": "nara-museum-17",
    "type": "museum",
    "name": "奈良大学博物館",
    "prefecture": "奈良県",
    "postCode": "631-0803",
    "address": "奈良県奈良市山陵町1500",
    "city": "なら",
    "image": "",
    "url": "http://www.nara-u.ac.jp/museum/",
    "latlng": "[34.7142856, 135.7845075]",
    "lat": 34.7142856,
    "lng": 135.7845075,
    "isClosed": ""
  },
  {
    "id": "nara-museum-18",
    "type": "museum",
    "name": "大和文華館",
    "prefecture": "奈良県",
    "postCode": "631-0034",
    "address": "奈良県奈良市学園南1丁目11−6",
    "city": "なら",
    "image": "",
    "url": "https://www.kintetsu-g-hd.co.jp/culture/yamato/",
    "latlng": "[34.6954867, 135.7565625]",
    "lat": 34.6954867,
    "lng": 135.7565625,
    "isClosed": ""
  }
]