[
  {
    "id": "wakayama-museum-1",
    "type": "museum",
    "name": "有田市郷土資料館",
    "prefecture": "和歌山県",
    "postCode": "649-0304",
    "address": "和歌山県有田市箕島27",
    "city": "ありだ",
    "image": "",
    "url": "https://www.city.arida.lg.jp/shisetsu/bunkashakaikyoiku/1001521.html",
    "latlng": "[34.0835911, 135.1244232]",
    "lat": 34.0835911,
    "lng": 135.1244232,
    "isClosed": ""
  },
  {
    "id": "wakayama-museum-2",
    "type": "museum",
    "name": "和歌山県立自然博物館",
    "prefecture": "和歌山県",
    "postCode": "642-0001",
    "address": "和歌山県海南市船尾370−1",
    "city": "かいなん",
    "image": "",
    "url": "https://www.shizenhaku.wakayama-c.ed.jp/",
    "latlng": "[34.1596172, 135.1927643]",
    "lat": 34.1596172,
    "lng": 135.1927643,
    "isClosed": ""
  },
  {
    "id": "wakayama-museum-3",
    "type": "museum",
    "name": "太地町立くじらの博物館",
    "prefecture": "和歌山県",
    "postCode": "649-5171",
    "address": "和歌山県東牟婁郡太地町太地2934−2 太地町立くじらの博物館",
    "city": "たいじ",
    "image": "",
    "url": "http://www.kujirakan.jp/",
    "latlng": "[33.6018789, 135.9458029]",
    "lat": 33.6018789,
    "lng": 135.9458029,
    "isClosed": ""
  },
  {
    "id": "wakayama-museum-4",
    "type": "museum",
    "name": "和歌山県立紀伊風土記の丘",
    "prefecture": "和歌山県",
    "postCode": "640-8301",
    "address": "和歌山県和歌山市岩橋1411 和歌山県立 紀伊風土記の丘",
    "city": "わかやま",
    "image": "",
    "url": "https://www.kiifudoki.wakayama-c.ed.jp/",
    "latlng": "[34.2278861, 135.229593]",
    "lat": 34.2278861,
    "lng": 135.229593,
    "isClosed": ""
  },
  {
    "id": "wakayama-museum-5",
    "type": "museum",
    "name": "和歌山県立博物館",
    "prefecture": "和歌山県",
    "postCode": "640-8137",
    "address": "和歌山県和歌山市吹上1丁目4−14",
    "city": "わかやま",
    "image": "",
    "url": "https://hakubutu.wakayama.jp/",
    "latlng": "[34.2250362, 135.171417]",
    "lat": 34.2250362,
    "lng": 135.171417,
    "isClosed": ""
  },
  {
    "id": "wakayama-museum-6",
    "type": "museum",
    "name": "和歌山市立博物館",
    "prefecture": "和歌山県",
    "postCode": "640-8222",
    "address": "和歌山県和歌山市湊本町3丁目2−2",
    "city": "わかやま",
    "image": "",
    "url": "http://www.wakayama-city-museum.jp/",
    "latlng": "[34.2333033, 135.1631194]",
    "lat": 34.2333033,
    "lng": 135.1631194,
    "isClosed": ""
  },
  {
    "id": "wakayama-museum-7",
    "type": "museum",
    "name": "高野山霊宝館",
    "prefecture": "和歌山県",
    "postCode": "648-0211",
    "address": "和歌山県伊都郡高野町高野山306",
    "city": "こうや",
    "image": "",
    "url": "http://www.reihokan.or.jp/",
    "latlng": "[34.2106585, 135.5810912]",
    "lat": 34.2106585,
    "lng": 135.5810912,
    "isClosed": ""
  },
  {
    "id": "wakayama-museum-8",
    "type": "museum",
    "name": "熊野神宝館",
    "prefecture": "和歌山県",
    "postCode": "647-0081",
    "address": "和歌山県新宮市新宮 新宮1",
    "city": "しんぐう",
    "image": "",
    "url": "https://kumanohayatama.jp/?page_id=14",
    "latlng": "[33.7318507, 135.9840475]",
    "lat": 33.7318507,
    "lng": 135.9840475,
    "isClosed": ""
  },
  {
    "id": "wakayama-museum-9",
    "type": "museum",
    "name": "アドベンチャーワールド",
    "prefecture": "和歌山県",
    "postCode": "649-2201",
    "address": "和歌山県西牟婁郡白浜町堅田2399",
    "city": "しらはま",
    "image": "",
    "url": "https://www.aws-s.com/",
    "latlng": "[33.6737664, 135.3741411]",
    "lat": 33.6737664,
    "lng": 135.3741411,
    "isClosed": ""
  },
  {
    "id": "wakayama-museum-10",
    "type": "museum",
    "name": "和歌山大学紀州経済史文化史研究所",
    "prefecture": "和歌山県",
    "postCode": "640-8441",
    "address": "和歌山県和歌山市栄谷930 観光学部棟",
    "city": "わかやま",
    "image": "",
    "url": "https://www.wakayama-u.ac.jp/kisyuken/",
    "latlng": "[34.2662249, 135.150942]",
    "lat": 34.2662249,
    "lng": 135.150942,
    "isClosed": ""
  }
]