[
  {
    "id": "okinawa-museum-1",
    "type": "museum",
    "name": "石垣市立八重山博物館",
    "prefecture": "沖縄県",
    "postCode": "907-0004",
    "address": "沖縄県石垣市登野城4−1",
    "city": "いしがき",
    "image": "",
    "url": "https://www.city.ishigaki.okinawa.jp/kurashi_gyosei/kanko_bunka_sport/hakubutsukan/index.html",
    "latlng": "",
    "lat": "",
    "lng": "",
    "isClosed": ""
  },
  {
    "id": "okinawa-museum-2",
    "type": "museum",
    "name": "ひめゆり平和祈念資料館",
    "prefecture": "沖縄県",
    "postCode": "901-0344",
    "address": "沖縄県糸満市伊原671−1",
    "city": "いとまん",
    "image": "",
    "url": "https://www.himeyuri.or.jp/",
    "latlng": "",
    "lat": "",
    "lng": "",
    "isClosed": ""
  },
  {
    "id": "okinawa-museum-3",
    "type": "museum",
    "name": "沖縄市立郷土博物館",
    "prefecture": "沖縄県",
    "postCode": "904-0031",
    "address": "沖縄県沖縄市上地2丁目19−6 文化センタ 4Ｆ",
    "city": "おきなわ",
    "image": "",
    "url": "https://www.city.okinawa.okinawa.jp/k063/sportsbunka/hakubutsukan/kyoudohakubutsukan/134/index.html",
    "latlng": "",
    "lat": "",
    "lng": "",
    "isClosed": ""
  },
  {
    "id": "okinawa-museum-4",
    "type": "museum",
    "name": "宜野湾市立博物館",
    "prefecture": "沖縄県",
    "postCode": "901-2224",
    "address": "沖縄県宜野湾市真志喜1丁目25−1",
    "city": "ぎのわん",
    "image": "",
    "url": "https://www.city.ginowan.lg.jp/soshiki/kyoiku/1/2/index.html",
    "latlng": "",
    "lat": "",
    "lng": "",
    "isClosed": ""
  },
  {
    "id": "okinawa-museum-5",
    "type": "museum",
    "name": "久米島博物館",
    "prefecture": "沖縄県",
    "postCode": "901-3121",
    "address": "沖縄県島尻郡久米島町嘉手苅542",
    "city": "くめじま",
    "image": "",
    "url": "https://sizenbunka.ti-da.net/",
    "latlng": "",
    "lat": "",
    "lng": "",
    "isClosed": ""
  },
  {
    "id": "okinawa-museum-6",
    "type": "museum",
    "name": "名護博物館",
    "prefecture": "沖縄県",
    "postCode": "905-0017",
    "address": "沖縄県名護市大中4丁目20−50",
    "city": "なご",
    "image": "",
    "url": "https://www.city.nago.okinawa.jp/museum/",
    "latlng": "",
    "lat": "",
    "lng": "",
    "isClosed": ""
  },
  {
    "id": "okinawa-museum-7",
    "type": "museum",
    "name": "那覇市立壺屋焼物博物館",
    "prefecture": "沖縄県",
    "postCode": "902-0065",
    "address": "沖縄県那覇市壺屋1丁目9−32",
    "city": "なは",
    "image": "",
    "url": "http://www.edu.city.naha.okinawa.jp/tsuboya/",
    "latlng": "",
    "lat": "",
    "lng": "",
    "isClosed": ""
  },
  {
    "id": "okinawa-museum-8",
    "type": "museum",
    "name": "宮古島市総合博物館",
    "prefecture": "沖縄県",
    "postCode": "906-0011",
    "address": "沖縄県宮古島市平良東仲宗根添1166−287",
    "city": "みやこじま",
    "image": "",
    "url": "https://www.city.miyakojima.lg.jp/soshiki/kyouiku/syougaigakusyu/hakubutsukan/",
    "latlng": "",
    "lat": "",
    "lng": "",
    "isClosed": ""
  },
  {
    "id": "okinawa-museum-9",
    "type": "museum",
    "name": "沖縄こどもの国",
    "prefecture": "沖縄県",
    "postCode": "904-0021",
    "address": "沖縄県沖縄市胡屋5丁目7−1",
    "city": "おきなわ",
    "image": "",
    "url": "https://www.okzm.jp/",
    "latlng": "",
    "lat": "",
    "lng": "",
    "isClosed": ""
  },
  {
    "id": "okinawa-museum-10",
    "type": "museum",
    "name": "東南植物楽園",
    "prefecture": "沖縄県",
    "postCode": "904-2143",
    "address": "沖縄県沖縄市知花2146 美らヤシパークオキナワ・東南植物楽園",
    "city": "おきなわ",
    "image": "",
    "url": "https://www.southeast-botanical.jp/",
    "latlng": "",
    "lat": "",
    "lng": "",
    "isClosed": ""
  },
  {
    "id": "okinawa-museum-11",
    "type": "museum",
    "name": "沖縄空手会館",
    "prefecture": "沖縄県",
    "postCode": "901-0241",
    "address": "沖縄県豊見城市豊見城854−1",
    "city": "とみぐすく",
    "image": "",
    "url": "https://karatekaikan.jp/",
    "latlng": "",
    "lat": "",
    "lng": "",
    "isClosed": ""
  },
  {
    "id": "okinawa-museum-12",
    "type": "museum",
    "name": "琉球大学博物館（風樹館）",
    "prefecture": "沖縄県",
    "postCode": "903-0129",
    "address": "沖縄県中頭郡西原町千原1",
    "city": "にしはら",
    "image": "",
    "url": "https://fujukan.skr.u-ryukyu.ac.jp/",
    "latlng": "",
    "lat": "",
    "lng": "",
    "isClosed": ""
  },
  {
    "id": "okinawa-museum-13",
    "type": "museum",
    "name": "沖縄県立芸術大学附属図書・芸術資料館",
    "prefecture": "沖縄県",
    "postCode": "903-0812",
    "address": "沖縄県那覇市首里当蔵町1丁目4",
    "city": "なは",
    "image": "",
    "url": "https://www.lib.okigei.ac.jp/lib/lib.html",
    "latlng": "",
    "lat": "",
    "lng": "",
    "isClosed": ""
  },
  {
    "id": "okinawa-museum-14",
    "type": "museum",
    "name": "対馬丸記念館",
    "prefecture": "沖縄県",
    "postCode": "901-0031",
    "address": "沖縄県那覇市若狭1丁目25−37",
    "city": "なは",
    "image": "",
    "url": "http://tsushimamaru.or.jp/",
    "latlng": "",
    "lat": "",
    "lng": "",
    "isClosed": ""
  },
  {
    "id": "okinawa-museum-15",
    "type": "museum",
    "name": "おきなわワールド",
    "prefecture": "沖縄県",
    "postCode": "901-0616",
    "address": "沖縄県南城市玉城前川1336",
    "city": "なんじょう",
    "image": "",
    "url": "https://www.gyokusendo.co.jp/okinawaworld/",
    "latlng": "",
    "lat": "",
    "lng": "",
    "isClosed": ""
  },
  {
    "id": "okinawa-museum-16",
    "type": "museum",
    "name": "南風原町立南風原文化センター",
    "prefecture": "沖縄県",
    "postCode": "901-1113",
    "address": "沖縄県島尻郡南風原町喜屋武257",
    "city": "はえばる",
    "image": "",
    "url": "https://www.town.haebaru.lg.jp/docs/2013022800327/",
    "latlng": "",
    "lat": "",
    "lng": "",
    "isClosed": ""
  }
]