[
  {
    "id": "kagoshima-art-1",
    "type": "art",
    "name": "岩崎美術館",
    "prefecture": "鹿児島県",
    "postCode": "891-0403",
    "address": "鹿児島県指宿市十二町3755",
    "city": "いぶすき",
    "image": "",
    "url": "https://www.iwasaki-zaidan.org/artmuseum/",
    "latlng": "",
    "lat": "",
    "lng": "",
    "isClosed": ""
  },
  {
    "id": "kagoshima-art-2",
    "type": "art",
    "name": "長島美術館",
    "prefecture": "鹿児島県",
    "postCode": "890-0045",
    "address": "鹿児島県鹿児島市武3丁目42−18",
    "city": "かごしま",
    "image": "",
    "url": "https://ngp.jp/nagashima-museum/",
    "latlng": "",
    "lat": "",
    "lng": "",
    "isClosed": ""
  },
  {
    "id": "kagoshima-art-3",
    "type": "art",
    "name": "中村晋也美術館",
    "prefecture": "鹿児島県",
    "postCode": "899-2701",
    "address": "鹿児島県鹿児島市石谷町2366ｰ21",
    "city": "かごしま",
    "image": "",
    "url": "http://www.ne.jp/asahi/musee/nakamura/",
    "latlng": "",
    "lat": "",
    "lng": "",
    "isClosed": ""
  },
  {
    "id": "kagoshima-art-4",
    "type": "art",
    "name": "三宅美術館",
    "prefecture": "鹿児島県",
    "postCode": "891-0141",
    "address": "鹿児島県鹿児島市谷山中央1丁目4319ｰ4",
    "city": "かごしま",
    "image": "",
    "url": "https://www.miyake-art.com/",
    "latlng": "",
    "lat": "",
    "lng": "",
    "isClosed": ""
  },
  {
    "id": "kagoshima-art-5",
    "type": "art",
    "name": "陽山美術館",
    "prefecture": "鹿児島県",
    "postCode": "892-0816",
    "address": "鹿児島県鹿児島市山下町8−3 美術館ビル 5F",
    "city": "かごしま",
    "image": "",
    "url": "http://www.musee-yozan.or.jp/",
    "latlng": "",
    "lat": "",
    "lng": "",
    "isClosed": ""
  },
  {
    "id": "kagoshima-art-6",
    "type": "art",
    "name": "児玉美術館",
    "prefecture": "鹿児島県",
    "postCode": "891-0144",
    "address": "鹿児島県鹿児島市下福元町8251−1",
    "city": "かごしま",
    "image": "",
    "url": "https://www.kodama-art-museum.or.jp/",
    "latlng": "",
    "lat": "",
    "lng": "",
    "isClosed": ""
  },
  {
    "id": "kagoshima-art-7",
    "type": "art",
    "name": "松下美術館",
    "prefecture": "鹿児島県",
    "postCode": "899-4501",
    "address": "鹿児島県霧島市福山町福山771",
    "city": "きりしま",
    "image": "",
    "url": "http://www2.synapse.ne.jp/matsushita/matushita_index.htm",
    "latlng": "",
    "lat": "",
    "lng": "",
    "isClosed": ""
  },
  {
    "id": "kagoshima-art-8",
    "type": "art",
    "name": "吉井淳二美術館",
    "prefecture": "鹿児島県",
    "postCode": "897-0002",
    "address": "鹿児島県南さつま市加世田武田13877−3",
    "city": "みなみさつま",
    "image": "",
    "url": "http://www5.synapse.ne.jp/j-yoshii/top.htm",
    "latlng": "",
    "lat": "",
    "lng": "",
    "isClosed": ""
  },
  {
    "id": "kagoshima-art-9",
    "type": "art",
    "name": "鹿児島県立歴史・美術センター黎明館",
    "prefecture": "鹿児島県",
    "postCode": "892-0853",
    "address": "鹿児島県鹿児島市城山町7−2",
    "city": "かごしま",
    "image": "",
    "url": "https://www.pref.kagoshima.jp/reimeikan/",
    "latlng": "",
    "lat": "",
    "lng": "",
    "isClosed": ""
  },
  {
    "id": "kagoshima-art-10",
    "type": "art",
    "name": "鹿児島市立美術館",
    "prefecture": "鹿児島県",
    "postCode": "892-0853",
    "address": "鹿児島県鹿児島市城山町4−36",
    "city": "かごしま",
    "image": "",
    "url": "https://www.city.kagoshima.lg.jp/artmuseum/",
    "latlng": "",
    "lat": "",
    "lng": "",
    "isClosed": ""
  }
]