[
  {
    "id": "kagoshima-museum-1",
    "type": "museum",
    "name": "原野農芸博物館",
    "prefecture": "鹿児島県",
    "postCode": "894-1204",
    "address": "鹿児島県奄美市住用町大字山間817",
    "city": "あまみ",
    "image": "",
    "url": "http://www5.synapse.ne.jp/haranoam/",
    "latlng": "",
    "lat": "",
    "lng": "",
    "isClosed": ""
  },
  {
    "id": "kagoshima-museum-2",
    "type": "museum",
    "name": "指宿市考古博物館時遊館ＣＯＣＣＯはしむれ",
    "prefecture": "鹿児島県",
    "postCode": "891-0403",
    "address": "鹿児島県指宿市十二町2290",
    "city": "いぶすき",
    "image": "",
    "url": "https://www.city.ibusuki.lg.jp/cocco/",
    "latlng": "",
    "lat": "",
    "lng": "",
    "isClosed": ""
  },
  {
    "id": "kagoshima-museum-3",
    "type": "museum",
    "name": "示現流兵法所史料館",
    "prefecture": "鹿児島県",
    "postCode": "892-0842",
    "address": "鹿児島県鹿児島市東千石町2−2",
    "city": "かごしま",
    "image": "",
    "url": "https://www.jigen-ryu.com/history_siryou1.html",
    "latlng": "",
    "lat": "",
    "lng": "",
    "isClosed": ""
  },
  {
    "id": "kagoshima-museum-4",
    "type": "museum",
    "name": "鹿児島県立博物館",
    "prefecture": "鹿児島県",
    "postCode": "892-0853",
    "address": "鹿児島県鹿児島市城山町1−1",
    "city": "かごしま",
    "image": "",
    "url": "https://www.pref.kagoshima.jp/hakubutsukan/",
    "latlng": "",
    "lat": "",
    "lng": "",
    "isClosed": ""
  },
  {
    "id": "kagoshima-museum-5",
    "type": "museum",
    "name": "長崎鼻パーキングガーデン",
    "prefecture": "鹿児島県",
    "postCode": "891-0513",
    "address": "鹿児島県指宿市山川岡児ケ水1571−1 長崎鼻パーキングガーデン",
    "city": "いぶすき",
    "image": "",
    "url": "http://nagasakibana.com/",
    "latlng": "",
    "lat": "",
    "lng": "",
    "isClosed": ""
  },
  {
    "id": "kagoshima-museum-6",
    "type": "museum",
    "name": "かごしま近代文学館・かごしまメルヘン館",
    "prefecture": "鹿児島県",
    "postCode": "892-0853",
    "address": "鹿児島県鹿児島市城山町5−1",
    "city": "かごしま",
    "image": "",
    "url": "https://www.k-kb.or.jp/kinmeru/",
    "latlng": "",
    "lat": "",
    "lng": "",
    "isClosed": ""
  },
  {
    "id": "kagoshima-museum-7",
    "type": "museum",
    "name": "鹿児島国際大学博物館実習施設（鹿児島国際大学ミュージアム）",
    "prefecture": "鹿児島県",
    "postCode": "891-0150",
    "address": "鹿児島県鹿児島市坂之上8丁目34−1",
    "city": "かごしま",
    "image": "",
    "url": "http://museum.iuk-plus.net/",
    "latlng": "",
    "lat": "",
    "lng": "",
    "isClosed": ""
  },
  {
    "id": "kagoshima-museum-8",
    "type": "museum",
    "name": "鹿児島大学総合研究博物館",
    "prefecture": "鹿児島県",
    "postCode": "890-0065",
    "address": "鹿児島県鹿児島市郡元1丁目21−30",
    "city": "かごしま",
    "image": "",
    "url": "https://www.museum.kagoshima-u.ac.jp/",
    "latlng": "",
    "lat": "",
    "lng": "",
    "isClosed": ""
  },
  {
    "id": "kagoshima-museum-9",
    "type": "museum",
    "name": "尚古集成館",
    "prefecture": "鹿児島県",
    "postCode": "892-0871",
    "address": "鹿児島県鹿児島市吉野町9698−1",
    "city": "かごしま",
    "image": "",
    "url": "https://www.shuseikan.jp/",
    "latlng": "",
    "lat": "",
    "lng": "",
    "isClosed": ""
  },
  {
    "id": "kagoshima-museum-10",
    "type": "museum",
    "name": "南種子町広田遺跡ミュージアム",
    "prefecture": "鹿児島県",
    "postCode": "891-3702",
    "address": "鹿児島県熊毛郡南種子町平山",
    "city": "みなみたね",
    "image": "",
    "url": "http://www.town.minamitane.kagoshima.jp/institution/hirotasitemuseum.html",
    "latlng": "",
    "lat": "",
    "lng": "",
    "isClosed": ""
  },
  {
    "id": "kagoshima-museum-11",
    "type": "museum",
    "name": "知覧特攻平和会館",
    "prefecture": "鹿児島県",
    "postCode": "897-0302",
    "address": "鹿児島県南九州市知覧町郡17881",
    "city": "ちらん",
    "image": "",
    "url": "https://www.chiran-tokkou.jp/",
    "latlng": "",
    "lat": "",
    "lng": "",
    "isClosed": ""
  }
]