[
  {
    "id": "hokkaido-aqua-1",
    "type": "aquarium",
    "name": "おたる水族館",
    "prefecture": "北海道",
    "postCode": "047-0047",
    "address": "北海道小樽市祝津3丁目303番地",
    "city": "おたる",
    "image": "/img/hokkaido/aquarium/otaru-aquarium.jpg",
    "url": "https://otaru-aq.jp/",
    "latlng": "[43.2369937, 141.0118353]",
    "lat": "43.2369937",
    "lng": "141.0118353"
  },
  {
    "id": "hokkaido-aqua-2",
    "type": "aquarium",
    "name": "AOAO SAPPORO",
    "prefecture": "北海道",
    "postCode": "060-0062",
    "address": "北海道札幌市中央区南2条西3丁目20",
    "city": "さっぽろ",
    "image": "/img/hokkaido/aquarium/aoao-sapporo.jpg",
    "url": "https://aoao-sapporo.blue/",
    "latlng": "[43.0575648, 141.3531685]",
    "lat": "43.0575648",
    "lng": "141.3531685"
  },
  {
    "id": "hokkaido-aqua-3",
    "type": "aquarium",
    "name": "登別マリンパークニクス",
    "prefecture": "北海道",
    "postCode": "059-0492",
    "address": "北海道登別市登別東町1-22",
    "city": "のぼりべつ",
    "image": "/img/hokkaido/aquarium/noboribetsu-marine.jpg",
    "url": "https://www.nixe.co.jp/",
    "latlng": "[42.4549447, 141.1821782]",
    "lat": "42.4549447",
    "lng": "141.1821782"
  },
  {
    "id": "hokkaido-aqua-4",
    "type": "aquarium",
    "name": "稚内市立ノシャップ寒流水族館",
    "prefecture": "北海道",
    "postCode": "097-0026",
    "address": "北海道稚内市ノシャップ2-2-16",
    "city": "わっかない",
    "image": "/img/hokkaido/aquarium/wakkanai-noshappu.jpg",
    "url": "https://www.city.wakkanai.hokkaido.jp/suizokukan/",
    "latlng": "[45.4491223, 141.6453167]",
    "lat": "45.4491223",
    "lng": "141.6453167"
  },
  {
    "id": "hokkaido-aqua-5",
    "type": "aquarium",
    "name": "美深チョウザメ館",
    "prefecture": "北海道",
    "postCode": "098-2366",
    "address": "北海道中川郡美深町紋穂内",
    "city": "びふか",
    "image": "/img/hokkaido/aquarium/bifuka-chozame.jpg",
    "url": "https://www.bifuka-kankou.com/attractions/tyozamekan/",
    "latlng": "[44.5658733, 142.3511643]",
    "lat": "44.5658733",
    "lng": "142.3511643"
  },
  {
    "id": "hokkaido-aqua-6",
    "type": "aquarium",
    "name": "アザラシ シーパラダイス",
    "prefecture": "北海道",
    "postCode": "094-0031",
    "address": "北海道紋別市海洋公園2",
    "city": "もんべつ",
    "image": "/img/hokkaido/aquarium/azarashi-seapara.jpg",
    "url": "https://o-tower.co.jp/seaparadise.html",
    "latlng": "[44.3339139, 143.3730126]",
    "lat": "44.3339139",
    "lng": "143.3730126"
  },
  {
    "id": "hokkaido-aqua-7",
    "type": "aquarium",
    "name": "北の大地の水族館（山の水族館）",
    "prefecture": "北海道",
    "postCode": "091-0153",
    "address": "北海道北見市留辺蘂町松山1-4",
    "city": "きたみ",
    "image": "/img/hokkaido/aquarium/kitanodaichinosuizokukan.jpg",
    "url": "http://onneyu-aq.com/",
    "latlng": "[43.7547559, 143.5007583]",
    "lat": "43.7547559",
    "lng": "143.5007583"
  },
  {
    "id": "hokkaido-aqua-8",
    "type": "aquarium",
    "name": "標津サーモン科学館",
    "prefecture": "北海道",
    "postCode": "086-1631",
    "address": "北海道標津郡標津町北1条西6-1-1",
    "city": "しべつ",
    "image": "/img/hokkaido/aquarium/shibetsu-salmon.jpg",
    "url": "http://s-salmon.com/",
    "latlng": "[43.659212, 145.1164048]",
    "lat": "43.659212",
    "lng": "145.1164048"
  },
  {
    "id": "hokkaido-aqua-9",
    "type": "aquarium",
    "name": "くしろ水族館 ぷくぷく",
    "prefecture": "北海道",
    "postCode": "088-0623",
    "address": "北海道釧路郡釧路町光和4-11 釧之助本店2階",
    "city": "くしろ",
    "image": "/img/hokkaido/aquarium/kushiro-suizokukan.jpg",
    "url": "http://www.sennosuke.net/pukupuku/",
    "latlng": "[43.0067227, 144.4042579]",
    "lat": "43.0067227",
    "lng": "144.4042579"
  },
  {
    "id": "hokkaido-aqua-10",
    "type": "aquarium",
    "name": "サケのふるさと 千歳水族館",
    "prefecture": "北海道",
    "postCode": "066-0028",
    "address": "北海道千歳市花園2-4-312",
    "city": "ちとせ",
    "image": "/img/hokkaido/aquarium/chitose-sake.jpg",
    "url": "https://chitose-aq.jp/",
    "latlng": "[42.83265309999999, 141.6594892]",
    "lat": "42.8326531",
    "lng": "141.6594892"
  },
  {
    "id": "hokkaido-aqua-11",
    "type": "aquarium",
    "name": "サンピアザ水族館",
    "prefecture": "北海道",
    "postCode": "004-0052",
    "address": "北海道札幌市厚別区厚別中央2条5-7",
    "city": "さっぽろ",
    "image": "/img/hokkaido/aquarium/sunpiazza.jpg",
    "url": "http://www.sunpiazza-aquarium.com/",
    "latlng": "[43.0375275, 141.4729958]",
    "lat": "43.0375275",
    "lng": "141.4729958"
  },
  {
    "id": "hokkaido-aqua-12",
    "type": "aquarium",
    "name": "室蘭民報みんなの水族館（市立室蘭水族館）",
    "prefecture": "北海道",
    "postCode": "051-0036",
    "address": "北海道室蘭市祝津町3-3-12",
    "city": "むろらん",
    "image": "/img/hokkaido/aquarium/muroran-suizokukan.jpg",
    "url": "http://iburi.net/murosui/",
    "latlng": "[42.3398621, 140.9437883]",
    "lat": "42.3398621",
    "lng": "140.9437883"
  },
  {
    "id": "hokkaido-aqua-13",
    "type": "aquarium",
    "name": "千歳さけますの森 さけます情報館",
    "prefecture": "北海道",
    "postCode": "066-0068",
    "address": "北海道千歳市蘭越9",
    "city": "ちとせ",
    "image": "/img/hokkaido/aquarium/chitose-sakemasu.png",
    "url": "https://www.fra.go.jp/sakemori/",
    "latlng": "[42.8082508, 141.5690914]",
    "lat": "42.8082508",
    "lng": "141.5690914"
  },
  {
    "id": "hokkaido-aqua-14",
    "type": "aquarium",
    "name": "水族館プティ",
    "prefecture": "北海道",
    "postCode": "088-1119",
    "address": "北海道厚岸郡厚岸町住の江2丁目2-厚岸 味覚ターミナル コンキリエ1F",
    "city": "あっけし",
    "image": "/img/hokkaido/aquarium/akkeshi-puti.jpg",
    "url": "https://www.conchiglie.net/facility",
    "latlng": "[43.0578184, 144.8433799]",
    "lat": "43.0578184",
    "lng": "144.8433799"
  },
  {
    "id": "hokkaido-aqua-15",
    "type": "aquarium",
    "name": "札幌市豊平川さけ科学館",
    "prefecture": "北海道",
    "postCode": "005-0017",
    "address": "北海道札幌市南区真駒内公園2-2",
    "city": "さっぽろ",
    "image": "/img/hokkaido/aquarium/toyohira-sake.jpg",
    "url": "https://salmon-museum.jp/",
    "latlng": "[43.0006228, 141.3424991]",
    "lat": "43.0006228",
    "lng": "141.3424991"
  },
  {
    "id": "hokkaido-aqua-16",
    "type": "aquarium",
    "name": "川と湖の学習館 （網走市水産科学センター)",
    "prefecture": "北海道",
    "postCode": "093-0131",
    "address": "北海道網走市能取港町1丁目1",
    "city": "あばしり",
    "image": "/img/hokkaido/aquarium/abashiri-suisan-kagaku.jpg",
    "url": "https://www.city.abashiri.hokkaido.jp/soshiki/16/1332.html",
    "latlng": "[44.03588389999999, 144.1785207]",
    "lat": "44.0358839",
    "lng": "144.1785207"
  },
  {
    "id": "hokkaido-aqua-17",
    "type": "aquarium",
    "name": "マリモ展示観察センター",
    "prefecture": "北海道",
    "postCode": "085-0220",
    "address": "北海道釧路市阿寒町舌辛 阿寒湖 チュウルイ島",
    "city": "くしろ",
    "image": "/img/hokkaido/aquarium/marimo-tenji.jpg",
    "url": "https://www.akankisen.com/exMarimo.html",
    "latlng": "[43.4699405, 144.1083574]",
    "lat": "43.4699405",
    "lng": "144.1083574"
  },
  {
    "id": "hokkaido-aqua-18",
    "type": "aquarium",
    "name": "函館市国際水産・海洋総合研究センター",
    "prefecture": "北海道",
    "postCode": "040-0051",
    "address": "北海道函館市弁天町20-5",
    "city": "はこだて",
    "image": "/img/hokkaido/aquarium/hakodate-kaiyo-center.jpg",
    "url": "https://center.marine-hakodate.jp/",
    "latlng": "[41.7816382, 140.7036141]",
    "lat": "41.7816382",
    "lng": "140.7036141"
  }
]
