[
  {
    "id": "hokkaido-art-1",
    "type": "art",
    "name": "北海道近代美術館",
    "prefecture": "北海道",
    "postCode": "060-0001",
    "address": "北海道札幌市中央区北1条西17丁目",
    "city": "さっぽろ",
    "image": "/img/hokkaido/art/hokkaido-museum-of-modern-art.jpg",
    "url": "https://artmuseum.pref.hokkaido.lg.jp/outline/knb/",
    "latlng": "[43.0599577, 141.3337333]",
    "lat": "43.0599577",
    "lng": "141.3337333",
    "isClosed": ""
  },
  {
    "id": "hokkaido-art-2",
    "type": "art",
    "name": "北海道立三岸好太郎美術館(mima)",
    "prefecture": "北海道",
    "postCode": "060-0002",
    "address": "北海道札幌市中央区北2条西15丁目 1階",
    "city": "さっぽろ",
    "image": "/img/hokkaido/art/migishi-kotaro-museum-of-art.jpg",
    "url": "https://artmuseum.pref.hokkaido.lg.jp/outline/mkb/",
    "latlng": "[43.0615566, 141.3336055]",
    "lat": "43.0615566",
    "lng": "141.3336055",
    "isClosed": ""
  },
  {
    "id": "hokkaido-art-3",
    "type": "art",
    "name": "北海道立函館美術館",
    "prefecture": "北海道",
    "postCode": "040-0001",
    "address": "北海道函館市五稜郭町37-6",
    "city": "はこだて",
    "image": "/img/hokkaido/art/hakodate-museum-of-art.jpg",
    "url": "https://artmuseum.pref.hokkaido.lg.jp/hbj",
    "latlng": "[41.793426, 140.7546489]",
    "lat": "41.793426",
    "lng": "140.7546489",
    "isClosed": ""
  },
  {
    "id": "hokkaido-art-4",
    "type": "art",
    "name": "札幌芸術の森",
    "prefecture": "北海道",
    "postCode": "005-0864",
    "address": "北海道札幌市南区芸術の森2丁目75",
    "city": "さっぽろ",
    "image": "/img/hokkaido/art/sapporoArtPark.jpg",
    "url": "https://artpark.or.jp/shisetsu/sapporo-art-museum/",
    "latlng": "[42.9408548, 141.339629]",
    "lat": "42.9408548",
    "lng": "141.339629",
    "isClosed": ""
  },
  {
    "id": "hokkaido-art-5",
    "type": "art",
    "name": "苫小牧市美術博物館",
    "prefecture": "北海道",
    "postCode": "053-0011",
    "address": "北海道苫小牧市末広町3丁目9-7",
    "city": "とまこまい",
    "image": "/img/hokkaido/art/tomakomaiArtMuseum.jpg",
    "url": "https://www.city.tomakomai.hokkaido.jp/hakubutsukan/",
    "latlng": "[42.6372942, 141.6129414]",
    "lat": "42.6372942",
    "lng": "141.6129414",
    "isClosed": ""
  },
  {
    "id": "hokkaido-art-6",
    "type": "art",
    "name": "市立小樽美術館",
    "prefecture": "北海道",
    "postCode": "047-0031",
    "address": "北海道小樽市色内1丁目9-5",
    "city": "おたる",
    "image": "/img/hokkaido/art/otaruArtMuseum.jpg",
    "url": "http://otarubij-kyoryoku.com/",
    "latlng": "[43.19678529999999, 140.9998508]",
    "lat": "43.1967853",
    "lng": "140.9998508",
    "isClosed": ""
  },
  {
    "id": "hokkaido-art-7",
    "type": "art",
    "name": "北一ヴェネツィア美術館",
    "prefecture": "北海道",
    "postCode": "047-0027",
    "address": "北海道小樽市堺町5-27",
    "city": "おたる",
    "image": "/img/hokkaido/art/hokkaidoVeneziaMuseum.jpg",
    "url": "https://venezia-museum.or.jp/",
    "latlng": "[43.1935686, 141.0069027]",
    "lat": "43.1935686",
    "lng": "141.0069027",
    "isClosed": ""
  },
  {
    "id": "hokkaido-art-8",
    "type": "art",
    "name": "荒井記念美術館",
    "prefecture": "北海道",
    "postCode": "045-0024",
    "address": "北海道岩内郡岩内町野束505",
    "city": "いわない",
    "image": "/img/hokkaido/art/araiMemorialMuseum.jpg",
    "url": "https://iwanai-h.com/art/",
    "latlng": "[42.9515952, 140.5175193]",
    "lat": "42.9515952",
    "lng": "140.5175193",
    "isClosed": ""
  },
  {
    "id": "hokkaido-art-9",
    "type": "art",
    "name": "本郷新記念札幌彫刻美術館",
    "prefecture": "北海道",
    "postCode": "064-0954",
    "address": "北海道札幌市中央区宮の森4条12丁目1-41",
    "city": "さっぽろ",
    "image": "/img/hokkaido/art/honmaShinjiMemorialSculptureMuseum.jpg",
    "url": "http://www.hongoshin-smos.jp/",
    "latlng": "[43.0551294, 141.2964829]",
    "lat": "43.0551294",
    "lng": "141.2964829",
    "isClosed": ""
  },
  {
    "id": "hokkaido-art-10",
    "type": "art",
    "name": "北海道立旭川美術館",
    "prefecture": "北海道",
    "postCode": "070-0044",
    "address": "北海道旭川市常磐公園4046-1",
    "city": "あさひかわ",
    "image": "/img/hokkaido/art/asahikawaArtMuseum.jpg",
    "url": "https://artmuseum.pref.hokkaido.lg.jp/abj",
    "latlng": "[43.7741716, 142.3554289]",
    "lat": "43.7741716",
    "lng": "142.3554289",
    "isClosed": ""
  },
  {
    "id": "hokkaido-art-11",
    "type": "art",
    "name": "北海道立帯広美術館",
    "prefecture": "北海道",
    "postCode": "080-0846",
    "address": "北海道帯広市緑ケ丘 公園内",
    "city": "おびひろ",
    "image": "/img/hokkaido/art/obihiroArtMuseum.jpg",
    "url": "https://artmuseum.pref.hokkaido.lg.jp/obj",
    "latlng": "[42.9050156, 143.1872658]",
    "lat": "42.9050156",
    "lng": "143.1872658",
    "isClosed": ""
  },
  {
    "id": "hokkaido-art-12",
    "type": "art",
    "name": "北海道立釧路芸術館",
    "prefecture": "北海道",
    "postCode": "085-0017",
    "address": "北海道釧路市幸町4丁目1-5",
    "city": "くしろ",
    "image": "/img/hokkaido/art/kushiroArtMuseum.jpg",
    "url": "https://www.kushiro-artmu.jp/",
    "latlng": "[42.9827976, 144.3797872]",
    "lat": "42.9827976",
    "lng": "144.3797872",
    "isClosed": ""
  },
  {
    "id": "hokkaido-art-13",
    "type": "art",
    "name": "釧路市立美術館",
    "prefecture": "北海道",
    "postCode": "085-0836",
    "address": "北海道釧路市幣舞町4-28 生涯学習センターまなぼっと3階",
    "city": "くしろ",
    "image": "/img/hokkaido/art/kushiroCityArtMuseum.jpg",
    "url": "https://k-bijutsukan.net/",
    "latlng": "[42.9780738, 144.3859878]",
    "lat": "42.9780738",
    "lng": "144.3859878",
    "isClosed": ""
  },
  {
    "id": "hokkaido-art-14",
    "type": "art",
    "name": "六花亭アートヴィレッジ 中札内美術村",
    "prefecture": "北海道",
    "postCode": "089-1366",
    "address": "北海道河西郡中札内村栄東5線",
    "city": "なかさつない",
    "image": "/img/hokkaido/art/rokkaTeiArtVillage.jpg",
    "url": "https://www.rokkatei.co.jp/facilities/%E4%B8%AD%E6%9C%AD%E5%86%85%E7%BE%8E%E8%A1%93%E6%9D%91/",
    "latlng": "[42.6700744, 143.1612764]",
    "lat": "42.6700744",
    "lng": "143.1612764",
    "isClosed": ""
  },
  {
    "id": "hokkaido-art-15",
    "type": "art",
    "name": "木のおもちゃワールド館 ちゃちゃワールド",
    "prefecture": "北海道",
    "postCode": "099-0701",
    "address": "北海道紋別郡遠軽町生田原143-4",
    "city": "えんがる",
    "image": "/img/hokkaido/art/woodenToyWorld.jpg",
    "url": "http://cha2world.com/",
    "latlng": "[43.9278044, 143.528806]",
    "lat": "43.9278044",
    "lng": "143.528806",
    "isClosed": ""
  },
  {
    "id": "hokkaido-art-16",
    "type": "art",
    "name": "西村計雄記念美術館",
    "prefecture": "北海道",
    "postCode": "048-2202",
    "address": "北海道岩内郡共和町南幌似143-2",
    "city": "きょうわ",
    "image": "/img/hokkaido/art/nishimuraKeioMemorialMuseum.jpg",
    "url": "https://www.town.kyowa.hokkaido.jp/administration/?content=348",
    "latlng": "[42.9750827, 140.6091658]",
    "lat": "42.9750827",
    "lng": "140.6091658",
    "isClosed": ""
  },
  {
    "id": "hokkaido-art-17",
    "type": "art",
    "name": "北海道風景画館",
    "prefecture": "北海道",
    "postCode": "071-0737",
    "address": "北海道空知郡中富良野町奈江無番地",
    "city": "ふらの",
    "image": "/img/hokkaido/art/hokkaidoLandscapeMuseum.jpg",
    "url": "https://hokkaidofukeigakan.jp/",
    "latlng": "[43.4384192, 142.3876064]",
    "lat": "43.4384192",
    "lng": "142.3876064",
    "isClosed": ""
  },
  {
    "id": "hokkaido-art-18",
    "type": "art",
    "name": "シュタイフ ディスカバリーウォーク",
    "prefecture": "北海道",
    "postCode": "066-0012",
    "address": "北海道千歳市 美々987番地22 新千歳空港ターミナルビル",
    "city": "ちとせ",
    "image": "/img/hokkaido/art/steiffDiscoveryWalk.jpg",
    "url": "https://www.hokkaido-airports.com/ja/new-chitose/spend/enjoy/discovery/",
    "latlng": "[42.78729750000001, 141.6783318]",
    "lat": "42.7872975",
    "lng": "141.6783318",
    "isClosed": ""
  },
  {
    "id": "hokkaido-art-19",
    "type": "art",
    "name": "トリックアート美術館",
    "prefecture": "北海道",
    "postCode": "071-0508",
    "address": "北海道空知郡上富良野町西8線北33号",
    "city": "かみふらの",
    "image": "/img/hokkaido/art/trickArtMuseum.jpg",
    "url": "https://tokachidake.com/art/trick-art-musium.html",
    "latlng": "[43.5152081, 142.4482891]",
    "lat": "43.5152081",
    "lng": "142.4482891",
    "isClosed": ""
  },
  {
    "id": "hokkaido-art-20",
    "type": "art",
    "name": "江別市セラミックアートセンター",
    "prefecture": "北海道",
    "postCode": "069-0832",
    "address": "北海道江別市西野幌114-5",
    "city": "えべつ",
    "image": "/img/hokkaido/art/ebetsuCeramicArtCenter.jpg",
    "url": "https://www.city.ebetsu.hokkaido.jp/site/ceramic/",
    "latlng": "[43.0711271, 141.5403657]",
    "lat": "43.0711271",
    "lng": "141.5403657",
    "isClosed": ""
  },
  {
    "id": "hokkaido-art-21",
    "type": "art",
    "name": "拓真館",
    "prefecture": "北海道",
    "postCode": "071-0474",
    "address": "北海道上川郡美瑛町 字拓進",
    "city": "びえい",
    "image": "/img/hokkaido/art/takushinkan.jpg",
    "url": "https://www.takushinkan.shop/?srsltid=AfmBOortrwSVwfeLOnkFxaYZiVVVcDRKZixABOhp699PeWgHzlVkje5E",
    "latlng": "[43.5882639, 142.4670046]",
    "lat": "43.5882639",
    "lng": "142.4670046",
    "isClosed": ""
  },
  {
    "id": "hokkaido-art-22",
    "type": "art",
    "name": "網走市立美術館",
    "prefecture": "北海道",
    "postCode": "093-0016",
    "address": "北海道網走市南6条西1丁目",
    "city": "あばしり",
    "image": "/img/hokkaido/art/abashiriArtMuseum.jpg",
    "url": "https://www.city.abashiri.hokkaido.jp/site/artmuseum/",
    "latlng": "[44.0195498, 144.2652288]",
    "lat": "44.0195498",
    "lng": "144.2652288",
    "isClosed": ""
  },
  {
    "id": "hokkaido-art-23",
    "type": "art",
    "name": "安田侃彫刻美術館 アルテピアッツァ美唄",
    "prefecture": "北海道",
    "postCode": "072-0831",
    "address": "北海道美唄市落合町栄町",
    "city": "びえい",
    "image": "/img/hokkaido/art/artePiazzaBibai.jpg",
    "url": "https://www.artepiazza.jp/",
    "latlng": "[43.3326235, 141.9114745]",
    "lat": "43.3326235",
    "lng": "141.9114745",
    "isClosed": ""
  },
  {
    "id": "hokkaido-art-24",
    "type": "art",
    "name": "後藤純男美術館",
    "prefecture": "北海道",
    "postCode": "071-0524",
    "address": "北海道空知郡上富良野町東4線北26号",
    "city": "かみふらの",
    "image": "/img/hokkaido/art/sumioGotoMuseum.jpg",
    "url": "https://gotosumiomuseum.com/",
    "latlng": "[43.4426908, 142.4835528]",
    "lat": "43.4426908",
    "lng": "142.4835528",
    "isClosed": ""
  },
  {
    "id": "hokkaido-art-25",
    "type": "art",
    "name": "小樽オルゴール堂2号館アンティークミュージアム",
    "prefecture": "北海道",
    "postCode": "047-0027",
    "address": "北海道小樽市堺町6-13",
    "city": "おたる",
    "image": "/img/hokkaido/art/otaruOrgelDoh2.jpg",
    "url": "https://www.otaru-orgel.co.jp/antique-orgel",
    "latlng": "[43.1912413, 141.0069939]",
    "lat": "43.1912413",
    "lng": "141.0069939",
    "isClosed": ""
  },
  {
    "id": "hokkaido-art-26",
    "type": "art",
    "name": "大正硝子ギャラリー蔵",
    "prefecture": "北海道",
    "postCode": "047-0021",
    "address": "北海道小樽市入船1丁目2-26",
    "city": "おたる",
    "image": "/img/hokkaido/art/taishoGlassGalleryKura.jpg",
    "url": "https://www.otaruglass.com/%E3%82%AE%E3%83%A3%E3%83%A9%E3%83%AA%E3%83%BC%E8%94%B5",
    "latlng": "[43.1896239, 141.0066915]",
    "lat": "43.1896239",
    "lng": "141.0066915",
    "isClosed": ""
  },
  {
    "id": "hokkaido-art-27",
    "type": "art",
    "name": "こぶ志陶苑こぶ志窯",
    "prefecture": "北海道",
    "postCode": "068-0005",
    "address": "北海道岩見沢市5条東13丁目27",
    "city": "いわみざわ",
    "image": "/img/hokkaido/art/kobushiyaki.jpg",
    "url": "https://www.kobushiyaki.jp/",
    "latlng": "[43.2096399, 141.7821756]",
    "lat": "43.2096399",
    "lng": "141.7821756",
    "isClosed": ""
  },
  {
    "id": "hokkaido-art-28",
    "type": "art",
    "name": "木田金次郎美術館",
    "prefecture": "北海道",
    "postCode": "045-0003",
    "address": "北海道岩内郡岩内町万代51-3",
    "city": "いわない",
    "image": "/img/hokkaido/art/kidakinjiroMuseum.jpg",
    "url": "https://www.kidakinjiro.com/",
    "latlng": "[42.9839948, 140.5151741]",
    "lat": "42.9839948",
    "lng": "140.5151741",
    "isClosed": ""
  },
  {
    "id": "hokkaido-art-29",
    "type": "art",
    "name": "カルチャーセンター＆りっぷ館",
    "prefecture": "北海道",
    "postCode": "097-0101",
    "address": "北海道利尻郡利尻富士町鴛泊字栄町119-1",
    "city": "りしり",
    "image": "/img/hokkaido/art/cultureCenterRipkan.jpg",
    "url": "https://www.rishiri-plus.jp/shima-place/culture-center-ripkan/",
    "latlng": "[45.246118, 141.2179069]",
    "lat": "45.246118",
    "lng": "141.2179069",
    "isClosed": ""
  },
  {
    "id": "hokkaido-art-30",
    "type": "art",
    "name": "幌延町金田心象書道美術館",
    "prefecture": "北海道",
    "postCode": "098-3223",
    "address": "北海道天塩郡幌延町幌延102-1",
    "city": "ほろのべ",
    "image": "/img/hokkaido/art/horonobeKanadaShozoShodoMuseum.jpg",
    "url": "https://www.town.horonobe.lg.jp/www4/section/edu/le009f0000001tpg.html",
    "latlng": "[45.0214809, 141.8457731]",
    "lat": "45.0214809",
    "lng": "141.8457731",
    "isClosed": ""
  },
  {
    "id": "hokkaido-art-31",
    "type": "art",
    "name": "神田日勝記念美術館",
    "prefecture": "北海道",
    "postCode": "081-0222",
    "address": "北海道河東郡鹿追町東町3丁目2",
    "city": "しかおい",
    "image": "/img/hokkaido/art/kandahisshoMemorialMuseum.jpg",
    "url": "https://kandanissho.com/",
    "latlng": "[43.0965648, 142.9902339]",
    "lat": "43.0965648",
    "lng": "142.9902339",
    "isClosed": ""
  },
  {
    "id": "hokkaido-art-32",
    "type": "art",
    "name": "福原記念美術館",
    "prefecture": "北海道",
    "postCode": "081-0212",
    "address": "北海道河東郡鹿追町泉町1丁目21",
    "city": "しかおい",
    "image": "/img/hokkaido/art/fukuharaMemorialMuseum.jpg",
    "url": "https://art-fukuhara.jp/",
    "latlng": "[43.1030258, 142.986058]",
    "lat": "43.1030258",
    "lng": "142.986058",
    "isClosed": ""
  },
  {
    "id": "hokkaido-art-33",
    "type": "art",
    "name": "大雪山・層雲峡写真ミュージアム",
    "prefecture": "北海道",
    "postCode": "078-1701",
    "address": "北海道上川郡上川町字層雲峡（旧層雲峡小学校跡）",
    "city": "かみかわ",
    "image": "/img/hokkaido/art/taisetsusanSounkyoPhotoMuseum.jpg",
    "url": "https://www.town.hokkaido-kamikawa.lg.jp/section/sangyoukeizai/i8u8uo0000000bb5.html",
    "latlng": "[43.7263313, 142.9483613]",
    "lat": "43.7263313",
    "lng": "142.9483613",
    "isClosed": ""
  },
  {
    "id": "hokkaido-art-34",
    "type": "art",
    "name": "小樽芸術村 似鳥美術館",
    "prefecture": "北海道",
    "postCode": "047-0031",
    "address": "北海道小樽市色内1丁目3-1",
    "city": "おたる",
    "image": "/img/hokkaido/art/otaruArtVillageNitoriMuseum.jpg",
    "url": "https://www.nitorihd.co.jp/otaru-art-base/",
    "latlng": "[43.1973254, 141.0020352]",
    "lat": "43.1973254",
    "lng": "141.0020352",
    "isClosed": ""
  },
  {
    "id": "hokkaido-art-35",
    "type": "art",
    "name": "ぬくもりの里芸術文化交流施設「向陽館」（髙橋要の世界美術館）",
    "prefecture": "北海道",
    "postCode": "074-1275",
    "address": "北海道深川市音江町向陽82",
    "city": "ふかがわ",
    "image": "/img/hokkaido/art/nukumorinosato.jpg",
    "url": "https://www.city.fukagawa.lg.jp/kankou/pages2/ne5dau00000009jm.html",
    "latlng": "[43.6694265, 142.0161508]",
    "lat": "43.6694265",
    "lng": "142.0161508",
    "isClosed": ""
  },
  {
    "id": "hokkaido-art-36",
    "type": "art",
    "name": "中原悌二郎記念旭川市彫刻美術館",
    "prefecture": "北海道",
    "postCode": "070-0875",
    "address": "北海道旭川市春光5条7丁目",
    "city": "あさひかわ",
    "image": "/img/hokkaido/art/nakaharaTeijiroMemorialAsahikawaSculptureMuseum.jpg",
    "url": "https://www.city.asahikawa.hokkaido.jp/facility00/facility04/d053821.html",
    "latlng": "[43.80484999999999, 142.3651099]",
    "lat": "43.80485",
    "lng": "142.3651099",
    "isClosed": ""
  },
  {
    "id": "hokkaido-art-37",
    "type": "art",
    "name": "釧路湿原美術館",
    "prefecture": "北海道",
    "postCode": "085-0245",
    "address": "北海道釧路市阿寒町上阿寒23線38",
    "city": "くしろ",
    "image": "/img/hokkaido/art/kushiroShitsugenMuseum.jpg",
    "url": "https://shitsugenmuseum.sakura.ne.jp/",
    "latlng": "[43.1429743, 144.1462938]",
    "lat": "43.1429743",
    "lng": "144.1462938",
    "isClosed": ""
  },
  {
    "id": "hokkaido-art-38",
    "type": "art",
    "name": "洞爺湖芸術館",
    "prefecture": "北海道",
    "postCode": "049-5802",
    "address": "北海道虻田郡洞爺湖町洞爺町96",
    "city": "とうやこ",
    "image": "/img/hokkaido/art/toyakoArtMuseum.jpg",
    "url": "http://www.geijutukan.net/",
    "latlng": "[42.6473889, 140.8343724]",
    "lat": "42.6473889",
    "lng": "140.8343724",
    "isClosed": ""
  },
  {
    "id": "hokkaido-art-39",
    "type": "art",
    "name": "北のアルプ美術館",
    "prefecture": "北海道",
    "postCode": "099-4114",
    "address": "北海道斜里郡斜里町朝日町11-2 アルプ通り",
    "city": "しゃり",
    "image": "/img/hokkaido/art/kitanoAlpMuseum.png",
    "url": "http://www.alp-museum.org/",
    "latlng": "[43.90920999999999, 144.676468]",
    "lat": "43.90921",
    "lng": "144.676468",
    "isClosed": ""
  },
  {
    "id": "hokkaido-art-40",
    "type": "art",
    "name": "小原道城 書道美術館",
    "prefecture": "北海道",
    "postCode": "060-0002",
    "address": "北海道札幌市中央区北2条西2丁目41 札幌2・2ビル 2F",
    "city": "さっぽろ",
    "image": "/img/hokkaido/art/oharaMichikiShodoMuseum.jpg",
    "url": "https://y-suiran.jimdofree.com/%E6%9B%B8%E9%81%93%E7%BE%8E%E8%A1%93%E9%A4%A8/",
    "latlng": "[43.0635497, 141.3533143]",
    "lat": "43.0635497",
    "lng": "141.3533143",
    "isClosed": ""
  },
  {
    "id": "hokkaido-art-41",
    "type": "art",
    "name": "シゲチャンランド",
    "prefecture": "北海道",
    "postCode": "092-0361",
    "address": "北海道網走郡津別町相生256",
    "city": "あばしり",
    "image": "/img/hokkaido/art/shigechanLand.jpg",
    "url": "https://shigechanland.com/",
    "latlng": "[43.5284258, 143.9852949]",
    "lat": "43.5284258",
    "lng": "143.9852949",
    "isClosed": ""
  },
  {
    "id": "hokkaido-art-42",
    "type": "art",
    "name": "太陽の森 ディマシオ美術館",
    "prefecture": "北海道",
    "postCode": "059-2343",
    "address": "北海道新冠郡新冠町太陽204-5",
    "city": "にいかっぷ",
    "image": "/img/hokkaido/art/dimaccioMuseum.jpg",
    "url": "https://dimaccio-museum.jp/",
    "latlng": "[42.5275936, 142.413899]",
    "lat": "42.5275936",
    "lng": "142.413899",
    "isClosed": ""
  },
  {
    "id": "hokkaido-art-43",
    "type": "art",
    "name": "漫画美術館 文化センターTOM",
    "prefecture": "北海道",
    "postCode": "099-6329",
    "address": "北海道紋別郡湧別町中湧別中町3020-1",
    "city": "ゆうべつ",
    "image": "/img/hokkaido/art/mangaMuseumTOM.jpg",
    "url": "https://www.town.yubetsu.lg.jp/administration/culture/detail.html?content=53",
    "latlng": "[44.1851185, 143.595529]",
    "lat": "44.1851185",
    "lng": "143.595529",
    "isClosed": ""
  },
  {
    "id": "hokkaido-art-44",
    "type": "art",
    "name": "新星館",
    "prefecture": "北海道",
    "postCode": "071-0473",
    "address": "北海道上川郡美瑛町新星",
    "city": "びえい",
    "image": "/img/hokkaido/art/shinseikan.jpg",
    "url": "http://www.waneibunkasha.com/sinseikan.html",
    "latlng": "[43.519914, 142.4911755]",
    "lat": "43.519914",
    "lng": "142.4911755",
    "isClosed": ""
  },
  {
    "id": "hokkaido-art-45",
    "type": "art",
    "name": "小さな陶芸美術館",
    "prefecture": "北海道",
    "postCode": "005-0832",
    "address": "北海道札幌市南区北ノ沢1744-27",
    "city": "さっぽろ",
    "image": "/img/hokkaido/art/tiisanaTougei.jpg",
    "url": "https://sakurayamayudo.web.fc2.com/",
    "latlng": "[43.0113536, 141.3040224]",
    "lat": "43.0113536",
    "lng": "141.3040224",
    "isClosed": ""
  },
  {
    "id": "hokkaido-art-46",
    "type": "art",
    "name": "野本醇北の箱舟美術館",
    "prefecture": "北海道",
    "postCode": "059-0465",
    "address": "北海道登別市登別本町2丁目21-4",
    "city": "のぼりべつ",
    "image": "/img/hokkaido/art/nomotoJunMuseum.jpg",
    "url": "",
    "latlng": "[42.4534455, 141.167242]",
    "lat": "42.4534455",
    "lng": "141.167242",
    "isClosed": ""
  },
  {
    "id": "hokkaido-art-47",
    "type": "art",
    "name": "エコミュージアムおさしまセンター",
    "prefecture": "北海道",
    "postCode": "098-2500",
    "address": "北海道中川郡音威子府村物満内55",
    "city": "おといねっぷ",
    "image": "/img/hokkaido/art/ecoMuseumOsashimaCenter.jpg",
    "url": "https://bikkyatelier3more.wixsite.com/atelier3more",
    "latlng": "[44.7376306, 142.1960445]",
    "lat": "44.7376306",
    "lng": "142.1960445",
    "isClosed": ""
  },
  {
    "id": "hokkaido-art-48",
    "type": "art",
    "name": "黒い森美術館 (渋谷栄一記念ギャラリー)",
    "prefecture": "北海道",
    "postCode": "061-1153",
    "address": "北海道北広島市 富ケ丘509-22",
    "city": "きたひろしま",
    "image": "/img/hokkaido/art/kuroiMoriMuseum.jpg",
    "url": "https://freiburg1033.jimdofree.com/",
    "latlng": "[42.9531141, 141.5373099]",
    "lat": "42.9531141",
    "lng": "141.5373099",
    "isClosed": ""
  },
  {
    "id": "hokkaido-art-49",
    "type": "art",
    "name": "金森美術館",
    "prefecture": "北海道",
    "postCode": "040-8632",
    "address": "北海道函館市広末町22-1",
    "city": "はこだて",
    "image": "/img/hokkaido/art/kanamoriArtMuseum.jpg",
    "url": "http://masa5s5.fc2web.com/hokkaidou/hakodate25.htm",
    "latlng": "[41.7686961, 140.7290599]",
    "lat": "41.7686961",
    "lng": "140.7290599",
    "isClosed": ""
  },
  {
    "id": "hokkaido-art-50",
    "type": "art",
    "name": "小川原脩記念美術館",
    "prefecture": "北海道",
    "postCode": "044-0006",
    "address": "北海道虻田郡倶知安町北6条東7丁目1",
    "city": "くっちゃん",
    "image": "/img/hokkaido/art/ogawaraShuMemorialMuseum.jpg",
    "url": "https://www.town.kutchan.hokkaido.jp/culture-sports/ogawara-museum/",
    "latlng": "[42.90641129999999, 140.76762]",
    "lat": "42.9064113",
    "lng": "140.76762",
    "isClosed": ""
  },
  {
    "id": "hokkaido-art-51",
    "type": "art",
    "name": "荒川版画美術館",
    "prefecture": "北海道",
    "postCode": "086-1273",
    "address": "北海道標津郡中標津町俣落2000-8",
    "city": "なかしべつ",
    "image": "/img/hokkaido/art/arikawaPrintMuseum.jpg",
    "url": "",
    "latlng": "[43.5850692, 144.7993738]",
    "lat": "43.5850692",
    "lng": "144.7993738",
    "isClosed": ""
  },
  {
    "id": "hokkaido-art-52",
    "type": "art",
    "name": "森ヒロコ.スタシス記念 小樽バザールヴィタ美術館",
    "prefecture": "北海道",
    "postCode": "047-0034",
    "address": "北海道小樽市緑1丁目16-33",
    "city": "おたる",
    "image": "/img/hokkaido/art/moriHirokoStasisMemorialOtaruBazaarVitaMuseum.jpg",
    "url": "https://bazaarvitashop.jimdofree.com/",
    "latlng": "[43.1898122, 140.9897471]",
    "lat": "43.1898122",
    "lng": "140.9897471",
    "isClosed": ""
  },
  {
    "id": "hokkaido-art-53",
    "type": "art",
    "name": "深川市アートホール東洲館",
    "prefecture": "北海道",
    "postCode": "074-0001",
    "address": "北海道深川市1条9-19",
    "city": "ふかがわ",
    "image": "/img/hokkaido/art/fukagawaArtHallToshoKan.jpg",
    "url": "https://www.city.fukagawa.lg.jp/cms/section/gakuspo/ik75k4000000cfs3.html",
    "latlng": "[43.72111659999999, 142.0425419]",
    "lat": "43.7211166",
    "lng": "142.0425419",
    "isClosed": ""
  },
  {
    "id": "hokkaido-art-54",
    "type": "art",
    "name": "伏木田光夫美術館",
    "prefecture": "北海道",
    "postCode": "057-0002",
    "address": "北海道浦河郡浦河町字西幌別327-9 乗馬公園クラブハウス内",
    "city": "うらかわ",
    "image": "/img/hokkaido/art/fushikidaMitsuoMuseum.jpg",
    "url": "https://www.town.urakawa.hokkaido.jp/gyosei/culture/?content=235",
    "latlng": "[42.15113119999999, 142.8369514]",
    "lat": "42.1511312",
    "lng": "142.8369514",
    "isClosed": ""
  },
  {
    "id": "hokkaido-art-55",
    "type": "art",
    "name": "森の美術館 木夢",
    "prefecture": "北海道",
    "postCode": "098-1501",
    "address": "北海道紋別郡西興部村西興部276",
    "city": "にしおこっぺ",
    "image": "/img/hokkaido/art/moriNoBijutsukanKomu.jpg",
    "url": "https://www.vill.nishiokoppe.lg.jp/komu/",
    "latlng": "[44.3304734, 142.9488593]",
    "lat": "44.3304734",
    "lng": "142.9488593",
    "isClosed": ""
  },
  {
    "id": "hokkaido-art-56",
    "type": "art",
    "name": "滝川市美術自然史館",
    "prefecture": "北海道",
    "postCode": "073-0033",
    "address": "北海道滝川市新町2丁目5-30",
    "city": "たきかわ",
    "image": "/img/hokkaido/art/takikawaArtNaturalHistoryMuseum.jpg",
    "url": "https://www.city.takikawa.lg.jp/site/museum/",
    "latlng": "[43.551993, 141.9146658]",
    "lat": "43.551993",
    "lng": "141.9146658",
    "isClosed": ""
  },
  {
    "id": "hokkaido-art-57",
    "type": "art",
    "name": "室蘭市民美術館",
    "prefecture": "北海道",
    "postCode": "051-0016",
    "address": "北海道室蘭市幸町6-23",
    "city": "むろらん",
    "image": "/img/hokkaido/art/muroranCityArtMuseum.jpg",
    "url": "https://www.city.muroran.lg.jp/culture/?content=1535",
    "latlng": "[42.3158811, 140.9704494]",
    "lat": "42.3158811",
    "lng": "140.9704494",
    "isClosed": ""
  },
  {
    "id": "hokkaido-art-58",
    "type": "art",
    "name": "HOKUBU(北武)記念絵画館",
    "prefecture": "北海道",
    "postCode": "062-0911",
    "address": "北海道札幌市豊平区旭町1丁目1-36 北武記念絵画館",
    "city": "さっぽろ",
    "image": "/img/hokkaido/art/hokubuKinenKaikan.jpg",
    "url": "https://www.hokubu-kinen.or.jp/",
    "latlng": "[43.0498229, 141.365125]",
    "lat": "43.0498229",
    "lng": "141.365125",
    "isClosed": ""
  },
  {
    "id": "hokkaido-art-59",
    "type": "art",
    "name": "札幌宮の森美術館",
    "prefecture": "北海道",
    "postCode": "064-0952",
    "address": "北海道札幌市中央区宮の森2条11丁目2-1",
    "city": "さっぽろ",
    "image": "",
    "url": "https://www.instagram.com/newmap_fornorth/",
    "latlng": "[43.0572487, 141.302544]",
    "lat": "43.0572487",
    "lng": "141.302544",
    "isClosed": "TRUE"
  },
  {
    "id": "hokkaido-art-60",
    "type": "art",
    "name": "ポストカードギャラリー絵葉描館",
    "prefecture": "北海道",
    "postCode": "071-0462",
    "address": "北海道上川郡美瑛町美馬牛南1丁目1-26",
    "city": "びえい",
    "image": "/img/hokkaido/art/postcardGalleryEhagakikan.jpg",
    "url": "https://www.bibaushi.jp/ehagakikan/index.html",
    "latlng": "[43.5374813, 142.4480604]",
    "lat": "43.5374813",
    "lng": "142.4480604",
    "isClosed": ""
  },
  {
    "id": "hokkaido-art-61",
    "type": "art",
    "name": "かたるべの森美術館",
    "prefecture": "北海道",
    "postCode": "078-1333",
    "address": "北海道上川郡当麻町伊香牛2区",
    "city": "かみかわ",
    "image": "/img/hokkaido/art/katarubeMuseum.jpg",
    "url": "https://katarube.jp/facility/katarube-museum/",
    "latlng": "[43.8725078, 142.5292795]",
    "lat": "43.8725078",
    "lng": "142.5292795",
    "isClosed": ""
  },
  {
    "id": "hokkaido-art-62",
    "type": "art",
    "name": "ゆに(UNI)絹窯美術館ぎゃらりー",
    "prefecture": "北海道",
    "postCode": "069-1218",
    "address": "北海道夕張郡由仁町伏見151",
    "city": "ゆに",
    "image": "/img/hokkaido/art/uniKinyoMuseum.jpg",
    "url": "",
    "latlng": "[43.00545700000001, 141.770417]",
    "lat": "43.005457",
    "lng": "141.770417",
    "isClosed": ""
  },
  {
    "id": "hokkaido-art-63",
    "type": "art",
    "name": "関口雄揮記念美術館",
    "prefecture": "北海道",
    "postCode": "005-0853",
    "address": "北海道札幌市南区常盤3条1丁目7-19",
    "city": "さっぽろ",
    "image": "/img/hokkaido/art/sekiguchiYukiMemorialMuseum.jpg",
    "url": "http://www.sekiguchi-muse.jp/",
    "latlng": "[42.9423099, 141.3444135]",
    "lat": "42.9423099",
    "lng": "141.3444135",
    "isClosed": ""
  },
  {
    "id": "hokkaido-art-64",
    "type": "art",
    "name": "ニセコ湯里高原ギャラリー",
    "prefecture": "北海道",
    "postCode": "048-1321",
    "address": "北海道磯谷郡蘭越町湯里341-1",
    "city": "らんこし",
    "image": "",
    "url": "",
    "latlng": "[42.8328856, 140.6163483]",
    "lat": "42.8328856",
    "lng": "140.6163483",
    "isClosed": ""
  },
  {
    "id": "hokkaido-art-65",
    "type": "art",
    "name": "ウッディライフ woodylife",
    "prefecture": "北海道",
    "postCode": "071-0509",
    "address": "北海道空知郡上富良野町西9線北34号3434",
    "city": "かみふらの",
    "image": "/img/hokkaido/art/woodylife.jpg",
    "url": "https://www.biei-hokkaido.jp/ja/facility/woodylife",
    "latlng": "[43.5192851, 142.4488963]",
    "lat": "43.5192851",
    "lng": "142.4488963",
    "isClosed": ""
  },
  {
    "id": "hokkaido-art-66",
    "type": "art",
    "name": "画家の美術館",
    "prefecture": "北海道",
    "postCode": "082-0073",
    "address": "北海道河西郡芽室町中伏古5線3",
    "city": "めむろ",
    "image": "/img/hokkaido/art/gakabi.jpg",
    "url": "https://gakabi.com/",
    "latlng": "[42.8580249, 143.071397]",
    "lat": "42.8580249",
    "lng": "143.071397",
    "isClosed": ""
  },
  {
    "id": "hokkaido-art-67",
    "type": "art",
    "name": "みたらの杜美術館",
    "prefecture": "北海道",
    "postCode": "051-0035",
    "address": "北海道室蘭市絵鞆町2丁目22-1 特別養護老人ホーム みたらの杜内",
    "city": "むろらん",
    "image": "/img/hokkaido/art/mitaranomori.jpg",
    "url": "https://www.koseikai-wel.or.jp/mitara.html",
    "latlng": "[42.334396, 140.935347]",
    "lat": "42.334396",
    "lng": "140.935347",
    "isClosed": ""
  },
  {
    "id": "hokkaido-art-68",
    "type": "art",
    "name": "美瑛町西美の杜",
    "prefecture": "北海道",
    "postCode": "071-0478",
    "address": "北海道上川郡美瑛町字留辺蘂第2 西美体験交流館",
    "city": "びえい",
    "image": "/img/hokkaido/art/nishibinomori.jpg",
    "url": "https://r.goope.jp/seibi/",
    "latlng": "[43.55491550000001, 142.4222996]",
    "lat": "43.5549155",
    "lng": "142.4222996",
    "isClosed": ""
  }
]
