[
  {
    "id": "hokkaido-museum-1",
    "type": "museum",
    "name": "北海道博物館",
    "prefecture": "北海道",
    "postCode": "004-0006",
    "address": "北海道札幌市厚別区厚別町小野幌53-2",
    "city": "さっぽろ",
    "image": "/img/hokkaido/museum/hokkaido-museum.jpg",
    "url": "https://www.hm.pref.hokkaido.lg.jp/",
    "latlng": "[43.0531464, 141.4965642]",
    "lat": 43.0531464,
    "lng": 141.4965642,
    "isClosed": false
  },
  {
    "id": "hokkaido-museum-2",
    "type": "museum",
    "name": "北海道大学総合博物館",
    "prefecture": "北海道",
    "postCode": "060-0810",
    "address": "北海道札幌市北区北10条西8丁目",
    "city": "さっぽろ",
    "image": "/img/hokkaido/museum/hokkaido-university-museum.png",
    "url": "https://www.museum.hokudai.ac.jp/",
    "latlng": "[43.0722642, 141.3421157]",
    "lat": 43.0722642,
    "lng": 141.3421157,
    "isClosed": false
  },
  {
    "id": "hokkaido-museum-3",
    "type": "museum",
    "name": "むかわ町立穂別博物館",
    "prefecture": "北海道",
    "postCode": "054-0211",
    "address": "北海道むかわ町穂別08番地6",
    "city": "むかわ",
    "image": "/img/hokkaido/museum/hobetsu-museum.jpg",
    "url": "http://www.town.mukawa.lg.jp/1908.htm",
    "latlng": "[42.7823396, 142.1231808]",
    "lat": 42.7823396,
    "lng": 142.1231808,
    "isClosed": false
  },
  {
    "id": "hokkaido-museum-4",
    "type": "museum",
    "name": "旭川市博物館",
    "prefecture": "北海道",
    "postCode": "070-8003",
    "address": "北海道旭川市神楽3条7丁目1-45 大雪クリスタルホール内",
    "city": "あわひかわ",
    "image": "/img/hokkaido/museum/asahikawa-museum.jpg",
    "url": "https://www.city.asahikawa.hokkaido.jp/hakubutukan/index.html",
    "latlng": "[43.7602244, 142.3510652]",
    "lat": 43.7602244,
    "lng": 142.3510652,
    "isClosed": false
  },
  {
    "id": "hokkaido-museum-5",
    "type": "museum",
    "name": "浦河町立郷土博物館",
    "prefecture": "北海道",
    "postCode": "057-0002",
    "address": "北海道浦河町字西幌別273-1",
    "city": "うらかわ",
    "image": "/img/hokkaido/museum/urakawa-museum.jpg",
    "url": "https://www.town.urakawa.hokkaido.jp/gyosei/culture/?category=100",
    "latlng": "[42.1436188, 142.8405682]",
    "lat": 42.1436188,
    "lng": 142.8405682,
    "isClosed": false
  },
  {
    "id": "hokkaido-museum-6",
    "type": "museum",
    "name": "浦幌町立博物館",
    "prefecture": "北海道",
    "postCode": "089-5614",
    "address": "北海道浦幌町字桜町16番地1",
    "city": "うらほろ",
    "image": "/img/hokkaido/museum/urahoro-museum.jpg",
    "url": "https://museum-urahoro.jp",
    "latlng": "[42.8098572, 143.6581002]",
    "lat": 42.8098572,
    "lng": 143.6581002,
    "isClosed": false
  },
  {
    "id": "hokkaido-museum-7",
    "type": "museum",
    "name": "釧路市立博物館",
    "prefecture": "北海道",
    "postCode": "085-0822",
    "address": "北海道釧路市春湖台1番7号",
    "city": "くしろ",
    "image": "/img/hokkaido/museum/kushiro-museum.jpg",
    "url": "https://www.city.kushiro.lg.jp/museum/",
    "latlng": "[42.9743836, 144.403458]",
    "lat": 42.9743836,
    "lng": 144.403458,
    "isClosed": false
  },
  {
    "id": "hokkaido-museum-8",
    "type": "museum",
    "name": "広尾町海洋博物館 広尾町郷土文化保存伝習館",
    "prefecture": "北海道",
    "postCode": "089-2561",
    "address": "北海道広尾町字野塚989番地",
    "city": "ひろお",
    "image": "/img/hokkaido/museum/hiroo-museum.jpg",
    "url": "https://www.town.hiroo.lg.jp/kankou/leisurespot/rekishi/",
    "latlng": "[42.3140843, 143.325096]",
    "lat": 42.3140843,
    "lng": 143.325096,
    "isClosed": false
  },
  {
    "id": "hokkaido-museum-9",
    "type": "museum",
    "name": "三笠市立博物館",
    "prefecture": "北海道",
    "postCode": "068-2111",
    "address": "北海道三笠市幾春別錦町1丁目212番地-1",
    "city": "みかさ",
    "image": "/img/hokkaido/museum/mikasa-museum.jpg",
    "url": "https://www.city.mikasa.hokkaido.jp/museum/",
    "latlng": "[43.2612597, 141.9627274]",
    "lat": 43.2612597,
    "lng": 141.9627274,
    "isClosed": false
  },
  {
    "id": "hokkaido-museum-10",
    "type": "museum",
    "name": "士別市立博物館・士別市公会堂展示室",
    "prefecture": "北海道",
    "postCode": "095-0056",
    "address": "北海道士別市西士別町2554番地",
    "city": "しべつ",
    "image": "/img/hokkaido/museum/shibetsu-museum.jpg",
    "url": "https://www.city.shibetsu.lg.jp/gyoseisaito/kosodate_bunka_supotsu/shibetsushiritsuhakubutsukan/index.html",
    "latlng": "[44.1666177, 142.3751935]",
    "lat": 44.1666177,
    "lng": 142.3751935,
    "isClosed": false
  },
  {
    "id": "hokkaido-museum-11",
    "type": "museum",
    "name": "斜里町立知床博物館",
    "prefecture": "北海道",
    "postCode": "099-4113",
    "address": "北海道斜里町本町49番地2号",
    "city": "しゃり",
    "image": "/img/hokkaido/museum/shiretoko-museum.jpg",
    "url": "https://shiretoko-museum.jpn.org/",
    "latlng": "[43.91296089999999, 144.6726776]",
    "lat": 43.9129609,
    "lng": 144.6726776,
    "isClosed": false
  },
  {
    "id": "hokkaido-museum-12",
    "type": "museum",
    "name": "小樽市総合博物館",
    "prefecture": "北海道",
    "postCode": "047-0041",
    "address": "北海道小樽市手宮1丁目3番6号",
    "city": "おたる",
    "image": "/img/hokkaido/museum/otaru-museum.jpg",
    "url": "https://www.city.otaru.lg.jp/categories/bunya/shisetsu/bunka_kanko/museum/",
    "latlng": "[43.212185, 141.0018821]",
    "lat": 43.212185,
    "lng": 141.0018821,
    "isClosed": false
  },
  {
    "id": "hokkaido-museum-13",
    "type": "museum",
    "name": "新ひだか町博物館",
    "prefecture": "北海道",
    "postCode": "056-0024",
    "address": "北海道新ひだか町静内山手町3丁目1番1号",
    "city": "しんひだか",
    "image": "/img/hokkaido/museum/shinhidaka-museum.jpg",
    "url": "https://www.shinhidaka-hokkaido.jp/hotnews/category/180.html",
    "latlng": "[42.3437318, 142.3587689]",
    "lat": 42.3437318,
    "lng": 142.3587689,
    "isClosed": false
  },
  {
    "id": "hokkaido-museum-14",
    "type": "museum",
    "name": "標茶町博物館",
    "prefecture": "北海道",
    "postCode": "088-2261",
    "address": "北海道標茶町字塘路原野北8線59番地9",
    "city": "しべちゃ",
    "image": "/img/hokkaido/museum/shibecha-museum.jpg",
    "url": "http://www.sip.or.jp/~shibecha-museum/",
    "latlng": "[43.1397924, 144.5627838]",
    "lat": 43.1397924,
    "lng": 144.5627838,
    "isClosed": false
  },
  {
    "id": "hokkaido-museum-15",
    "type": "museum",
    "name": "苫小牧市美術博物館",
    "prefecture": "北海道",
    "postCode": "053-0011",
    "address": "北海道苫小牧市末広町3丁目9番7号",
    "city": "とまこまい",
    "image": "/img/hokkaido/museum/tomakomai-art-museum.jpg",
    "url": "https://www.city.tomakomai.hokkaido.jp/hakubutsukan/",
    "latlng": "[42.6372942, 141.6129414]",
    "lat": 42.6372942,
    "lng": 141.6129414,
    "isClosed": false
  },
  {
    "id": "hokkaido-museum-16",
    "type": "museum",
    "name": "日高山脈博物館",
    "prefecture": "北海道",
    "postCode": "055-2301",
    "address": "北海道日高町本町東1丁目297-12",
    "city": "ひだか",
    "image": "/img/hokkaido/museum/hidaka-mountain-museum.jpg",
    "url": "https://www.town.hidaka.hokkaido.jp/site/hmc/",
    "latlng": "[42.8771841, 142.4423244]",
    "lat": 42.8771841,
    "lng": 142.4423244,
    "isClosed": false
  },
  {
    "id": "hokkaido-museum-17",
    "type": "museum",
    "name": "市立函館博物館",
    "prefecture": "北海道",
    "postCode": "040-0044",
    "address": "北海道函館市青柳町17番1号",
    "city": "はこだて",
    "image": "/img/hokkaido/museum/hakodate-museum.jpg",
    "url": "http://hakohaku.com/",
    "latlng": "[41.7559638, 140.7146667]",
    "lat": 41.7559638,
    "lng": 140.7146667,
    "isClosed": false
  },
  {
    "id": "hokkaido-museum-18",
    "type": "museum",
    "name": "美幌博物館",
    "prefecture": "北海道",
    "postCode": "092-0002",
    "address": "北海道美幌町字美禽253番地4",
    "city": "びほろ",
    "image": "/img/hokkaido/museum/bihoro-museum.jpg",
    "url": "http://www.town.bihoro.hokkaido.jp/bunya/museum/",
    "latlng": "[43.8360335, 144.0883555]",
    "lat": 43.8360335,
    "lng": 144.0883555,
    "isClosed": false
  },
  {
    "id": "hokkaido-museum-19",
    "type": "museum",
    "name": "平取町立二風谷アイヌ文化博物館",
    "prefecture": "北海道",
    "postCode": "055-0101",
    "address": "北海道平取町二風谷55",
    "city": "びらとり",
    "image": "/img/hokkaido/museum/nibutani-museum.jpg",
    "url": "http://www.town.biratori.hokkaido.jp/biratori/nibutani/",
    "latlng": "[42.6344332, 142.1651791]",
    "lat": 42.6344332,
    "lng": 142.1651791,
    "isClosed": false
  },
  {
    "id": "hokkaido-museum-20",
    "type": "museum",
    "name": "名寄市北国博物館",
    "prefecture": "北海道",
    "postCode": "096-0063",
    "address": "北海道名寄市字緑丘222番地",
    "city": "なよろ",
    "image": "/img/hokkaido/museum/nayoro-museum.jpg",
    "url": "http://www.city.nayoro.lg.jp/section/museum/prkeql000000krpr.html",
    "latlng": "[44.3416536, 142.4672618]",
    "lat": 44.3416536,
    "lng": 142.4672618,
    "isClosed": false
  },
  {
    "id": "hokkaido-museum-21",
    "type": "museum",
    "name": "網走市立郷土博物館",
    "prefecture": "北海道",
    "postCode": "093-0041",
    "address": "北海道網走市桂町1丁目1番3号",
    "city": "あばしり",
    "image": "/img/hokkaido/museum/abashiri-museum.jpg",
    "url": "https://www.city.abashiri.hokkaido.jp/270kyoiku/050kyoudo/",
    "latlng": "[44.0177406, 144.2689608]",
    "lat": 44.0177406,
    "lng": 144.2689608,
    "isClosed": false
  },
  {
    "id": "hokkaido-museum-22",
    "type": "museum",
    "name": "博物館 網走監獄",
    "prefecture": "北海道",
    "postCode": "099-2421",
    "address": "北海道網走市字呼人1番地の1",
    "city": "あばしり",
    "image": "/img/hokkaido/museum/abashiri-prison.jpg",
    "url": "https://www.kangoku.jp/",
    "latlng": "[43.9962626, 144.2295121]",
    "lat": 43.9962626,
    "lng": 144.2295121,
    "isClosed": false
  },
  {
    "id": "hokkaido-museum-23",
    "type": "museum",
    "name": "北海道立北方民族博物館",
    "prefecture": "北海道",
    "postCode": "093-0042",
    "address": "北海道網走市字潮見309番地1",
    "city": "あばしり",
    "image": "/img/hokkaido/museum/hoppou-minzoku-museum.jpg",
    "url": "https://hoppohm.org/index2.htm",
    "latlng": "[43.99833710000001, 144.2412423]",
    "lat": 43.9983371,
    "lng": 144.2412423,
    "isClosed": false
  },
  {
    "id": "hokkaido-museum-24",
    "type": "museum",
    "name": "紋別市立博物館",
    "prefecture": "北海道",
    "postCode": "094-0005",
    "address": "北海道紋別市幸町3丁目1番4号",
    "city": "もんべつ",
    "image": "/img/hokkaido/museum/monbetsu-museum.jpg",
    "url": "https://mombetsu.jp/sisetu/bunkasisetu/hakubutukan/",
    "latlng": "[44.3556303, 143.3531872]",
    "lat": 44.3556303,
    "lng": 143.3531872,
    "isClosed": false
  },
  {
    "id": "hokkaido-museum-25",
    "type": "museum",
    "name": "利尻町立博物館",
    "prefecture": "北海道",
    "postCode": "097-0311",
    "address": "北海道利尻町仙法志字本町136",
    "city": "りしり",
    "image": "/img/hokkaido/museum/rishiri-museum.png",
    "url": "https://rishiri-town.jp/%E6%95%99%E8%82%B2/%E5%88%A9%E5%B0%BB%E7%94%BA%E5%8D%9A%E7%89%A9%E9%A4%A8/",
    "latlng": "[45.1129957, 141.2161668]",
    "lat": 45.1129957,
    "lng": 141.2161668,
    "isClosed": false
  },
  {
    "id": "hokkaido-museum-26",
    "type": "museum",
    "name": "のぼりべつクマ牧場ヒグマ博物館",
    "prefecture": "北海道",
    "postCode": "059-0551",
    "address": "北海道登別市登別温泉町224番地",
    "city": "のぼりべつ",
    "image": "/img/hokkaido/museum/higuma-museum.jpg",
    "url": "https://bearpark.jp/museum_observatory/",
    "latlng": "[42.4902798, 141.1590961]",
    "lat": 42.4902798,
    "lng": 141.1590961,
    "isClosed": false
  },
  {
    "id": "hokkaido-museum-27",
    "type": "museum",
    "name": "国立アイヌ民族博物館-ウポポイ",
    "prefecture": "北海道",
    "postCode": "059-0902",
    "address": "北海道白老郡白老町若草町2丁目3-1",
    "city": "しらおい",
    "image": "/img/hokkaido/museum/upopoi-museum.jpg",
    "url": "https://ainu-upopoy.jp/",
    "latlng": "[42.5596621, 141.3660233]",
    "lat": 42.5596621,
    "lng": 141.3660233,
    "isClosed": false
  },
  {
    "id": "hokkaido-museum-28",
    "type": "museum",
    "name": "夕張市石炭博物館",
    "prefecture": "北海道",
    "postCode": "068-0401",
    "address": "北海道夕張市高松7番地",
    "city": "ゆうばり",
    "image": "/img/hokkaido/museum/yubari-museum.jpg",
    "url": "https://coal-yubari.jp/",
    "latlng": "[43.0682501, 141.9874949]",
    "lat": 43.0682501,
    "lng": 141.9874949,
    "isClosed": false
  },
  {
    "id": "hokkaido-museum-29",
    "type": "museum",
    "name": "五稜郭タワー「五稜郭歴史回廊」",
    "prefecture": "北海道",
    "postCode": "040-0001",
    "address": "北海道函館市五稜郭町43-9",
    "city": "はこだて",
    "image": "/img/hokkaido/museum/goryokaku-rekishi-kairo.jpg",
    "url": "https://www.goryokaku-tower.co.jp/facility/observatory2f/",
    "latlng": "[41.7946699, 140.75402]",
    "lat": 41.7946699,
    "lng": 140.75402,
    "isClosed": false
  },
  {
    "id": "hokkaido-museum-31",
    "type": "museum",
    "name": "函館市縄文文化交流センター",
    "prefecture": "北海道",
    "postCode": "041-1613",
    "address": "北海道函館市臼尻町551-1",
    "city": "はこだて",
    "image": "/img/hokkaido/museum/hakodate-jomon-bunka.jpg",
    "url": "http://www.hjcc.jp/",
    "latlng": "[41.92791889999999, 140.9446104]",
    "lat": 41.9279189,
    "lng": 140.9446104,
    "isClosed": false
  },
  {
    "id": "hokkaido-museum-32",
    "type": "museum",
    "name": "知内町郷土資料館",
    "prefecture": "北海道",
    "postCode": "049-1103",
    "address": "北海道上磯郡知内31-47",
    "city": "かみいそ",
    "image": "/img/hokkaido/museum/shiriuchi-museum.jpg",
    "url": "https://www.town.shiriuchi.hokkaido.jp/about/shisetsu/bunka/kyodoshiryokan.html",
    "latlng": "[41.5982835, 140.4188373]",
    "lat": 41.5982835,
    "lng": 140.4188373,
    "isClosed": false
  },
  {
    "id": "hokkaido-museum-33",
    "type": "museum",
    "name": "七飯町歴史館",
    "prefecture": "北海道",
    "postCode": "041-1111",
    "address": "北海道亀田郡七飯町本町6丁目1-3",
    "city": "ななえ",
    "image": "/img/hokkaido/museum/nanae-rekishi.jpg",
    "url": "http://www2.town.nanae.hokkaido.jp/rekisikan/",
    "latlng": "[41.8972099, 140.6952241]",
    "lat": 41.8972099,
    "lng": 140.6952241,
    "isClosed": false
  },
  {
    "id": "hokkaido-museum-34",
    "type": "museum",
    "name": "森町公民館郷土資料室",
    "prefecture": "北海道",
    "postCode": "049-2326",
    "address": "北海道茅部郡森町御幸町132",
    "city": "もり",
    "image": "/img/hokkaido/museum/mori-museum.jpg",
    "url": "https://www.town.hokkaido-mori.lg.jp/docs/2014102900012/",
    "latlng": "[42.1052735, 140.5771733]",
    "lat": 42.1052735,
    "lng": 140.5771733,
    "isClosed": false
  },
  {
    "id": "hokkaido-museum-35",
    "type": "museum",
    "name": "八雲町郷土資料館",
    "prefecture": "北海道",
    "postCode": "049-3112",
    "address": "北海道二海郡八雲町末広町154番地",
    "city": "やくも",
    "image": "/img/hokkaido/museum/yakumo-museum.jpg",
    "url": "https://www.town.yakumo.lg.jp/site/museum/kyoudo001.html",
    "latlng": "[42.2543339, 140.2682712]",
    "lat": 42.2543339,
    "lng": 140.2682712,
    "isClosed": false
  },
  {
    "id": "hokkaido-museum-36",
    "type": "museum",
    "name": "開陽丸記念館",
    "prefecture": "北海道",
    "postCode": "043-0041",
    "address": "北海道檜山郡江差町字姥神町1番地10",
    "city": "えさし",
    "image": "/img/hokkaido/museum/kaiyomaru.jpg",
    "url": "http://www.kaiyou-maru.com/",
    "latlng": "[41.8657317, 140.1188225]",
    "lat": 41.8657317,
    "lng": 140.1188225,
    "isClosed": false
  },
  {
    "id": "hokkaido-museum-37",
    "type": "museum",
    "name": "ピリカ旧石器文化館",
    "prefecture": "北海道",
    "postCode": "049-4151",
    "address": "北海道瀬棚郡今金町字美利河228-1",
    "city": "いまがね",
    "image": "/img/hokkaido/museum/pirika-kyusekki.jpg",
    "url": "https://www.town.imakane.lg.jp/pirika/cat629/post.html",
    "latlng": "[42.4773871, 140.2023533]",
    "lat": 42.4773871,
    "lng": 140.2023533,
    "isClosed": false
  },
  {
    "id": "hokkaido-museum-38",
    "type": "museum",
    "name": "旧檜山爾志郡役所 (江差町郷土資料館)",
    "prefecture": "北海道",
    "postCode": "043-0034",
    "address": "北海道檜山郡江差町字中歌町112",
    "city": "えさし",
    "image": "/img/hokkaido/museum/esashi-museum.jpg",
    "url": "https://www.hokkaido-esashi.jp/museum/top.htm",
    "latlng": "[41.8682131, 140.1288125]",
    "lat": 41.8682131,
    "lng": 140.1288125,
    "isClosed": false
  },
  {
    "id": "hokkaido-museum-39",
    "type": "museum",
    "name": "市立函館博物館郷土資料館(旧金森洋物店)",
    "prefecture": "北海道",
    "postCode": "040-0053",
    "address": "北海道函館市末広町19番15号",
    "city": "はこだて",
    "image": "/img/yamagata/museum/shiritsu-hakodate-hakubutsukan-kyoudo-shiryoukan.jpg",
    "url": "https://www.city.hakodate.hokkaido.jp/docs/2015121000073/",
    "latlng": "[41.7661348, 140.7128892]",
    "lat": 41.7661348,
    "lng": 140.7128892,
    "isClosed": false
  },
  {
    "id": "hokkaido-museum-40",
    "type": "museum",
    "name": "函館市北洋資料館",
    "prefecture": "北海道",
    "postCode": "040-0001",
    "address": "北海道函館市五稜郭町37-8",
    "city": "はこだて",
    "image": "/img/yamagata/museum/hakodate-shi-hokuyou-shiryoukan.jpg",
    "url": "https://www.zaidan-hakodate.com/gjh/hokuyo/",
    "latlng": "[41.7934705, 140.7558349]",
    "lat": 41.7934705,
    "lng": 140.7558349,
    "isClosed": false
  },
  {
    "id": "hokkaido-museum-41",
    "type": "museum",
    "name": "函館市北方民族資料館",
    "prefecture": "北海道",
    "postCode": "040-0053",
    "address": "北海道函館市末広町21-7",
    "city": "はこだて",
    "image": "/img/yamagata/museum/hakodate-shi-hoppouminzoku-shiryoukan.jpg",
    "url": "https://www.zaidan-hakodate.com/hoppominzoku/",
    "latlng": "[41.76721999999999, 140.7120269]",
    "lat": 41.76721999999999,
    "lng": 140.7120269,
    "isClosed": false
  },
  {
    "id": "hokkaido-museum-42",
    "type": "museum",
    "name": "函館市文学館",
    "prefecture": "北海道",
    "postCode": "040-0053",
    "address": "北海道函館市末広町22-5",
    "city": "はこだて",
    "image": "/img/yamagata/museum/hakodate-shi-bungaku-kan.jpg",
    "url": "https://www.zaidan-hakodate.com/bungakukan/",
    "latlng": "[41.7663642, 140.7133207]",
    "lat": 41.7663642,
    "lng": 140.7133207,
    "isClosed": false
  },
  {
    "id": "hokkaido-museum-43",
    "type": "museum",
    "name": "函館市青函連絡船記念館摩周丸",
    "prefecture": "北海道",
    "postCode": "040-0063",
    "address": "北海道函館市若松町12番地先",
    "city": "はこだて",
    "image": "/img/yamagata/museum/hakodate-shi-seikanrenrakusen-kinenkan-mashuu-maru.jpg",
    "url": "https://mashumaru.com/",
    "latlng": "[41.7728642, 140.7279842]",
    "lat": 41.7728642,
    "lng": 140.7279842,
    "isClosed": false
  },
  {
    "id": "hokkaido-museum-44",
    "type": "museum",
    "name": "北海道坂本龍馬記念館",
    "prefecture": "北海道",
    "postCode": "040-0053",
    "address": "北海道函館市末広町8-6",
    "city": "はこだて",
    "image": "/img/yamagata/museum/hokkaidou-sakamoto-ryouma-kinenkan.jpg",
    "url": "https://www.ryoma1115.com/",
    "latlng": "[41.7638459, 140.718678]",
    "lat": 41.7638459,
    "lng": 140.718678,
    "isClosed": false
  },
  {
    "id": "hokkaido-museum-45",
    "type": "museum",
    "name": "箱館高田屋嘉兵衛資料館",
    "prefecture": "北海道",
    "postCode": "040-0053",
    "address": "北海道函館市末広13-22",
    "city": "はこだて",
    "image": "/img/yamagata/museum/takadaya-kahee-shiryoukan.jpg",
    "url": "https://ikemi-net.com/takadaya-museum",
    "latlng": "[41.7659037, 140.7176091]",
    "lat": 41.7659037,
    "lng": 140.7176091,
    "isClosed": false
  },
  {
    "id": "hokkaido-museum-46",
    "type": "museum",
    "name": "哀愁テーマパーク 土方・啄木浪漫館",
    "prefecture": "北海道",
    "postCode": "040-0022",
    "address": "北海道函館市日乃出町25-4",
    "city": "はこだて",
    "image": "",
    "url": "https://www.romankan.com/",
    "latlng": "[41.7727523, 140.7550262]",
    "lat": 41.7727523,
    "lng": 140.7550262,
    "isClosed": false
  },
  {
    "id": "hokkaido-museum-47",
    "type": "museum",
    "name": "奥尻島津波館",
    "prefecture": "北海道",
    "postCode": "043-1521",
    "address": "北海道奥尻町字青苗36番地",
    "city": "おくしり",
    "image": "",
    "url": "https://www.town.okushiri.lg.jp/hotnews/detail/00003668.html",
    "latlng": "[42.0541801, 139.4496384]",
    "lat": 42.0541801,
    "lng": 139.4496384,
    "isClosed": false
  },
  {
    "id": "hokkaido-museum-48",
    "type": "museum",
    "name": "函館市旧イギリス領事館",
    "prefecture": "北海道",
    "postCode": "040-0054",
    "address": "北海道函館市元町33-14",
    "city": "はこだて",
    "image": "/img/yamagata/museum/hakodate-shi-kyuu-igirisu-ryoujikan.jpg",
    "url": "https://www.fbcoh.net/",
    "latlng": "[41.7659028, 140.7106552]",
    "lat": 41.7659028,
    "lng": 140.7106552,
    "isClosed": false
  },
  {
    "id": "hokkaido-museum-49",
    "type": "museum",
    "name": "箱館奉行所",
    "prefecture": "北海道",
    "postCode": "040-0001",
    "address": "北海道函館市五稜郭町44番3号",
    "city": "はこだて",
    "image": "",
    "url": "https://hakodate-bugyosho.jp/",
    "latlng": "[41.7969403, 140.7568559]",
    "lat": 41.7969403,
    "lng": 140.7568559,
    "isClosed": false
  },
  {
    "id": "hokkaido-museum-50",
    "type": "museum",
    "name": "厚沢部町郷土資料館",
    "prefecture": "北海道",
    "postCode": "043-1113",
    "address": "北海道檜山郡厚沢部町新町234番地1",
    "city": "あっさぶ",
    "image": "",
    "url": "https://www.town.assabu.lg.jp/site/kyoiku/1234.html",
    "latlng": "[41.921617, 140.2263239]",
    "lat": 41.921617,
    "lng": 140.2263239,
    "isClosed": false
  },
  {
    "id": "hokkaido-museum-51",
    "type": "museum",
    "name": "旧関川家別荘",
    "prefecture": "北海道",
    "postCode": "043-0033",
    "address": "北海道檜山郡江差町字豊川町55",
    "city": "えさし",
    "image": "",
    "url": "https://esashi.town/tourism/page.php?id=75",
    "latlng": "[41.8721533, 140.1384265]",
    "lat": 41.8721533,
    "lng": 140.1384265,
    "isClosed": false
  },
  {
    "id": "hokkaido-museum-52",
    "type": "museum",
    "name": "横綱千代の山・千代の富士記念館",
    "prefecture": "北海道",
    "postCode": "049-1312",
    "address": "北海道松前郡福島町字福島190番地",
    "city": "ふくしま",
    "image": "/img/yamagata/museum/yokozuna-chiyo-no-yama-.-chiyo-no-fuji-kinenkan.jpg",
    "url": "https://be-happy-fukushima.com/attractions/yokozuna-kinenkan/",
    "latlng": "[41.4792439, 140.2555344]",
    "lat": 41.4792439,
    "lng": 140.2555344,
    "isClosed": false
  },
  {
    "id": "hokkaido-museum-53",
    "type": "museum",
    "name": "青函トンネル記念館",
    "prefecture": "北海道",
    "postCode": "049-1331",
    "address": "北海道松前郡福島町字三岳32 - 2",
    "city": "ふくしま",
    "image": "",
    "url": "https://be-happy-fukushima.com/attractions/seikan-tunnel-kinenkan/",
    "latlng": "[41.4855852, 140.25479]",
    "lat": 41.4855852,
    "lng": 140.25479,
    "isClosed": false
  },
  {
    "id": "hokkaido-museum-54",
    "type": "museum",
    "name": "勝山館跡ガイダンス施設",
    "prefecture": "北海道",
    "postCode": "049-0601",
    "address": "北海道檜山郡上ノ国町字勝山427番地",
    "city": "かみのくに",
    "image": "/img/yamagata/museum/shouzankan-ato-gaidansu-shisetsu.jpg",
    "url": "https://www.town.kaminokuni.lg.jp/hotnews/detail/00000391.html",
    "latlng": "[41.799879, 140.0970658]",
    "lat": 41.799879,
    "lng": 140.0970658,
    "isClosed": false
  },
  {
    "id": "hokkaido-museum-55",
    "type": "museum",
    "name": "松前町郷土資料館",
    "prefecture": "北海道",
    "postCode": "049-1594",
    "address": "北海道松前郡松前町字神明30番地　松前町町民総合センター内",
    "city": "まつまえ",
    "image": "/img/yamagata/museum/matsumae-machi-kyoudo-shiryoukan.jpg",
    "url": "https://www.town.matsumae.hokkaido.jp/bunkazai/detail_sp/00001508.html",
    "latlng": "[41.4355567, 140.1117523]",
    "lat": 41.4355567,
    "lng": 140.1117523,
    "isClosed": false
  },
  {
    "id": "hokkaido-museum-56",
    "type": "museum",
    "name": "函館市熱帯植物園",
    "prefecture": "北海道",
    "postCode": "042-0932",
    "address": "北海道函館市湯川町3丁目1番15号",
    "city": "はこだて",
    "image": "",
    "url": "https://hako-eco.com/",
    "latlng": "[41.7739872, 140.7895623]",
    "lat": 41.7739872,
    "lng": 140.7895623,
    "isClosed": ""
  },
  {
    "id": "hokkaido-museum-57",
    "type": "museum",
    "name": "はこだてみらい館",
    "prefecture": "北海道",
    "postCode": "040-0063",
    "address": "北海道函館市若松町20番1号 キラリス函館 3階",
    "city": "はこだて",
    "image": "",
    "url": "https://hakodate-miraiproject.jp/miraikan/",
    "latlng": "[41.77293, 140.7286344]",
    "lat": 41.77293,
    "lng": 140.7286344,
    "isClosed": ""
  },
  {
    "id": "hokkaido-museum-58",
    "type": "museum",
    "name": "オホーツク流氷館",
    "prefecture": "北海道",
    "postCode": "093-0044",
    "address": "北海道網走市天都山244番地の3",
    "city": "あばしり",
    "image": "",
    "url": "https://www.ryuhyokan.com/",
    "latlng": "[44.0005122, 144.2396052]",
    "lat": 44.0005122,
    "lng": 144.2396052,
    "isClosed": ""
  },
  {
    "id": "hokkaido-museum-59",
    "type": "museum",
    "name": "網走市立郷土博物館分館「モヨロ貝塚館」",
    "prefecture": "北海道",
    "postCode": "093-0051",
    "address": "北海道網走市北1条東2丁目",
    "city": "あばしり",
    "image": "",
    "url": "http://moyoro.jp/",
    "latlng": "[44.0206059, 144.2734837]",
    "lat": 44.0206059,
    "lng": 144.2734837,
    "isClosed": ""
  },
  {
    "id": "hokkaido-museum-60",
    "type": "museum",
    "name": "北海道オホーツク流氷科学センター「GIZA」",
    "prefecture": "北海道",
    "postCode": "094-0023",
    "address": "北海道紋別市元紋別11-6",
    "city": "もんべつ",
    "image": "",
    "url": "https://giza-ryuhyo.com/",
    "latlng": "[44.3283387, 143.374973]",
    "lat": 44.3283387,
    "lng": 143.374973,
    "isClosed": ""
  },
  {
    "id": "hokkaido-museum-61",
    "type": "museum",
    "name": "北見市留辺蘂町開拓資料館",
    "prefecture": "北海道",
    "postCode": "091-0163",
    "address": "北海道北見市留辺蘂町滝の湯１２７",
    "city": "きたみ",
    "image": "",
    "url": "https://www.city.kitami.lg.jp/administration/education/detail.php?content=11330",
    "latlng": "[43.7319748, 143.4245473]",
    "lat": 43.7319748,
    "lng": 143.4245473,
    "isClosed": ""
  },
  {
    "id": "hokkaido-museum-62",
    "type": "museum",
    "name": "北網圏北見文化センター",
    "prefecture": "北海道",
    "postCode": "090-0015",
    "address": "北海道北見市公園町1番地",
    "city": "きたみ",
    "image": "",
    "url": "https://hokumouken.com/",
    "latlng": "[43.8181343, 143.9037435]",
    "lat": 43.8181343,
    "lng": 143.9037435,
    "isClosed": ""
  },
  {
    "id": "hokkaido-museum-63",
    "type": "museum",
    "name": "北見ハッカ記念館・薄荷蒸溜館",
    "prefecture": "北海道",
    "postCode": "090-0812",
    "address": "北海道北見市南仲町1丁目7番28号",
    "city": "きたみ",
    "image": "",
    "url": "http://www.kitamihakka.jp/",
    "latlng": "[43.7999495, 143.8936964]",
    "lat": 43.7999495,
    "lng": 143.8936964,
    "isClosed": ""
  },
  {
    "id": "hokkaido-museum-64",
    "type": "museum",
    "name": "ピアソン記念館",
    "prefecture": "北海道",
    "postCode": "090-0036",
    "address": "北海道北見市幸町7丁目4番28号",
    "city": "きたみ",
    "image": "",
    "url": "http://www.npo-pierson.org/",
    "latlng": "[43.8064765, 143.8869475]",
    "lat": 43.8064765,
    "lng": 143.8869475,
    "isClosed": ""
  },
  {
    "id": "hokkaido-museum-65",
    "type": "museum",
    "name": "ところ遺跡の館",
    "prefecture": "北海道",
    "postCode": "093-0216",
    "address": "北海道北見市常呂町字栄浦371番地",
    "city": "きたみ",
    "image": "",
    "url": "https://www.city.kitami.lg.jp/administration/education/detail.php?content=6506",
    "latlng": "[44.1248941, 143.9731587]",
    "lat": 44.1248941,
    "lng": 143.9731587,
    "isClosed": ""
  },
  {
    "id": "hokkaido-museum-66",
    "type": "museum",
    "name": "美幌博物館",
    "prefecture": "北海道",
    "postCode": "092-0002",
    "address": "北海道網走郡美幌町字美禽253-4",
    "city": "びほろ",
    "image": "",
    "url": "http://www.town.bihoro.hokkaido.jp/bunya/museum/",
    "latlng": "[43.8360335, 144.0883555]",
    "lat": 43.8360335,
    "lng": 144.0883555,
    "isClosed": ""
  },
  {
    "id": "hokkaido-museum-67",
    "type": "museum",
    "name": "ところ埋蔵文化財センター",
    "prefecture": "北海道",
    "postCode": "093-0216",
    "address": "北海道北見市常呂町常呂字 栄浦376",
    "city": "きたみ",
    "image": "",
    "url": "https://www.city.kitami.lg.jp/administration/town/detail.php?content=4565",
    "latlng": "[44.1278223, 143.9730095]",
    "lat": 44.1278223,
    "lng": 143.9730095,
    "isClosed": ""
  },
  {
    "id": "hokkaido-museum-68",
    "type": "museum",
    "name": "東京大学常呂実習施設・常呂資料陳列館",
    "prefecture": "北海道",
    "postCode": "093-0216",
    "address": "北海道北見市常呂町字栄浦376",
    "city": "きたみ",
    "image": "",
    "url": "https://www.l.u-tokyo.ac.jp/tokoro/",
    "latlng": "[44.1278223, 143.9730095]",
    "lat": 44.1278223,
    "lng": 143.9730095,
    "isClosed": ""
  },
  {
    "id": "hokkaido-museum-69",
    "type": "museum",
    "name": "端野町歴史民俗資料館",
    "prefecture": "北海道",
    "postCode": "099-2102",
    "address": "北海道北見市端野町二区471番地5",
    "city": "きたみ",
    "image": "",
    "url": "https://www.city.kitami.lg.jp/administration/education/detail.php?content=6282",
    "latlng": "[43.8623171, 143.9472619]",
    "lat": 43.8623171,
    "lng": 143.9472619,
    "isClosed": ""
  },
  {
    "id": "hokkaido-museum-70",
    "type": "museum",
    "name": "常呂町郷土資料館",
    "prefecture": "北海道",
    "postCode": "093-0332",
    "address": "北海道北見市常呂町字富丘287番地2",
    "city": "きたみ",
    "image": "",
    "url": "https://www.city.kitami.lg.jp/tourism/tourism/detail.php?content=9939",
    "latlng": "[44.06998189999999, 143.9932603]",
    "lat": 44.06998189999999,
    "lng": 143.9932603,
    "isClosed": ""
  },
  {
    "id": "hokkaido-museum-71",
    "type": "museum",
    "name": "東藻琴ふるさと資料館",
    "prefecture": "北海道",
    "postCode": "099-3213",
    "address": "北海道網走郡大空町東藻琴２８６",
    "city": "おおぞら",
    "image": "",
    "url": "https://www.town.ozora.hokkaido.jp/soshiki/1008/8/2/959.html",
    "latlng": "[43.8423228, 144.2969659]",
    "lat": 43.8423228,
    "lng": 144.2969659,
    "isClosed": ""
  },
  {
    "id": "hokkaido-museum-72",
    "type": "museum",
    "name": "東藻琴生涯学習センター郷土資料室",
    "prefecture": "北海道",
    "postCode": "099-3213",
    "address": "北海道網走郡大空町東藻琴360番地の1",
    "city": "おおぞら",
    "image": "",
    "url": "https://www.town.ozora.hokkaido.jp/soshiki/1008/8/2/434.html",
    "latlng": "[43.8415798, 144.2945509]",
    "lat": 43.8415798,
    "lng": 144.2945509,
    "isClosed": ""
  },
  {
    "id": "hokkaido-museum-73",
    "type": "museum",
    "name": "女満別研修会館",
    "prefecture": "北海道",
    "postCode": "099-2323",
    "address": "北海道網走郡大空町女満別西3条3丁目1番地の1",
    "city": "おおぞら",
    "image": "",
    "url": "https://www.town.ozora.hokkaido.jp/soshiki/1008/8/2/985.html",
    "latlng": "[43.9120189, 144.1718889]",
    "lat": 43.9120189,
    "lng": 144.1718889,
    "isClosed": ""
  },
  {
    "id": "hokkaido-museum-74",
    "type": "museum",
    "name": "旭川市科学館 サイパル",
    "prefecture": "北海道",
    "postCode": "078-8391",
    "address": "北海道旭川市宮前１条３丁目３−３２",
    "city": "あさひかわ",
    "image": "",
    "url": "https://www.city.asahikawa.hokkaido.jp/science/",
    "latlng": "[43.7563462, 142.3705008]",
    "lat": 43.7563462,
    "lng": 142.3705008,
    "isClosed": ""
  },
  {
    "id": "hokkaido-museum-75",
    "type": "museum",
    "name": "北鎮記念館",
    "prefecture": "北海道",
    "postCode": "070-8630",
    "address": "北海道旭川市春光町 国有無番地",
    "city": "あさひかわ",
    "image": "",
    "url": "https://www.mod.go.jp/gsdf/nae/2d/hokutin2/top.html",
    "latlng": "[43.7928959, 142.3630931]",
    "lat": 43.7928959,
    "lng": 142.3630931,
    "isClosed": ""
  },
  {
    "id": "hokkaido-museum-76",
    "type": "museum",
    "name": "三浦綾子記念文学館",
    "prefecture": "北海道",
    "postCode": "070-8007",
    "address": "北海道旭川市神楽７条８丁目２−１５",
    "city": "あさひかわ",
    "image": "",
    "url": "https://www.hyouten.com/",
    "latlng": "[43.7536069, 142.3479327]",
    "lat": 43.7536069,
    "lng": 142.3479327,
    "isClosed": ""
  },
  {
    "id": "hokkaido-museum-77",
    "type": "museum",
    "name": "旭川兵村記念館",
    "prefecture": "北海道",
    "postCode": "078-8261",
    "address": "北海道旭川市東旭川南１条６丁目３番２６号",
    "city": "あさひかわ",
    "image": "",
    "url": "https://www.atca.jp/kankouspoy/%E6%97%AD%E5%B7%9D%E5%85%B5%E6%9D%91%E8%A8%98%E5%BF%B5%E9%A4%A8/",
    "latlng": "[43.769569, 142.44232]",
    "lat": 43.769569,
    "lng": 142.44232,
    "isClosed": ""
  },
  {
    "id": "hokkaido-museum-78",
    "type": "museum",
    "name": "男山酒造り資料舘",
    "prefecture": "北海道",
    "postCode": "079-8412",
    "address": "北海道旭川市永山2条7丁目1番33号",
    "city": "あさひかわ",
    "image": "",
    "url": "https://www.otokoyama.com/museum/",
    "latlng": "[43.7958317, 142.4090764]",
    "lat": 43.7958317,
    "lng": 142.4090764,
    "isClosed": ""
  },
  {
    "id": "hokkaido-museum-79",
    "type": "museum",
    "name": "釧路市こども遊学館",
    "prefecture": "北海道",
    "postCode": "085-0017",
    "address": "北海道釧路市幸町１０丁目２",
    "city": "くしろ",
    "image": "",
    "url": "https://kodomoyugakukan.jp/",
    "latlng": "[42.9867165, 144.3790575]",
    "lat": 42.9867165,
    "lng": 144.3790575,
    "isClosed": ""
  },
  {
    "id": "hokkaido-museum-80",
    "type": "museum",
    "name": "釧路町郷土資料館（達古武分館）",
    "prefecture": "北海道",
    "postCode": "088-2141",
    "address": "北海道釧路郡釧路町達古武４９",
    "city": "くしろ",
    "image": "",
    "url": "https://www.dokyoi.pref.hokkaido.lg.jp/fs/2/5/5/7/1/0/4/_/174-01.pdf",
    "latlng": "[43.0962931, 144.5064607]",
    "lat": 43.0962931,
    "lng": 144.5064607,
    "isClosed": ""
  },
  {
    "id": "hokkaido-museum-81",
    "type": "museum",
    "name": "釧路市水産資料展示室「マリン・トポスくしろ」 ",
    "prefecture": "北海道",
    "postCode": "085-0024",
    "address": "北海道釧路市浜町3-18",
    "city": "くしろ",
    "image": "",
    "url": "https://www.city.kushiro.lg.jp/sangyou/suisan/1006271/1006272.html",
    "latlng": "[42.98966590000001, 144.3648929]",
    "lat": 42.98966590000001,
    "lng": 144.3648929,
    "isClosed": ""
  },
  {
    "id": "hokkaido-museum-82",
    "type": "museum",
    "name": "釧路文学館",
    "prefecture": "北海道",
    "postCode": "085-0015",
    "address": "北海道釧路市北大通10丁目2番地（釧路市中央図書館6階）",
    "city": "くしろ",
    "image": "",
    "url": "https://kushirolibrary.jp/bungakukan/",
    "latlng": "[42.9871756, 144.3832053]",
    "lat": 42.9871756,
    "lng": 144.3832053,
    "isClosed": ""
  },
  {
    "id": "hokkaido-museum-83",
    "type": "museum",
    "name": "阿寒町郷土資料収蔵室",
    "prefecture": "北海道",
    "postCode": "085-0215",
    "address": "北海道釧路市阿寒町中央３丁目８−２２",
    "city": "くしろ",
    "image": "",
    "url": "https://www.city.kushiro.lg.jp/shisei/shisetsu/1007655/1007656/1007172.html",
    "latlng": "[43.1182248, 144.1228312]",
    "lat": 43.1182248,
    "lng": 144.1228312,
    "isClosed": ""
  },
  {
    "id": "hokkaido-museum-84",
    "type": "museum",
    "name": "釧路市埋蔵文化財調査センター",
    "prefecture": "北海道",
    "postCode": "085-0822",
    "address": "北海道釧路市春湖台１−７",
    "city": "くしろ",
    "image": "",
    "url": "https://www.city.kushiro.lg.jp/museum/oshirase/1002239/1002735.html",
    "latlng": "[42.9743836, 144.403458]",
    "lat": 42.9743836,
    "lng": 144.403458,
    "isClosed": ""
  },
  {
    "id": "hokkaido-museum-85",
    "type": "museum",
    "name": "阿寒湖アイヌコタン",
    "prefecture": "北海道",
    "postCode": "085-0467",
    "address": "北海道釧路市阿寒町阿寒湖温泉4丁目7-19",
    "city": "くしろ",
    "image": "",
    "url": "https://www.akanainu.jp/",
    "latlng": "[43.43369450000001, 144.0891501]",
    "lat": 43.43369450000001,
    "lng": 144.0891501,
    "isClosed": ""
  },
  {
    "id": "hokkaido-museum-86",
    "type": "museum",
    "name": "炭砿と鉄道館",
    "prefecture": "北海道",
    "postCode": "085-0245",
    "address": "北海道釧路市阿寒町上阿寒２３線２０１",
    "city": "くしろ",
    "image": "",
    "url": "",
    "latlng": "[43.14355949999999, 144.1411881]",
    "lat": 43.14355949999999,
    "lng": 144.1411881,
    "isClosed": ""
  },
  {
    "id": "hokkaido-museum-87",
    "type": "museum",
    "name": "阿寒湖畔エコミュージアムセンター",
    "prefecture": "北海道",
    "postCode": "085-0467",
    "address": "北海道釧路市阿寒町阿寒湖温泉１丁目１−１",
    "city": "くしろ",
    "image": "",
    "url": "https://akankohan-vc.com/",
    "latlng": "[43.435182, 144.1010376]",
    "lat": 43.435182,
    "lng": 144.1010376,
    "isClosed": ""
  },
  {
    "id": "hokkaido-museum-88",
    "type": "museum",
    "name": "アイヌ生活記念館「ポンチセ」",
    "prefecture": "北海道",
    "postCode": "085-0467",
    "address": "北海道釧路市阿寒町阿寒湖温泉4-7-84",
    "city": "くしろ",
    "image": "",
    "url": "https://ja.kushiro-lakeakan.com/things_to_do/2875/",
    "latlng": "[43.43419979999999, 144.0889931]",
    "lat": 43.43419979999999,
    "lng": 144.0889931,
    "isClosed": ""
  },
  {
    "id": "hokkaido-museum-89",
    "type": "museum",
    "name": "北斗遺跡展示館",
    "prefecture": "北海道",
    "postCode": "084-0922",
    "address": "北海道釧路市北斗６−７",
    "city": "くしろ",
    "image": "",
    "url": "https://www.city.kushiro.lg.jp/museum/bunkazai/1002742/1002743.html",
    "latlng": "[43.0677635, 144.3208931]",
    "lat": 43.0677635,
    "lng": 144.3208931,
    "isClosed": ""
  },
  {
    "id": "hokkaido-museum-90",
    "type": "museum",
    "name": "港文館 (港湾休憩所)",
    "prefecture": "北海道",
    "postCode": "085-0847",
    "address": "北海道釧路市大町２丁目１−１２",
    "city": "くしろ",
    "image": "",
    "url": "https://kushiro-kobunkan.jimdofree.com/%EF%BC%91f-%E3%82%AB%E3%83%95%E3%82%A7-%E9%87%A7%E8%B7%AF%E6%B8%AF%E3%81%AE%E7%B4%B9%E4%BB%8B-%E6%B8%AF%E6%B9%BE%E4%BC%91%E6%86%A9%E6%89%80/",
    "latlng": "[42.9801908, 144.3822376]",
    "lat": 42.9801908,
    "lng": 144.3822376,
    "isClosed": ""
  },
  {
    "id": "hokkaido-museum-91",
    "type": "museum",
    "name": "石川啄木資料館",
    "prefecture": "北海道",
    "postCode": "085-0847",
    "address": "北海道釧路市大町２丁目１−１２　2階",
    "city": "くしろ",
    "image": "",
    "url": "https://kushiro-kobunkan.jimdofree.com/%EF%BC%92f-%E7%9F%B3%E5%B7%9D%E5%95%84%E6%9C%A8%E8%B3%87%E6%96%99%E9%A4%A8/",
    "latlng": "[42.9801908, 144.3822376]",
    "lat": 42.9801908,
    "lng": 144.3822376,
    "isClosed": ""
  },
  {
    "id": "hokkaido-museum-92",
    "type": "museum",
    "name": "鳥取百年館",
    "prefecture": "北海道",
    "postCode": "084-0906",
    "address": "北海道釧路市鳥取大通4－2－18",
    "city": "くしろ",
    "image": "",
    "url": "https://www.tottorijinja.com/%E7%99%BE%E5%B9%B4%E9%A4%A8",
    "latlng": "[43.013258, 144.353201]",
    "lat": 43.013258,
    "lng": 144.353201,
    "isClosed": ""
  },
  {
    "id": "hokkaido-museum-93",
    "type": "museum",
    "name": "音別町郷土資料展示室",
    "prefecture": "北海道",
    "postCode": "088-0117",
    "address": "北海道釧路市音別町朝日2-81",
    "city": "くしろ",
    "image": "",
    "url": "https://ja.kushiro-lakeakan.com/things_to_do/2876/",
    "latlng": "[42.891986, 143.9347272]",
    "lat": 42.891986,
    "lng": 143.9347272,
    "isClosed": ""
  },
  {
    "id": "hokkaido-museum-94",
    "type": "museum",
    "name": "マリモ展示観察センター",
    "prefecture": "北海道",
    "postCode": "085-0220",
    "address": "北海道釧路市阿寒町舌辛 阿寒湖 チュウルイ島",
    "city": "くしろ",
    "image": "",
    "url": "https://www.akankisen.com/exMarimo.html",
    "latlng": "[43.4699405, 144.1083574]",
    "lat": 43.4699405,
    "lng": 144.1083574,
    "isClosed": ""
  },
  {
    "id": "hokkaido-museum-95",
    "type": "museum",
    "name": "旧太平洋炭礦炭鉱展示館",
    "prefecture": "北海道",
    "postCode": "085-0805",
    "address": "北海道釧路市桜ケ岡3-1-16",
    "city": "くしろ",
    "image": "",
    "url": "https://ja.kushiro-lakeakan.com/things_to_do/2864/",
    "latlng": "[42.9684059, 144.4259135]",
    "lat": 42.9684059,
    "lng": 144.4259135,
    "isClosed": ""
  },
  {
    "id": "hokkaido-museum-96",
    "type": "museum",
    "name": "神馬事記念館",
    "prefecture": "北海道",
    "postCode": "084-0917",
    "address": "北海道釧路市大楽毛5丁目９番１号",
    "city": "くしろ",
    "image": "",
    "url": "https://www.city.kushiro.lg.jp/sangyou/nourin/1006371/1006376.html",
    "latlng": "[43.0114686, 144.27243]",
    "lat": 43.0114686,
    "lng": 144.27243,
    "isClosed": ""
  },
  {
    "id": "hokkaido-museum-97",
    "type": "museum",
    "name": "前田記念館 一歩荘",
    "prefecture": "北海道",
    "postCode": "085-0467",
    "address": "北海道釧路市阿寒町阿寒湖温泉１丁目５−１",
    "city": "くしろ",
    "image": "",
    "url": "https://www.ippoen.or.jp/about/origin.html",
    "latlng": "[43.4355179, 144.0998603]",
    "lat": 43.4355179,
    "lng": 144.0998603,
    "isClosed": ""
  },
  {
    "id": "hokkaido-museum-98",
    "type": "museum",
    "name": "釧路市アイヌ文化伝承創造館「オンネチセ」",
    "prefecture": "北海道",
    "postCode": "085-0467",
    "address": "北海道釧路市阿寒町阿寒湖温泉4丁目7-19",
    "city": "くしろ",
    "image": "",
    "url": "https://www.akanainu.jp/onnecise/",
    "latlng": "[43.43369450000001, 144.0891501]",
    "lat": 43.43369450000001,
    "lng": 144.0891501,
    "isClosed": ""
  },
  {
    "id": "hokkaido-museum-99",
    "type": "museum",
    "name": "網走市鉄道記念館",
    "prefecture": "北海道",
    "postCode": "093-0135",
    "address": "北海道網走市卯原内８９−１",
    "city": "あばしり",
    "image": "",
    "url": "https://www.city.abashiri.hokkaido.jp/soshiki/18/1249.html",
    "latlng": "[44.01477879999999, 144.1102056]",
    "lat": 44.01477879999999,
    "lng": 144.1102056,
    "isClosed": ""
  },
  {
    "id": "hokkaido-museum-100",
    "type": "museum",
    "name": "上仁頃美里開拓資料館",
    "prefecture": "北海道",
    "postCode": "090-0007",
    "address": "北海道北見市美里",
    "city": "きたみ",
    "image": "",
    "url": "",
    "latlng": "[43.8897302, 143.7990798]",
    "lat": 43.8897302,
    "lng": 143.7990798,
    "isClosed": ""
  },
  {
    "id": "hokkaido-museum-101",
    "type": "museum",
    "name": "くんねっぷ歴史館",
    "prefecture": "北海道",
    "postCode": "099-1433",
    "address": "北海道常呂郡訓子府町仲町５０",
    "city": "くんねっぷ",
    "image": "",
    "url": "https://www.town.kunneppu.hokkaido.jp/life/kominkan/rekishikan.html",
    "latlng": "[43.7257298, 143.7368335]",
    "lat": 43.7257298,
    "lng": 143.7368335,
    "isClosed": ""
  },
  {
    "id": "hokkaido-museum-102",
    "type": "museum",
    "name": "つべつ木材工芸館キノス",
    "prefecture": "北海道",
    "postCode": "092-0225",
    "address": "北海道網走郡津別町共和１２７−２",
    "city": "つべつ",
    "image": "",
    "url": "https://www.town.tsubetsu.hokkaido.jp/soshikikarasagasu/sangyoshinko/5/818.html",
    "latlng": "[43.6952322, 144.0294246]",
    "lat": 43.6952322,
    "lng": 144.0294246,
    "isClosed": ""
  },
  {
    "id": "hokkaido-museum-103",
    "type": "museum",
    "name": "稚内市北方記念館",
    "prefecture": "北海道",
    "postCode": "097-0000",
    "address": "北海道稚内市稚内村ヤムワッカナイ",
    "city": "わっかない",
    "image": "",
    "url": "https://www.city.wakkanai.hokkaido.jp/kyoiku/kakusyushisetsu/hoppokinenkan.html",
    "latlng": "[45.40991, 141.6511584]",
    "lat": 45.40991,
    "lng": 141.6511584,
    "isClosed": ""
  },
  {
    "id": "hokkaido-museum-104",
    "type": "museum",
    "name": "稚内市樺太記念館",
    "prefecture": "北海道",
    "postCode": "097-0021",
    "address": "北海道稚内市港１丁目６",
    "city": "わっかない",
    "image": "",
    "url": "https://fukkoichiba.hokkaido.jp/karafuto/",
    "latlng": "[45.4086501, 141.6766274]",
    "lat": 45.4086501,
    "lng": 141.6766274,
    "isClosed": ""
  },
  {
    "id": "hokkaido-museum-105",
    "type": "museum",
    "name": "稚内市青少年科学館",
    "prefecture": "北海道",
    "postCode": "097-0026",
    "address": "北海道稚内市ノシャップ2丁目2-16",
    "city": "わっかない",
    "image": "",
    "url": "https://www.city.wakkanai.hokkaido.jp/kagakukan/",
    "latlng": "[45.4491223, 141.6453167]",
    "lat": 45.4491223,
    "lng": 141.6453167,
    "isClosed": ""
  },
  {
    "id": "hokkaido-museum-106",
    "type": "museum",
    "name": "利尻町立博物館",
    "prefecture": "北海道",
    "postCode": "097-0311",
    "address": "北海道利尻郡利尻町仙法志字本町136",
    "city": "りしり",
    "image": "",
    "url": "https://rishiri-town.jp/%E6%95%99%E8%82%B2/%E5%88%A9%E5%B0%BB%E7%94%BA%E5%8D%9A%E7%89%A9%E9%A4%A8/",
    "latlng": "[45.1129957, 141.2161668]",
    "lat": 45.1129957,
    "lng": 141.2161668,
    "isClosed": ""
  },
  {
    "id": "hokkaido-museum-107",
    "type": "museum",
    "name": "利尻島郷土資料館",
    "prefecture": "北海道",
    "postCode": "097-0211",
    "address": "北海道利尻郡利尻富士町鬼脇",
    "city": "りしり",
    "image": "",
    "url": "",
    "latlng": "[45.1487484, 141.2846147]",
    "lat": 45.1487484,
    "lng": 141.2846147,
    "isClosed": ""
  },
  {
    "id": "hokkaido-museum-108",
    "type": "museum",
    "name": "旧瀬戸常蔵邸",
    "prefecture": "北海道",
    "postCode": "097-0022",
    "address": "北海道稚内市中央４丁目８−２７",
    "city": "わっかない",
    "image": "",
    "url": "https://www.city.wakkanai.hokkaido.jp/kanko/midokoro/spot/setotei.html",
    "latlng": "[45.4136734, 141.6753859]",
    "lat": 45.4136734,
    "lng": 141.6753859,
    "isClosed": ""
  },
  {
    "id": "hokkaido-museum-109",
    "type": "museum",
    "name": "北の桜守パーク",
    "prefecture": "北海道",
    "postCode": "098-6642",
    "address": "北海道稚内市大字声問村字下声問「メグマ沼自然公園内」",
    "city": "わっかない",
    "image": "",
    "url": "https://www.city.wakkanai.hokkaido.jp/kanko/midokoro/spot/sakuramori.html",
    "latlng": "[45.39751700000001, 141.8143585]",
    "lat": 45.39751700000001,
    "lng": 141.8143585,
    "isClosed": ""
  },
  {
    "id": "hokkaido-museum-110",
    "type": "museum",
    "name": "稚内市青少年科学館 別館 南極越冬隊資料展示館",
    "prefecture": "北海道",
    "postCode": "097-0026",
    "address": "北海道稚内市ノシャップ2丁目2-16",
    "city": "わっかない",
    "image": "",
    "url": "https://www.city.wakkanai.hokkaido.jp/kagakukan/tenji/bekkan.html",
    "latlng": "[45.4491223, 141.6453167]",
    "lat": 45.4491223,
    "lng": 141.6453167,
    "isClosed": ""
  },
  {
    "id": "hokkaido-museum-111",
    "type": "museum",
    "name": "オホーツクミュージアムえさし",
    "prefecture": "北海道",
    "postCode": "098-5823",
    "address": "北海道枝幸郡枝幸町三笠町1614-1",
    "city": "えさし",
    "image": "",
    "url": "https://www.esashi.jp/tourism/guide/museum.html",
    "latlng": "[44.938036, 142.5672443]",
    "lat": 44.938036,
    "lng": 142.5672443,
    "isClosed": ""
  },
  {
    "id": "hokkaido-museum-112",
    "type": "museum",
    "name": "高山植物展示園",
    "prefecture": "北海道",
    "postCode": "097-0101",
    "address": "北海道利尻郡利尻富士町鴛泊栄町２２７−７",
    "city": "りしり",
    "image": "",
    "url": "",
    "latlng": "[45.2399748, 141.2161232]",
    "lat": 45.2399748,
    "lng": 141.2161232,
    "isClosed": ""
  },
  {
    "id": "hokkaido-museum-113",
    "type": "museum",
    "name": "礼文町郷土資料館",
    "prefecture": "北海道",
    "postCode": "097-1201",
    "address": "北海道礼文郡礼文町大字香深村ワウシ９５８−４",
    "city": "れぶん",
    "image": "",
    "url": "https://rebun-museum.org/",
    "latlng": "[45.3555318, 141.0333773]",
    "lat": 45.3555318,
    "lng": 141.0333773,
    "isClosed": ""
  },
  {
    "id": "hokkaido-museum-114",
    "type": "museum",
    "name": "稲穂ふれあい研修センター　歴史民俗資料展示室",
    "prefecture": "北海道",
    "postCode": "043-1405",
    "address": "北海道奥尻郡奥尻町稲穂１６２",
    "city": "おくしり",
    "image": "",
    "url": "https://www.town.okushiri.lg.jp/hotnews/detail/00001479.html",
    "latlng": "[42.2400266, 139.5513396]",
    "lat": 42.2400266,
    "lng": 139.5513396,
    "isClosed": ""
  },
  {
    "id": "hokkaido-museum-115",
    "type": "museum",
    "name": "佐藤義則野球展示室",
    "prefecture": "北海道",
    "postCode": "043-1402",
    "address": "北海道奥尻郡奥尻町字赤石１８３番地１",
    "city": "おくしり",
    "image": "",
    "url": "https://www.town.okushiri.lg.jp/hotnews/detail/00001503.html",
    "latlng": "[42.1317532, 139.5157067]",
    "lat": 42.1317532,
    "lng": 139.5157067,
    "isClosed": ""
  },
  {
    "id": "hokkaido-museum-116",
    "type": "museum",
    "name": "松前城資料館",
    "prefecture": "北海道",
    "postCode": "049-1511",
    "address": "北海道松前郡松前町字松城144番地",
    "city": "まつまえ",
    "image": "",
    "url": "https://www.town.matsumae.hokkaido.jp/bunkazai/category/219.html",
    "latlng": "[41.4298761, 140.1088285]",
    "lat": 41.4298761,
    "lng": 140.1088285,
    "isClosed": ""
  },
  {
    "id": "hokkaido-museum-117",
    "type": "museum",
    "name": "松前公園 桜見本園",
    "prefecture": "北海道",
    "postCode": "049-1511",
    "address": "北海道松前郡松前町松城 松前公園",
    "city": "まつまえ",
    "image": "",
    "url": "https://www.pref.hokkaido.lg.jp/kn/tkn/hana/place/s011.html",
    "latlng": "[41.430148, 140.1076564]",
    "lat": 41.430148,
    "lng": 140.1076564,
    "isClosed": ""
  },
  {
    "id": "hokkaido-museum-118",
    "type": "museum",
    "name": "チロップ館",
    "prefecture": "北海道",
    "postCode": "049-1301",
    "address": "北海道松前郡福島町白符４４２",
    "city": "ふくしま",
    "image": "",
    "url": "https://www.town.fukushima.hokkaido.jp/kyouiku/shisetsu/chiroppu/",
    "latlng": "[41.4682034, 140.2459142]",
    "lat": 41.4682034,
    "lng": 140.2459142,
    "isClosed": ""
  },
  {
    "id": "hokkaido-museum-119",
    "type": "museum",
    "name": "知内町郷土資料館",
    "prefecture": "北海道",
    "postCode": "049-1103",
    "address": "北海道上磯郡知内町重内３１−４７",
    "city": "しりうち",
    "image": "",
    "url": "https://www.town.shiriuchi.hokkaido.jp/about/shisetsu/bunka/kyodoshiryokan.html",
    "latlng": "[41.600966, 140.4191186]",
    "lat": 41.600966,
    "lng": 140.4191186,
    "isClosed": ""
  },
  {
    "id": "hokkaido-museum-120",
    "type": "museum",
    "name": "北島三郎ギャラリー",
    "prefecture": "北海道",
    "postCode": "049-1103",
    "address": "北海道上磯郡知内町字重内21番地1知内町民センター（知内町役場庁舎）2階 ロビー",
    "city": "しりうち",
    "image": "",
    "url": "https://www.town.shiriuchi.hokkaido.jp/about/yumeijin/kitajimagallery.html",
    "latlng": "[41.5984408, 140.4188009]",
    "lat": 41.5984408,
    "lng": 140.4188009,
    "isClosed": ""
  },
  {
    "id": "hokkaido-museum-121",
    "type": "museum",
    "name": "木古内町郷土資料館いかりん館",
    "prefecture": "北海道",
    "postCode": "049-0455",
    "address": "北海道上磯郡木古内町鶴岡７４−１",
    "city": "きこない",
    "image": "",
    "url": "https://www.town.kikonai.hokkaido.jp/kanko/annai/kyodoshiryokan.html",
    "latlng": "[41.6714114, 140.4129683]",
    "lat": 41.6714114,
    "lng": 140.4129683,
    "isClosed": ""
  },
  {
    "id": "hokkaido-museum-122",
    "type": "museum",
    "name": "勝山館跡ガイダンス施設",
    "prefecture": "北海道",
    "postCode": "049-0601",
    "address": "北海道檜山郡上ノ国町字勝山427番地",
    "city": "かみのくに",
    "image": "",
    "url": "https://www.town.kaminokuni.lg.jp/hotnews/detail/00000391.html",
    "latlng": "[41.799879, 140.0970658]",
    "lat": 41.799879,
    "lng": 140.0970658,
    "isClosed": ""
  },
  {
    "id": "hokkaido-museum-123",
    "type": "museum",
    "name": "旧笹浪家住宅",
    "prefecture": "北海道",
    "postCode": "049-0612",
    "address": "北海道檜山郡上ノ国町字上ノ国２３６番地",
    "city": "かみのくに",
    "image": "",
    "url": "https://www.town.kaminokuni.lg.jp/hotnews/detail/00000385.html",
    "latlng": "[41.8034144, 140.1043339]",
    "lat": 41.8034144,
    "lng": 140.1043339,
    "isClosed": ""
  },
  {
    "id": "hokkaido-museum-124",
    "type": "museum",
    "name": "江差追分会館",
    "prefecture": "北海道",
    "postCode": "043-0034",
    "address": "北海道檜山郡江差町字中歌町193-3",
    "city": "えさし",
    "image": "",
    "url": "http://esashi-oiwake.com/esashioiwake-kaikan",
    "latlng": "[41.8686498, 140.1267227]",
    "lat": 41.8686498,
    "lng": 140.1267227,
    "isClosed": ""
  },
  {
    "id": "hokkaido-museum-125",
    "type": "museum",
    "name": "旧江差駅資料展示館・地域交流館",
    "prefecture": "北海道",
    "postCode": "043-0043",
    "address": "北海道檜山郡江差町本町２３０",
    "city": "えさし",
    "image": "",
    "url": "https://esashi.town/tourism/page.php?id=93",
    "latlng": "[41.8654234, 140.13019]",
    "lat": 41.8654234,
    "lng": 140.13019,
    "isClosed": ""
  },
  {
    "id": "hokkaido-museum-126",
    "type": "museum",
    "name": "北斗市郷土資料館",
    "prefecture": "北海道",
    "postCode": "041-1201",
    "address": "北海道北斗市本町１丁目１−１",
    "city": "ほくと",
    "image": "",
    "url": "https://www.city.hokuto.hokkaido.jp/docs/8007.html",
    "latlng": "[41.8834686, 140.6437315]",
    "lat": 41.8834686,
    "lng": 140.6437315,
    "isClosed": ""
  },
  {
    "id": "hokkaido-museum-127",
    "type": "museum",
    "name": "函館昭和のおもちゃ博物館",
    "prefecture": "北海道",
    "postCode": "040-0054",
    "address": "北海道函館市元町９－11",
    "city": "はこだて",
    "image": "",
    "url": "https://www.cafehura.com/",
    "latlng": "[41.7643626, 140.7095222]",
    "lat": 41.7643626,
    "lng": 140.7095222,
    "isClosed": ""
  },
  {
    "id": "hokkaido-museum-128",
    "type": "museum",
    "name": "七飯町歴史館",
    "prefecture": "北海道",
    "postCode": "041-1111",
    "address": "北海道亀田郡七飯町本町６丁目１−３",
    "city": "ななえ",
    "image": "",
    "url": "https://www.town.nanae.hokkaido.jp/education/detail/00001028.html",
    "latlng": "[41.8972099, 140.6952241]",
    "lat": 41.8972099,
    "lng": 140.6952241,
    "isClosed": ""
  },
  {
    "id": "hokkaido-museum-129",
    "type": "museum",
    "name": "旧函館区公会堂",
    "prefecture": "北海道",
    "postCode": "040-0054",
    "address": "北海道函館市元町11番13号",
    "city": "はこだて",
    "image": "",
    "url": "https://hakodate-kokaido.jp/",
    "latlng": "[41.7650459, 140.7089162]",
    "lat": 41.7650459,
    "lng": 140.7089162,
    "isClosed": ""
  },
  {
    "id": "hokkaido-museum-130",
    "type": "museum",
    "name": "ピリカ旧石器文化館",
    "prefecture": "北海道",
    "postCode": "049-4151",
    "address": "北海道瀬棚郡今金町美利河２２８−１",
    "city": "いまがね",
    "image": "",
    "url": "https://www.town.imakane.lg.jp/pirika/cat629/post.html",
    "latlng": "[42.4773871, 140.2023533]",
    "lat": 42.4773871,
    "lng": 140.2023533,
    "isClosed": ""
  },
  {
    "id": "hokkaido-museum-131",
    "type": "museum",
    "name": "カール・レイモン 歴史展示館",
    "prefecture": "北海道",
    "postCode": "040-0054",
    "address": "北海道函館市元町30-3",
    "city": "はこだて",
    "image": "",
    "url": "https://www.raymon.co.jp/brand/history/?srsltid=AfmBOopRayoOU33ue0z61wm8z4se2ElDYbXj0fPRblyeZPjbhGAqG0KJ",
    "latlng": "[41.7635642, 140.7144546]",
    "lat": 41.7635642,
    "lng": 140.7144546,
    "isClosed": ""
  },
  {
    "id": "hokkaido-museum-132",
    "type": "museum",
    "name": "北方教育資料館/夕陽記念館（旧函館師範学校）",
    "prefecture": "北海道",
    "postCode": "040-0083",
    "address": "北海道函館市八幡町１ 北海道教育大学 函館校",
    "city": "はこだて",
    "image": "",
    "url": "https://sekiyoukai.com/memorial-hall/",
    "latlng": "[41.79294429999999, 140.7395419]",
    "lat": 41.79294429999999,
    "lng": 140.7395419,
    "isClosed": ""
  },
  {
    "id": "hokkaido-museum-133",
    "type": "museum",
    "name": "木村捷司記念室",
    "prefecture": "北海道",
    "postCode": "041-1112",
    "address": "北海道亀田郡七飯町鳴川１丁目２−４",
    "city": "ななえ",
    "image": "",
    "url": "",
    "latlng": "[41.8801119, 140.702909]",
    "lat": 41.8801119,
    "lng": 140.702909,
    "isClosed": ""
  },
  {
    "id": "hokkaido-museum-134",
    "type": "museum",
    "name": "旧相馬家住宅",
    "prefecture": "北海道",
    "postCode": "040-0054",
    "address": "北海道函館市元町３３−２",
    "city": "はこだて",
    "image": "",
    "url": "https://www.kyusoumake.com/",
    "latlng": "[41.76524089999999, 140.7108976]",
    "lat": 41.76524089999999,
    "lng": 140.7108976,
    "isClosed": ""
  },
  {
    "id": "hokkaido-museum-135",
    "type": "museum",
    "name": "森町遺跡発掘調査事務所",
    "prefecture": "北海道",
    "postCode": "049-2313",
    "address": "北海道茅部郡森町字森川町292-24",
    "city": "もり",
    "image": "",
    "url": "",
    "latlng": "[42.0914748, 140.5776283]",
    "lat": 42.0914748,
    "lng": 140.5776283,
    "isClosed": ""
  },
  {
    "id": "hokkaido-museum-136",
    "type": "museum",
    "name": "函館市臨海研究所",
    "prefecture": "北海道",
    "postCode": "040-0052",
    "address": "北海道函館市大町13番1号",
    "city": "はこだて",
    "image": "",
    "url": "https://www.city.hakodate.hokkaido.jp/docs/2014031100224/",
    "latlng": "[41.77080180000001, 140.7100815]",
    "lat": 41.77080180000001,
    "lng": 140.7100815,
    "isClosed": ""
  },
  {
    "id": "hokkaido-museum-137",
    "type": "museum",
    "name": "函館市灯台資料館",
    "prefecture": "北海道",
    "postCode": "041-0605",
    "address": "北海道函館市恵山岬町80番地9",
    "city": "はこだて",
    "image": "",
    "url": "https://www.city.hakodate.hokkaido.jp/docs/2014061300083/",
    "latlng": "[41.8159964, 141.1821746]",
    "lat": 41.8159964,
    "lng": 141.1821746,
    "isClosed": ""
  },
  {
    "id": "hokkaido-museum-138",
    "type": "museum",
    "name": "カブトムシハウス",
    "prefecture": "北海道",
    "postCode": "049-4151",
    "address": "北海道瀬棚郡今金町美利河205-1　交流棟体験室内",
    "city": "いまがね",
    "image": "",
    "url": "https://kurplazapirika.net/news/31111/",
    "latlng": "[42.4683537, 140.2017104]",
    "lat": 42.4683537,
    "lng": 140.2017104,
    "isClosed": ""
  },
  {
    "id": "hokkaido-museum-139",
    "type": "museum",
    "name": "乙部町公民館郷土資料室",
    "prefecture": "北海道",
    "postCode": "043-0104",
    "address": "北海道乙部町館浦4－1（乙部町公民館内）",
    "city": "おとべ",
    "image": "",
    "url": "https://www.town.otobe.lg.jp/section/kyoui/e0taal00000007wu.html#s8",
    "latlng": "[41.9744385, 140.135478]",
    "lat": 41.9744385,
    "lng": 140.135478,
    "isClosed": ""
  },
  {
    "id": "hokkaido-museum-140",
    "type": "museum",
    "name": "八雲町木彫り熊資料館",
    "prefecture": "北海道",
    "postCode": "049-3112",
    "address": "北海道二海郡八雲町末広町154番地",
    "city": "やくも",
    "image": "",
    "url": "https://www.town.yakumo.lg.jp/soshiki/kyoudo/content0572.html",
    "latlng": "[42.2543339, 140.2682712]",
    "lat": 42.2543339,
    "lng": 140.2682712,
    "isClosed": ""
  },
  {
    "id": "hokkaido-museum-141",
    "type": "museum",
    "name": "八雲町熊石歴史記念館",
    "prefecture": "北海道",
    "postCode": "043-0403",
    "address": "北海道二海郡八雲町熊石平町３２５−３",
    "city": "やくも",
    "image": "",
    "url": "https://www.town.yakumo.lg.jp/html-contents/ainuhistory/jpn/ainu/guide/073.html",
    "latlng": "[42.13246729999999, 140.0033934]",
    "lat": 42.13246729999999,
    "lng": 140.0033934,
    "isClosed": ""
  },
  {
    "id": "hokkaido-museum-142",
    "type": "museum",
    "name": "八雲町郷土資料館収蔵庫",
    "prefecture": "北海道",
    "postCode": "049-3112",
    "address": "北海道二海郡八雲町末広町154番地",
    "city": "やくも",
    "image": "",
    "url": "https://www.town.yakumo.lg.jp/soshiki/kyoudo/kyoudo004.html",
    "latlng": "[42.2543339, 140.2682712]",
    "lat": 42.2543339,
    "lng": 140.2682712,
    "isClosed": ""
  },
  {
    "id": "hokkaido-museum-143",
    "type": "museum",
    "name": "梅村庭園・梅雲亭",
    "prefecture": "北海道",
    "postCode": "049-3112",
    "address": "北海道二海郡八雲町末広町151番地",
    "city": "やくも",
    "image": "",
    "url": "https://www.town.yakumo.lg.jp/soshiki/kyoudo/content0936.html",
    "latlng": "[42.255258, 140.2685737]",
    "lat": 42.255258,
    "lng": 140.2685737,
    "isClosed": ""
  },
  {
    "id": "hokkaido-museum-144",
    "type": "museum",
    "name": "せたな町生涯学習センター",
    "prefecture": "北海道",
    "postCode": "049-4816",
    "address": "北海道久遠郡せたな町瀬棚区本町651",
    "city": "せたな",
    "image": "",
    "url": "https://www.hiyama.pref.hokkaido.lg.jp/ss/srk/tabi/02s_seta/parts/3201stn.html",
    "latlng": "[42.4538672, 139.8545404]",
    "lat": 42.4538672,
    "lng": 139.8545404,
    "isClosed": ""
  },
  {
    "id": "hokkaido-museum-145",
    "type": "museum",
    "name": "せたな町大成郷土館",
    "prefecture": "北海道",
    "postCode": "043-0504",
    "address": "北海道久遠郡せたな町大成区都386",
    "city": "せたな",
    "image": "",
    "url": "https://www.hiyama.pref.hokkaido.lg.jp/ss/srk/tabi/04s_tais/parts/3402kyo.html",
    "latlng": "[42.2281859, 139.819061]",
    "lat": 42.2281859,
    "lng": 139.819061,
    "isClosed": ""
  },
  {
    "id": "hokkaido-museum-146",
    "type": "museum",
    "name": "瀬棚郷土館",
    "prefecture": "北海道",
    "postCode": "049-4816",
    "address": "北海道久遠郡せたな町瀬棚区本町６２８",
    "city": "せたな",
    "image": "",
    "url": "",
    "latlng": "[42.4529904, 139.8550868]",
    "lat": 42.4529904,
    "lng": 139.8550868,
    "isClosed": ""
  },
  {
    "id": "hokkaido-museum-147",
    "type": "museum",
    "name": "長万部町民センター",
    "prefecture": "北海道",
    "postCode": "049-3521",
    "address": "北海道山越郡長万部町字長万部413番地12",
    "city": "おしゃまんべ",
    "image": "",
    "url": "https://www.town.oshamambe.lg.jp/soshiki/16/191.html",
    "latlng": "[42.5172878, 140.3736997]",
    "lat": 42.5172878,
    "lng": 140.3736997,
    "isClosed": ""
  },
  {
    "id": "hokkaido-museum-148",
    "type": "museum",
    "name": "苫小牧市 科学センター",
    "prefecture": "北海道",
    "postCode": "053-0018",
    "address": "北海道苫小牧市旭町３丁目１−１２",
    "city": "とまこまい",
    "image": "",
    "url": "https://www.city.tomakomai.hokkaido.jp/kagaku/",
    "latlng": "[42.6318938, 141.6049432]",
    "lat": 42.6318938,
    "lng": 141.6049432,
    "isClosed": ""
  },
  {
    "id": "hokkaido-museum-149",
    "type": "museum",
    "name": "苫小牧ポートミュージアム",
    "prefecture": "北海道",
    "postCode": "053-0003",
    "address": "北海道苫小牧市入船町1丁目2番34号(苫小牧西港フェリーターミナル3F)",
    "city": "とまこまい",
    "image": "",
    "url": "https://www.waterfront.or.jp/portmuseum/museum/view/23",
    "latlng": "[42.6383812, 141.6350097]",
    "lat": 42.6383812,
    "lng": 141.6350097,
    "isClosed": ""
  },
  {
    "id": "hokkaido-museum-150",
    "type": "museum",
    "name": "ミール展示館",
    "prefecture": "北海道",
    "postCode": "053-0018",
    "address": "北海道苫小牧市旭町３丁目１−１２",
    "city": "とまこまい",
    "image": "",
    "url": "https://www.city.tomakomai.hokkaido.jp/kagaku/mir/",
    "latlng": "[42.6318938, 141.6049432]",
    "lat": 42.6318938,
    "lng": 141.6049432,
    "isClosed": ""
  },
  {
    "id": "hokkaido-museum-151",
    "type": "museum",
    "name": "勇武津資料館",
    "prefecture": "北海道",
    "postCode": "059-1372",
    "address": "北海道苫小牧市勇払１３２−３２",
    "city": "とまこまい",
    "image": "",
    "url": "https://www.city.tomakomai.hokkaido.jp/kyoiku/bunkashisetsu/yufutsushiryokan/siryokan.html",
    "latlng": "[42.63102790000001, 141.7340515]",
    "lat": 42.63102790000001,
    "lng": 141.7340515,
    "isClosed": ""
  },
  {
    "id": "hokkaido-museum-152",
    "type": "museum",
    "name": "ほっき貝資料館",
    "prefecture": "北海道",
    "postCode": "053-0004",
    "address": "北海道苫小牧市港町2-2-5",
    "city": "とまこまい",
    "image": "",
    "url": "https://puratto.jp/tenpoannai/facility",
    "latlng": "[42.63059270000001, 141.6158017]",
    "lat": 42.63059270000001,
    "lng": 141.6158017,
    "isClosed": ""
  },
  {
    "id": "hokkaido-museum-153",
    "type": "museum",
    "name": "ノーザンホースミュージアム",
    "prefecture": "北海道",
    "postCode": "059-1361",
    "address": "北海道苫小牧市美沢114-7",
    "city": "とまこまい",
    "image": "",
    "url": "https://www.northern-horsepark.jp/",
    "latlng": "[42.7772241, 141.7418688]",
    "lat": 42.7772241,
    "lng": 141.7418688,
    "isClosed": ""
  },
  {
    "id": "hokkaido-museum-154",
    "type": "museum",
    "name": "苫小牧市サンガーデン",
    "prefecture": "北海道",
    "postCode": "053-0011",
    "address": "北海道苫小牧市末広町３丁目１−１５",
    "city": "とまこまい",
    "image": "",
    "url": "http://tomakomai-sungarden-zoen.org/menu/about.html",
    "latlng": "[42.6374439, 141.6108029]",
    "lat": 42.6374439,
    "lng": 141.6108029,
    "isClosed": ""
  },
  {
    "id": "hokkaido-museum-155",
    "type": "museum",
    "name": "ウトナイ湖野生鳥獣保護センター",
    "prefecture": "北海道",
    "postCode": "059-1365",
    "address": "北海道苫小牧市植苗１５０−３",
    "city": "とまこまい",
    "image": "",
    "url": "https://www.city.tomakomai.hokkaido.jp/shizen/sonotanoshisetsu/utonai/",
    "latlng": "[42.7043222, 141.7078221]",
    "lat": 42.7043222,
    "lng": 141.7078221,
    "isClosed": ""
  },
  {
    "id": "hokkaido-museum-156",
    "type": "museum",
    "name": "登別市立郷土資料館・文化伝承館",
    "prefecture": "北海道",
    "postCode": "059-0016",
    "address": "北海道登別市片倉町６丁目２７",
    "city": "のぼりべつ",
    "image": "",
    "url": "https://www.city.noboribetsu.lg.jp/docs/shiryokan/",
    "latlng": "[42.4204295, 141.0819036]",
    "lat": 42.4204295,
    "lng": 141.0819036,
    "isClosed": ""
  },
  {
    "id": "hokkaido-museum-157",
    "type": "museum",
    "name": "のぼりべつ文化交流館カント・レラ",
    "prefecture": "北海道",
    "postCode": "059-0551",
    "address": "北海道登別市登別温泉町１２３番地",
    "city": "のぼりべつ",
    "image": "",
    "url": "https://www.city.noboribetsu.lg.jp/docs/kantorera/",
    "latlng": "[42.4804941, 141.1464971]",
    "lat": 42.4804941,
    "lng": 141.1464971,
    "isClosed": ""
  },
  {
    "id": "hokkaido-museum-158",
    "type": "museum",
    "name": "アイヌ生活資料館 ユーカラの里",
    "prefecture": "北海道",
    "postCode": "059-0551",
    "address": "北海道登別市登別温泉町224番地 のぼりべつクマ牧場内",
    "city": "のぼりべつ",
    "image": "",
    "url": "https://bearpark.jp/",
    "latlng": "[42.4905331, 141.1588672]",
    "lat": 42.4905331,
    "lng": 141.1588672,
    "isClosed": ""
  },
  {
    "id": "hokkaido-museum-159",
    "type": "museum",
    "name": "古趣・北乃博物館",
    "prefecture": "北海道",
    "postCode": "059-0464",
    "address": "北海道登別市登別東2丁目27番地3",
    "city": "のぼりべつ",
    "image": "",
    "url": "",
    "latlng": "[42.45414479999999, 141.1777349]",
    "lat": 42.45414479999999,
    "lng": 141.1777349,
    "isClosed": ""
  },
  {
    "id": "hokkaido-museum-160",
    "type": "museum",
    "name": "知里幸恵 銀のしずく記念館",
    "prefecture": "北海道",
    "postCode": "059-0465",
    "address": "北海道登別市登別本町２丁目３４−７",
    "city": "のぼりべつ",
    "image": "",
    "url": "https://www.ginnoshizuku.com/",
    "latlng": "[42.4513524, 141.1671505]",
    "lat": 42.4513524,
    "lng": 141.1671505,
    "isClosed": ""
  },
  {
    "id": "hokkaido-museum-161",
    "type": "museum",
    "name": "登別伊達時代村 片倉史料館",
    "prefecture": "北海道",
    "postCode": "059-0463",
    "address": "北海道登別市中登別町53-1 登別伊達時代村内",
    "city": "のぼりべつ",
    "image": "",
    "url": "https://edo-trip.jp/",
    "latlng": "[42.463613, 141.159866]",
    "lat": 42.463613,
    "lng": 141.159866,
    "isClosed": ""
  },
  {
    "id": "hokkaido-museum-162",
    "type": "museum",
    "name": "登別伊達時代村 忍者資料館",
    "prefecture": "北海道",
    "postCode": "059-0463",
    "address": "北海道登別市中登別町53-1 登別伊達時代村内",
    "city": "のぼりべつ",
    "image": "",
    "url": "https://edo-trip.jp/",
    "latlng": "[42.463613, 141.159866]",
    "lat": 42.463613,
    "lng": 141.159866,
    "isClosed": ""
  },
  {
    "id": "hokkaido-museum-163",
    "type": "museum",
    "name": "登別伊達時代村 刀資料館",
    "prefecture": "北海道",
    "postCode": "059-0463",
    "address": "北海道登別市中登別町53-1 登別伊達時代村内",
    "city": "のぼりべつ",
    "image": "",
    "url": "https://edo-trip.jp/",
    "latlng": "[42.463613, 141.159866]",
    "lat": 42.463613,
    "lng": 141.159866,
    "isClosed": ""
  },
  {
    "id": "hokkaido-museum-164",
    "type": "museum",
    "name": "自然と科学のミュージアム 森の工舎（ナチュの森内）",
    "prefecture": "北海道",
    "postCode": "059-0641",
    "address": "北海道白老郡白老町虎杖浜３９３−１２",
    "city": "しらおい",
    "image": "",
    "url": "https://nachunomori.jp/facilities",
    "latlng": "[42.4643745, 141.1987088]",
    "lat": 42.4643745,
    "lng": 141.1987088,
    "isClosed": ""
  },
  {
    "id": "hokkaido-museum-165",
    "type": "museum",
    "name": "仙台藩白老元陣屋資料館",
    "prefecture": "北海道",
    "postCode": "059-0912",
    "address": "北海道白老郡白老町陣屋町６８１−４",
    "city": "しらおい",
    "image": "",
    "url": "https://www.town.shiraoi.hokkaido.jp/docs/page2020062800019.html",
    "latlng": "[42.5653501, 141.3440484]",
    "lat": 42.5653501,
    "lng": 141.3440484,
    "isClosed": ""
  },
  {
    "id": "hokkaido-museum-166",
    "type": "museum",
    "name": "創作木彫 荒井工芸館",
    "prefecture": "北海道",
    "postCode": "059-0905",
    "address": "北海道白老郡白老町大町3丁目3-26",
    "city": "しらおい",
    "image": "",
    "url": "http://www.craft-arai.sakura.ne.jp/index.html",
    "latlng": "[42.5532009, 141.3609677]",
    "lat": 42.5532009,
    "lng": 141.3609677,
    "isClosed": ""
  },
  {
    "id": "hokkaido-museum-167",
    "type": "museum",
    "name": "室蘭市民俗資料館 とんてん館",
    "prefecture": "",
    "postCode": "050-0067",
    "address": "北海道室蘭市陣屋町２丁目４−２５ 4番25号",
    "city": "むろらん",
    "image": "",
    "url": "https://www.city.muroran.lg.jp/culture/?content=1516",
    "latlng": "[42.3689744, 140.9509183]",
    "lat": 42.3689744,
    "lng": 140.9509183,
    "isClosed": ""
  },
  {
    "id": "hokkaido-museum-168",
    "type": "museum",
    "name": "室蘭市港の文学館",
    "prefecture": "",
    "postCode": "051-0022",
    "address": "北海道室蘭市海岸町１丁目１−９",
    "city": "むろらん",
    "image": "",
    "url": "https://www.city.muroran.lg.jp/culture/?content=1518",
    "latlng": "[42.318973, 140.9730819]",
    "lat": 42.318973,
    "lng": 140.9730819,
    "isClosed": ""
  },
  {
    "id": "hokkaido-museum-169",
    "type": "museum",
    "name": "えみらん DENZAI環境科学館",
    "prefecture": "",
    "postCode": "051-0015",
    "address": "北海道室蘭市本町２丁目２−１",
    "city": "むろらん",
    "image": "",
    "url": "https://www.kujiran.net/emiran/",
    "latlng": "[42.3141636, 140.9737247]",
    "lat": 42.3141636,
    "lng": 140.9737247,
    "isClosed": ""
  },
  {
    "id": "hokkaido-museum-170",
    "type": "museum",
    "name": "白鳥大橋記念館（愛称：カナスチールみたら室蘭）",
    "prefecture": "",
    "postCode": "051-0036",
    "address": "北海道室蘭市祝津町4丁目16番15号",
    "city": "むろらん",
    "image": "",
    "url": "https://www.city.muroran.lg.jp/content/?content=1551",
    "latlng": "[42.341925, 140.9436666]",
    "lat": 42.341925,
    "lng": 140.9436666,
    "isClosed": ""
  },
  {
    "id": "hokkaido-museum-171",
    "type": "museum",
    "name": "室蘭民報みんなの水族館（市立室蘭水族館）",
    "prefecture": "",
    "postCode": "051-0036",
    "address": "北海道室蘭市祝津町３丁目３−１２",
    "city": "むろらん",
    "image": "",
    "url": "http://iburi.net/murosui/index.html",
    "latlng": "[42.3398621, 140.9437883]",
    "lat": 42.3398621,
    "lng": 140.9437883,
    "isClosed": ""
  }
]
