[
  {
    "id": "hokkaido-zoo-1",
    "type": "zoo",
    "name": "円山動物園",
    "prefecture": "北海道",
    "postCode": "064-0959",
    "address": "北海道札幌市中央区宮ケ丘3-1",
    "city": "さっぽろ",
    "image": "/img/hokkaido/zoo/maruyama-zoo.jpg",
    "url": "https://www.city.sapporo.jp/zoo/",
    "latlng": "[43.0580131, 141.3094855]",
    "lat": "43.0580131",
    "lng": "141.3094855",
    "isClosed": ""
  },
  {
    "id": "hokkaido-zoo-2",
    "type": "zoo",
    "name": "旭山動物園",
    "prefecture": "北海道",
    "postCode": "078-8205",
    "address": "北海道旭川市東旭川町倉沼",
    "city": "あさひかわ",
    "image": "/img/hokkaido/zoo/asahiyama-zoo.jpg",
    "url": "https://www.city.asahikawa.hokkaido.jp/asahiyamazoo/",
    "latlng": "[43.7591494, 142.4871813]",
    "lat": "43.7591494",
    "lng": "142.4871813",
    "isClosed": ""
  },
  {
    "id": "hokkaido-zoo-3",
    "type": "zoo",
    "name": "ノースサファリサッポロ",
    "prefecture": "北海道",
    "postCode": "061-2273",
    "address": "北海道札幌市南区豊滝469-1",
    "city": "さっぽろ",
    "image": "/img/hokkaido/zoo/north-safari.jpg",
    "url": "https://www.north-safari.com/",
    "latlng": "[42.9470249, 141.2231129]",
    "lat": "42.9470249",
    "lng": "141.2231129",
    "isClosed": ""
  },
  {
    "id": "hokkaido-zoo-4",
    "type": "zoo",
    "name": "釧路市動物園",
    "prefecture": "北海道",
    "postCode": "085-0204",
    "address": "北海道釧路市阿寒町下仁々志別 11",
    "city": "くしろ",
    "image": "/img/hokkaido/zoo/kushiro-zoo.jpg",
    "url": "https://www.city.kushiro.lg.jp/zoo/",
    "latlng": "[43.0836123, 144.2339024]",
    "lat": "43.0836123",
    "lng": "144.2339024",
    "isClosed": ""
  },
  {
    "id": "hokkaido-zoo-5",
    "type": "zoo",
    "name": "北きつね牧場",
    "prefecture": "北海道",
    "postCode": "091-0157",
    "address": "北海道北見市留辺蘂町花丘52-1",
    "city": "きたみ",
    "image": "/img/hokkaido/zoo/kitami-kitakitsune.jpg",
    "url": "https://kitakitsune-farm.com/",
    "latlng": "[43.7558426, 143.4977557]",
    "lat": "43.7558426",
    "lng": "143.4977557",
    "isClosed": ""
  },
  {
    "id": "hokkaido-zoo-6",
    "type": "zoo",
    "name": "北海道海鳥センター",
    "prefecture": "北海道",
    "postCode": "078-4116",
    "address": "北海道苫前郡羽幌町北6-1",
    "city": "はぼろ",
    "image": "/img/hokkaido/zoo/hokkaido-umidori.jpg",
    "url": "http://www.seabird-center.jp/",
    "latlng": "[44.3608225, 141.6973092]",
    "lat": "44.3608225",
    "lng": "141.6973092",
    "isClosed": ""
  },
  {
    "id": "hokkaido-zoo-7",
    "type": "zoo",
    "name": "おびひろ動物園",
    "prefecture": "北海道",
    "postCode": "080-0846",
    "address": "北海道帯広市緑ケ丘2",
    "city": "おびひろ",
    "image": "/img/hokkaido/zoo/obihiro-zoo.jpg",
    "url": "https://www.city.obihiro.hokkaido.jp/zoo/",
    "latlng": "[42.9099673, 143.1879937]",
    "lat": "42.9099673",
    "lng": "143.1879937",
    "isClosed": ""
  },
  {
    "id": "hokkaido-zoo-8",
    "type": "zoo",
    "name": "昭和新山熊牧場",
    "prefecture": "北海道",
    "postCode": "052-0102",
    "address": "北海道有珠郡壮瞥町昭和新山183",
    "city": "そうべつ",
    "image": "/img/hokkaido/zoo/showashinzan-kuma.jpg",
    "url": "https://kumakuma.co.jp/",
    "latlng": "[42.5387908, 140.8612575]",
    "lat": "42.5387908",
    "lng": "140.8612575",
    "isClosed": ""
  },
  {
    "id": "hokkaido-zoo-9",
    "type": "zoo",
    "name": "のぼりべつクマ牧場",
    "prefecture": "北海道",
    "postCode": "059-0551",
    "address": "北海道登別市登別温泉町224",
    "city": "のぼりべつ",
    "image": "/img/hokkaido/zoo/noboribetsu-kuma.jpg",
    "url": "https://bearpark.jp/",
    "latlng": "[42.4902798, 141.1590961]",
    "lat": "42.4902798",
    "lng": "141.1590961",
    "isClosed": ""
  },
  {
    "id": "hokkaido-zoo-10",
    "type": "zoo",
    "name": "稚内市動物ふれあいランド",
    "prefecture": "北海道",
    "postCode": "098-6645",
    "address": "北海道稚内市声問村恵北",
    "city": "わっかない",
    "image": "/img/hokkaido/zoo/wakkanai-hureai.jpg",
    "url": "https://www.city.wakkanai.hokkaido.jp/kanko/midokoro/spot/doubutsufureai.html",
    "latlng": "[45.3687483, 141.7971978]",
    "lat": "45.3687483",
    "lng": "141.7971978",
    "isClosed": ""
  },
  {
    "id": "hokkaido-zoo-11",
    "type": "zoo",
    "name": "栗山公園なかよし動物園",
    "prefecture": "北海道",
    "postCode": "069-1501",
    "address": "北海道夕張郡栗山町桜丘2丁目38-16",
    "city": "くりやま",
    "image": "/img/hokkaido/zoo/kuriyama-nakayoshi.jpg",
    "url": "https://www.town.kuriyama.hokkaido.jp/soshiki/48/713.html",
    "latlng": "[43.0652963, 141.7816512]",
    "lat": "43.0652963",
    "lng": "141.7816512",
    "isClosed": ""
  },
  {
    "id": "hokkaido-zoo-12",
    "type": "zoo",
    "name": "函館公園動物施設",
    "prefecture": "北海道",
    "postCode": "040-0044",
    "address": "北海道函館市青柳町17-3",
    "city": "はこだて",
    "image": "/img/hokkaido/zoo/hakodate-doubutsu.jpg",
    "url": "https://www.hakodate-jts-kosya.jp/park/hakodate/animal/",
    "latlng": "[41.7553257, 140.7163589]",
    "lat": "41.7553257",
    "lng": "140.7163589",
    "isClosed": ""
  },
  {
    "id": "hokkaido-zoo-13",
    "type": "zoo",
    "name": "天狗山シマリス公園",
    "prefecture": "北海道",
    "postCode": "047-0012",
    "address": "北海道小樽市天狗山",
    "city": "おたる",
    "image": "/img/hokkaido/zoo/tenguyama-shimarisu.jpg",
    "url": "https://www.instagram.com/otaru_tenguyama.resort/",
    "latlng": "[43.15235999999999, 140.9474538]",
    "lat": "43.15236",
    "lng": "140.9474538",
    "isClosed": ""
  },
  {
    "id": "hokkaido-zoo-14",
    "type": "zoo",
    "name": "オホーツクシマリス公園",
    "prefecture": "北海道",
    "postCode": "099-2421",
    "address": "北海道網走市呼人352",
    "city": "あばしり",
    "image": "/img/hokkaido/zoo/abashiri-shimarisu.jpg",
    "url": "https://visit-abashiri.jp/culture/bd619c302fe51d484ff522c824a63fb6510c0386.html",
    "latlng": "[43.9605579, 144.201224]",
    "lat": "43.9605579",
    "lng": "144.201224",
    "isClosed": ""
  },
  {
    "id": "hokkaido-zoo-15",
    "type": "zoo",
    "name": "旭ヶ丘公園小動物舎",
    "prefecture": "北海道",
    "postCode": "075-0036",
    "address": "北海道芦別市旭町",
    "city": "あしべつ",
    "image": "/img/hokkaido/zoo/ashibetsu-doubutsu.jpg",
    "url": "https://go-to-ashibetsu.com/media/2016/02/24/18",
    "latlng": "[43.5095446, 142.2200945]",
    "lat": "43.5095446",
    "lng": "142.2200945",
    "isClosed": ""
  },
  {
    "id": "hokkaido-zoo-16",
    "type": "zoo",
    "name": "別海町ふるさとの森動物館",
    "prefecture": "北海道",
    "postCode": "086-0216",
    "address": "北海道野付郡別海町別海140-1",
    "city": "べつかい",
    "image": "/img/hokkaido/zoo/betsukai-furusato.jpg",
    "url": "https://betsukai.jp/shisetsu/kanko/animal_/",
    "latlng": "[43.382413, 145.108425]",
    "lat": "43.382413",
    "lng": "145.108425",
    "isClosed": ""
  },
  {
    "id": "hokkaido-zoo-17",
    "type": "zoo",
    "name": "幌延トナカイ観光牧場",
    "prefecture": "北海道",
    "postCode": "098-3224",
    "address": "北海道天塩郡幌延町北進398-1",
    "city": "てしお",
    "image": "/img/hokkaido/zoo/horonobe-tonakai.jpg",
    "url": "https://www.town.horonobe.lg.jp/www4/section/sangyo/le009f00000017ha.html",
    "latlng": "[45.0408833, 141.8610647]",
    "lat": "45.0408833",
    "lng": "141.8610647",
    "isClosed": ""
  },
  {
    "id": "hokkaido-zoo-18",
    "type": "zoo",
    "name": "西興部村 鹿牧場公園",
    "prefecture": "北海道",
    "postCode": "098-1506",
    "address": "北海道紋別郡西興部村中藻",
    "city": "もんべつ",
    "image": "/img/hokkaido/zoo/monbetsu-shikaboku.jpg",
    "url": "https://www.vill.nishiokoppe.lg.jp/feeuub000001ul9d.html",
    "latlng": "[44.327289, 142.9968699]",
    "lat": "44.327289",
    "lng": "142.9968699",
    "isClosed": ""
  },
  {
    "id": "hokkaido-zoo-19",
    "type": "zoo",
    "name": "アースドリーム角山農場",
    "prefecture": "北海道",
    "postCode": "067-0052",
    "address": "北海道江別市角山584-1",
    "city": "えべつ",
    "image": "/img/hokkaido/zoo/ebetsu-earthdream.jpg",
    "url": "https://www.tondenfarm.co.jp/earth-dream-kakuyama/",
    "latlng": "[43.13705410000001, 141.4607388]",
    "lat": "43.1370541",
    "lng": "141.4607388",
    "isClosed": ""
  },
  {
    "id": "hokkaido-zoo-20",
    "type": "zoo",
    "name": "ノーザンホースパーク",
    "prefecture": "北海道",
    "postCode": "059-1361",
    "address": "北海道苫小牧市美沢114-7",
    "city": "とまこまい",
    "image": "/img/hokkaido/zoo/tomakomai-northernhorse.png",
    "url": "https://www.northern-horsepark.jp/",
    "latlng": "[42.7772241, 141.7418688]",
    "lat": "42.7772241",
    "lng": "141.7418688",
    "isClosed": ""
  },
  {
    "id": "hokkaido-zoo-21",
    "type": "zoo",
    "name": "ハイジ牧場",
    "prefecture": "北海道",
    "postCode": "069-1459",
    "address": "北海道夕張郡長沼町東9線南2番地",
    "city": "ながぬま",
    "image": "/img/hokkaido/zoo/naganuma-heidi.jpg",
    "url": "https://www.heidi-farm.com/",
    "latlng": "[42.9719097, 141.7356057]",
    "lat": "42.9719097",
    "lng": "141.7356057",
    "isClosed": ""
  },
  {
    "id": "hokkaido-zoo-22",
    "type": "zoo",
    "name": "四季彩の丘 アルパカ牧場",
    "prefecture": "北海道",
    "postCode": "071-0473",
    "address": "北海道上川郡美瑛町新星",
    "city": "かみかわ",
    "image": "/img/hokkaido/zoo/kamikawa-shikisai.jpg",
    "url": "https://www.shikisainooka.jp/alpaca/",
    "latlng": "[43.519914, 142.4911755]",
    "lat": "43.519914",
    "lng": "142.4911755",
    "isClosed": ""
  },
  {
    "id": "hokkaido-zoo-23",
    "type": "zoo",
    "name": "ファームズ千代田 ふれあい牧場",
    "prefecture": "北海道",
    "postCode": "071-0242",
    "address": "北海道上川郡美瑛町春日台4221",
    "city": "かみかわ",
    "image": "/img/hokkaido/zoo/kamikawa-farms.jpg",
    "url": "https://fureai-sc.org/",
    "latlng": "[43.5882639, 142.4670046]",
    "lat": "43.5882639",
    "lng": "142.4670046",
    "isClosed": ""
  },
  {
    "id": "hokkaido-zoo-24",
    "type": "zoo",
    "name": "サホロリゾート ベア・マウンテン",
    "prefecture": "北海道",
    "postCode": "081-0039",
    "address": "北海道上川郡新得町 狩勝高原",
    "city": "かみかわ",
    "image": "/img/hokkaido/zoo/kamikawa-bearmountain.jpg",
    "url": "https://bear-mt.jp/",
    "latlng": "[43.1593521, 142.8142016]",
    "lat": "43.1593521",
    "lng": "142.8142016",
    "isClosed": ""
  },
  {
    "id": "hokkaido-zoo-25",
    "type": "zoo",
    "name": "羊と雲の丘",
    "prefecture": "北海道",
    "postCode": "095-0056",
    "address": "北海道士別市西士別町5351",
    "city": "しべつ",
    "image": "/img/hokkaido/zoo/shibetsu-hitsuji.png",
    "url": "https://hitsujitokumo.net/",
    "latlng": "[44.174078, 142.3636909]",
    "lat": "44.174078",
    "lng": "142.3636909",
    "isClosed": ""
  }
]
