[
  {
    "id": "kochi-museum-1",
    "type": "museum",
    "name": "佐川町立青山文庫",
    "prefecture": "高知県",
    "postCode": "789-1201",
    "address": "高知県高岡郡佐川町甲1453−1",
    "city": "さかわ",
    "image": "",
    "url": "https://seizanbunko.com/",
    "latlng": "[33.4978385, 133.2887469]",
    "lat": 33.4978385,
    "lng": 133.2887469,
    "isClosed": ""
  },
  {
    "id": "kochi-museum-2",
    "type": "museum",
    "name": "高知県立歴史民俗資料館",
    "prefecture": "高知県",
    "postCode": "783-0044",
    "address": "高知県南国市岡豊町八幡1099−1",
    "city": "なんこく",
    "image": "",
    "url": "https://www.kochi-bunkazaidan.or.jp/~rekimin/",
    "latlng": "[33.5957665, 133.6233962]",
    "lat": 33.5957665,
    "lng": 133.6233962,
    "isClosed": ""
  },
  {
    "id": "kochi-museum-3",
    "type": "museum",
    "name": "安芸市立歴史民俗資料館",
    "prefecture": "高知県",
    "postCode": "784-0042",
    "address": "高知県安芸市土居953−イ",
    "city": "あき",
    "image": "",
    "url": "https://www.city.aki.kochi.jp/rekimin/",
    "latlng": "[33.5194592, 133.9132551]",
    "lat": 33.5194592,
    "lng": 133.9132551,
    "isClosed": ""
  },
  {
    "id": "kochi-museum-4",
    "type": "museum",
    "name": "香美市立やなせたかし記念館アンパンマンミュージアム",
    "prefecture": "高知県",
    "postCode": "781-4212",
    "address": "高知県香美市香北町美良布1224−2 香美市立やなせたかし記念館アンパンマンミュージアム",
    "city": "かみ",
    "image": "",
    "url": "https://anpanman-museum.net/",
    "latlng": "[33.6476647, 133.7838485]",
    "lat": 33.6476647,
    "lng": 133.7838485,
    "isClosed": ""
  },
  {
    "id": "kochi-museum-5",
    "type": "museum",
    "name": "龍河洞博物館",
    "prefecture": "高知県",
    "postCode": "782-0005",
    "address": "高知県香美市土佐山田町逆川1424",
    "city": "かみ",
    "image": "",
    "url": "https://ryugadou.or.jp/attraction/museum/",
    "latlng": "[33.6033924, 133.7451653]",
    "lat": 33.6033924,
    "lng": 133.7451653,
    "isClosed": ""
  },
  {
    "id": "kochi-museum-6",
    "type": "museum",
    "name": "高知県立高知城歴史博物館",
    "prefecture": "高知県",
    "postCode": "780-0842",
    "address": "高知県高知市追手筋2丁目7−5",
    "city": "こうち",
    "image": "",
    "url": "https://www.kochi-johaku.jp/",
    "latlng": "[33.5601368, 133.5341169]",
    "lat": 33.5601368,
    "lng": 133.5341169,
    "isClosed": ""
  },
  {
    "id": "kochi-museum-7",
    "type": "museum",
    "name": "高知県立坂本龍馬記念館",
    "prefecture": "高知県",
    "postCode": "781-0262",
    "address": "高知県高知市浦戸城山830",
    "city": "こうち",
    "image": "",
    "url": "https://ryoma-kinenkan.jp/",
    "latlng": "[33.4976637, 133.5691045]",
    "lat": 33.4976637,
    "lng": 133.5691045,
    "isClosed": ""
  },
  {
    "id": "kochi-museum-8",
    "type": "museum",
    "name": "高知県立牧野植物園",
    "prefecture": "高知県",
    "postCode": "781-8125",
    "address": "高知県高知市五台山4200−6 高知県立牧野植物園",
    "city": "こうち",
    "image": "",
    "url": "https://www.makino.or.jp/",
    "latlng": "[33.547908, 133.5791829]",
    "lat": 33.547908,
    "lng": 133.5791829,
    "isClosed": ""
  },
  {
    "id": "kochi-museum-9",
    "type": "museum",
    "name": "高知市立自由民権記念館",
    "prefecture": "高知県",
    "postCode": "781-8010",
    "address": "高知県高知市桟橋通4丁目14−3",
    "city": "こうち",
    "image": "",
    "url": "https://www.i-minken.jp/",
    "latlng": "[33.5431208, 133.5502949]",
    "lat": 33.5431208,
    "lng": 133.5502949,
    "isClosed": ""
  },
  {
    "id": "kochi-museum-10",
    "type": "museum",
    "name": "横山隆一記念まんが館",
    "prefecture": "高知県",
    "postCode": "780-8529",
    "address": "高知県高知市九反田2−1 かるぽーと 3階",
    "city": "こうち",
    "image": "",
    "url": "http://www.kfca.jp/mangakan/",
    "latlng": "[33.5582954, 133.5470255]",
    "lat": 33.5582954,
    "lng": 133.5470255,
    "isClosed": ""
  },
  {
    "id": "kochi-museum-11",
    "type": "museum",
    "name": "わんぱーくこうちアニマルランド",
    "prefecture": "高知県",
    "postCode": "781-8010",
    "address": "高知県高知市桟橋通6丁目9−1",
    "city": "こうち",
    "image": "",
    "url": "https://www.city.kochi.kochi.jp/deeps/17/1712/animal/",
    "latlng": "[33.5428042, 133.5568553]",
    "lat": 33.5428042,
    "lng": 133.5568553,
    "isClosed": ""
  },
  {
    "id": "kochi-museum-12",
    "type": "museum",
    "name": "宿毛市立宿毛歴史館",
    "prefecture": "高知県",
    "postCode": "788-0001",
    "address": "高知県宿毛市中央2丁目7−14",
    "city": "すくも",
    "image": "",
    "url": "https://www.city.sukumo.kochi.jp/docs-26/p010804.html",
    "latlng": "[32.9387576, 132.7303945]",
    "lat": 32.9387576,
    "lng": 132.7303945,
    "isClosed": ""
  }
]