[
  {
    "id": "yamagata-art-1",
    "type": "art",
    "name": "本間美術館",
    "prefecture": "山形県",
    "postCode": "998-0024",
    "address": "山形県酒田市御成町7−7",
    "city": "さかた",
    "image": "",
    "url": "https://www.homma-museum.or.jp/",
    "latlng": "[38.9233687, 139.842097]",
    "lat": 38.9233687,
    "lng": 139.842097,
    "isClosed": ""
  },
  {
    "id": "yamagata-art-2",
    "type": "art",
    "name": "出羽桜美術館",
    "prefecture": "山形県",
    "postCode": "994-0044",
    "address": "山形県天童市一日町1丁目4−1",
    "city": "てんどう",
    "image": "",
    "url": "https://www.dewazakura.co.jp/museum/",
    "latlng": "[38.3496371, 140.3709044]",
    "lat": 38.3496371,
    "lng": 140.3709044,
    "isClosed": ""
  },
  {
    "id": "yamagata-art-3",
    "type": "art",
    "name": "山形美術館",
    "prefecture": "山形県",
    "postCode": "990-0046",
    "address": "山形県山形市大手町1−63",
    "city": "やまがた",
    "image": "",
    "url": "http://www.yamagata-art-museum.or.jp/",
    "latlng": "[38.2559341, 140.3324596]",
    "lat": 38.2559341,
    "lng": 140.3324596,
    "isClosed": ""
  },
  {
    "id": "yamagata-art-4",
    "type": "art",
    "name": "天童市美術館",
    "prefecture": "山形県",
    "postCode": "994-0013",
    "address": "山形県天童市老野森1丁目2−2−2",
    "city": "てんどう",
    "image": "",
    "url": "http://tendocity-museum.jp/",
    "latlng": "[38.3632967, 140.3797148]",
    "lat": 38.3632967,
    "lng": 140.3797148,
    "isClosed": ""
  },
  {
    "id": "yamagata-art-5",
    "type": "art",
    "name": "酒田市美術館",
    "prefecture": "山形県",
    "postCode": "998-0055",
    "address": "山形県酒田市飯森山3-17-95",
    "city": "さかた",
    "image": "",
    "url": "http://www.sakata-art-museum.jp/",
    "latlng": "[38.8931634, 139.8157584]",
    "lat": 38.8931634,
    "lng": 139.8157584,
    "isClosed": ""
  },
  {
    "id": "yamagata-art-6",
    "type": "art",
    "name": "歴史と文化の美術館　わらべの里",
    "prefecture": "山形県",
    "postCode": "990-2301",
    "address": "山形県山形市蔵王温泉童子平1138",
    "city": "やまがた",
    "image": "",
    "url": "",
    "latlng": "[38.1659367, 140.3672068]",
    "lat": 38.1659367,
    "lng": 140.3672068,
    "isClosed": ""
  },
  {
    "id": "yamagata-art-7",
    "type": "art",
    "name": "東北芸術工科大学 美術館大学センター",
    "prefecture": "山形県",
    "postCode": "990-9530",
    "address": "山形県山形市上桜田3-4-5",
    "city": "やまがた",
    "image": "",
    "url": "http://www.tuad.ac.jp/museum/",
    "latlng": "[38.2186222, 140.3456096]",
    "lat": 38.2186222,
    "lng": 140.3456096,
    "isClosed": ""
  },
  {
    "id": "yamagata-art-8",
    "type": "art",
    "name": "東根市美術館（まなびあテラス）",
    "prefecture": "山形県",
    "postCode": "999-3730",
    "address": "山形県東根市中央南1-7-3",
    "city": "ひがしね",
    "image": "",
    "url": "https://www.manabiaterrace.jp/art-gallery/",
    "latlng": "[38.4283939, 140.3900925]",
    "lat": 38.4283939,
    "lng": 140.3900925,
    "isClosed": ""
  },
  {
    "id": "yamagata-art-9",
    "type": "art",
    "name": "広重美術館",
    "prefecture": "山形県",
    "postCode": "994-0025",
    "address": "山形県天童市鎌田本町1-2-1",
    "city": "てんどう",
    "image": "",
    "url": "http://www.hiroshige-tendo.jp/",
    "latlng": "[38.359628, 140.3804621]",
    "lat": 38.359628,
    "lng": 140.3804621,
    "isClosed": ""
  },
  {
    "id": "yamagata-art-10",
    "type": "art",
    "name": "やませ蔵美術館",
    "prefecture": "山形県",
    "postCode": "993-0006",
    "address": "山形県長井市あら町6-61",
    "city": "ながい",
    "image": "",
    "url": "http://www.justmystage.com/home/yamase/",
    "latlng": "[38.102093, 140.0384086]",
    "lat": 38.102093,
    "lng": 140.0384086,
    "isClosed": ""
  },
  {
    "id": "yamagata-art-11",
    "type": "art",
    "name": "今井繁三郎美術館　（収蔵館）",
    "prefecture": "山形県",
    "postCode": "997-0100",
    "address": "山形県鶴岡市羽黒町泉野",
    "city": "つるおか",
    "image": "",
    "url": "",
    "latlng": "[38.6951315, 139.9707571]",
    "lat": 38.6951315,
    "lng": 139.9707571,
    "isClosed": ""
  },
  {
    "id": "yamagata-art-12",
    "type": "art",
    "name": "出羽桜美術館分館　斎藤真一心の美術館",
    "prefecture": "山形県",
    "postCode": "994-0044",
    "address": "山形県天童市一日町2-4-34",
    "city": "てんどう",
    "image": "",
    "url": "http://www.dewazakura.co.jp/",
    "latlng": "[38.3487759, 140.3715028]",
    "lat": 38.3487759,
    "lng": 140.3715028,
    "isClosed": ""
  },
  {
    "id": "yamagata-art-13",
    "type": "art",
    "name": "鶴岡アートフォーラム",
    "prefecture": "山形県",
    "postCode": "997-0035",
    "address": "山形県鶴岡市馬場町13−3",
    "city": "つるおか",
    "image": "/img/yamagata/museum/tsuruoka-aatofooramu.jpg",
    "url": "https://www.t-artforum.net/",
    "latlng": "[38.7262431, 139.8250009]",
    "lat": 38.7262431,
    "lng": 139.8250009,
    "isClosed": ""
  }
]