[
  {
    "id": "yamagata-museum-1",
    "type": "museum",
    "name": "蟹仙洞",
    "prefecture": "山形県",
    "postCode": "999-3134",
    "address": "山形県上山市矢来4丁目6−6−8",
    "city": "かみのやま",
    "image": "/img/yamagata/museum/kani-sentou.jpg",
    "url": "https://www.kaisendo.jp/",
    "latlng": "[38.1490417, 140.2784432]",
    "lat": 38.1490417,
    "lng": 140.2784432,
    "isClosed": ""
  },
  {
    "id": "yamagata-museum-2",
    "type": "museum",
    "name": "斎藤茂吉記念館",
    "prefecture": "山形県",
    "postCode": "999-3131",
    "address": "山形県上山市北町弁天1421",
    "city": "かみのやま",
    "image": "/img/yamagata/museum/saitou-mokichi-kinenkan.jpg",
    "url": "https://www.mokichi.or.jp/",
    "latlng": "[38.172091, 140.2992434]",
    "lat": 38.172091,
    "lng": 140.2992434,
    "isClosed": ""
  },
  {
    "id": "yamagata-museum-3",
    "type": "museum",
    "name": "金峯山博物館",
    "prefecture": "山形県",
    "postCode": "997-0368",
    "address": "山形県鶴岡市青龍寺 青龍寺字金峯1",
    "city": "つるおか",
    "image": "/img/yamagata/museum/mitake-hakubutsukan.jpg",
    "url": "https://www.gakushubunka.jp/yugakukan/public/facilities0307-2/",
    "latlng": "[38.682008, 139.797904]",
    "lat": 38.682008,
    "lng": 139.797904,
    "isClosed": ""
  },
  {
    "id": "yamagata-museum-4",
    "type": "museum",
    "name": "致道博物館",
    "prefecture": "山形県",
    "postCode": "997-0036",
    "address": "山形県鶴岡市家中新町10−18",
    "city": "つるおか",
    "image": "/img/yamagata/museum/chidou-hakubutsukan.jpg",
    "url": "https://www.chido.jp/",
    "latlng": "[38.72837699999999, 139.8209634]",
    "lat": 38.72837699999999,
    "lng": 139.8209634,
    "isClosed": ""
  },
  {
    "id": "yamagata-museum-5",
    "type": "museum",
    "name": "出羽三山歴史博物館",
    "prefecture": "山形県",
    "postCode": "997-0211",
    "address": "山形県鶴岡市羽黒町手向羽黒山33",
    "city": "つるおか",
    "image": "",
    "url": "http://www.dewasanzan.jp/publics/index/14/",
    "latlng": "[38.7016185, 139.9831439]",
    "lat": 38.7016185,
    "lng": 139.9831439,
    "isClosed": ""
  },
  {
    "id": "yamagata-museum-6",
    "type": "museum",
    "name": "掬粋巧芸館",
    "prefecture": "山形県",
    "postCode": "999-0122",
    "address": "山形県東置賜郡川西町中小松2886",
    "city": "かわにし",
    "image": "",
    "url": "http://www.taruhei.co.jp/MuseumFolder/",
    "latlng": "[38.0137926, 140.0496656]",
    "lat": 38.0137926,
    "lng": 140.0496656,
    "isClosed": ""
  },
  {
    "id": "yamagata-museum-7",
    "type": "museum",
    "name": "山形県立博物館",
    "prefecture": "山形県",
    "postCode": "990-0826",
    "address": "山形県山形市霞城町1−8",
    "city": "やまがた",
    "image": "/img/yamagata/museum/yamagataken-ritsu-hakubutsukan.jpg",
    "url": "https://www.yamagata-museum.jp/",
    "latlng": "[38.2543825, 140.3296455]",
    "lat": 38.2543825,
    "lng": 140.3296455,
    "isClosed": ""
  },
  {
    "id": "yamagata-museum-8",
    "type": "museum",
    "name": "上杉神社稽照殿",
    "prefecture": "山形県",
    "postCode": "992-0052",
    "address": "山形県米沢市丸の内1丁目4−13",
    "city": "よねざわ",
    "image": "/img/yamagata/museum/uesugi-jinja-keishou-dono.jpg",
    "url": "https://www.uesugi-jinja.or.jp/keishoden/",
    "latlng": "[37.90929490000001, 140.1052245]",
    "lat": 37.90929490000001,
    "lng": 140.1052245,
    "isClosed": ""
  },
  {
    "id": "yamagata-museum-9",
    "type": "museum",
    "name": "宮坂考古館",
    "prefecture": "山形県",
    "postCode": "992-0026",
    "address": "山形県米沢市東1丁目2−24",
    "city": "よねざわ",
    "image": "/img/yamagata/museum/miyasaka-kouko-kan.jpg",
    "url": "http://www.miyasakakoukokan.com/",
    "latlng": "[37.9056026, 140.1270617]",
    "lat": 37.9056026,
    "lng": 140.1270617,
    "isClosed": ""
  },
  {
    "id": "yamagata-museum-10",
    "type": "museum",
    "name": "米沢市上杉博物館",
    "prefecture": "山形県",
    "postCode": "992-0052",
    "address": "山形県米沢市丸の内1丁目2−1",
    "city": "よねざわ",
    "image": "/img/yamagata/museum/yonezawashi-uesugi-hakubutsukan.jpg",
    "url": "https://www.denkoku-no-mori.yonezawa.yamagata.jp/uesugi.htm",
    "latlng": "[37.9078276, 140.1066947]",
    "lat": 37.9078276,
    "lng": 140.1066947,
    "isClosed": ""
  },
  {
    "id": "yamagata-museum-11",
    "type": "museum",
    "name": "最上義光歴史館",
    "prefecture": "山形県",
    "postCode": "990-0046",
    "address": "山形県山形市大手町1−53",
    "city": "やまがた",
    "image": "/img/yamagata/museum/mogamiyoshimitsu-rekishikan.jpg",
    "url": "http://mogamiyoshiaki.jp/",
    "latlng": "[38.2551243, 140.3334601]",
    "lat": 38.2551243,
    "lng": 140.3334601,
    "isClosed": ""
  },
  {
    "id": "yamagata-museum-12",
    "type": "museum",
    "name": "山形市野草園",
    "prefecture": "山形県",
    "postCode": "990-2406",
    "address": "山形県山形市神尾832−3 山形市野草園",
    "city": "やまがた",
    "image": "/img/yamagata/museum/yamagatashi-yasouen.jpg",
    "url": "https://www.yasouen.jp/",
    "latlng": "[38.1890123, 140.3578702]",
    "lat": 38.1890123,
    "lng": 140.3578702,
    "isClosed": ""
  },
  {
    "id": "yamagata-museum-13",
    "type": "museum",
    "name": "山形大学附属博物館",
    "prefecture": "山形県",
    "postCode": "990-0021",
    "address": "山形県山形市小白川町1丁目4−12 人文学部1号館",
    "city": "やまがた",
    "image": "",
    "url": "http://museum.yamagata-u.ac.jp/",
    "latlng": "[38.246877, 140.3485897]",
    "lat": 38.246877,
    "lng": 140.3485897,
    "isClosed": ""
  },
  {
    "id": "yamagata-museum-14",
    "type": "museum",
    "name": "山寺芭蕉記念館",
    "prefecture": "山形県",
    "postCode": "999-3301",
    "address": "山形県山形市山寺4223",
    "city": "やまがた",
    "image": "/img/yamagata/museum/yamadera-bashou-kinenkan.jpg",
    "url": "http://samidare.jp/basho/",
    "latlng": "[38.3095301, 140.4392018]",
    "lat": 38.3095301,
    "lng": 140.4392018,
    "isClosed": ""
  },
  {
    "id": "yamagata-museum-15",
    "type": "museum",
    "name": "西川町大井沢自然博物館・自然と匠の伝承館",
    "prefecture": "山形県",
    "postCode": "990-0721",
    "address": "山形県西川町大井沢4110",
    "city": "にしかわ",
    "image": "",
    "url": "http://oohaku.town.nishikawa.yamagata.jp/",
    "latlng": "[38.3866166, 139.9929585]",
    "lat": 38.3866166,
    "lng": 139.9929585,
    "isClosed": ""
  },
  {
    "id": "yamagata-museum-16",
    "type": "museum",
    "name": "農村文化研究所附設置賜民俗資料館",
    "prefecture": "山形県",
    "postCode": "992-0093",
    "address": "山形県米沢市六郷町西藤泉71",
    "city": "よねざわ",
    "image": "",
    "url": "",
    "latlng": "[37.9445926, 140.0950087]",
    "lat": 37.9445926,
    "lng": 140.0950087,
    "isClosed": ""
  },
  {
    "id": "yamagata-museum-17",
    "type": "museum",
    "name": "遊佐薬用植物園",
    "prefecture": "山形県",
    "postCode": "999-8300",
    "address": "山形県遊佐町杉沢字嶽ノ腰530",
    "city": "ゆざ",
    "image": "",
    "url": "",
    "latlng": "[39.0193945, 139.9873119]",
    "lat": 39.0193945,
    "lng": 139.9873119,
    "isClosed": ""
  },
  {
    "id": "yamagata-museum-18",
    "type": "museum",
    "name": "酒田市立資料館",
    "prefecture": "山形県",
    "postCode": "998-0046",
    "address": "山形県酒田市一番町8－16",
    "city": "さかた",
    "image": "",
    "url": "http://www.city.sakata.lg.jp/bunka/bunkazai/bunkazaishisetsu/siryoukan/sakatashi_shiryoukan.html",
    "latlng": "[38.9152174, 139.8417386]",
    "lat": 38.9152174,
    "lng": 139.8417386,
    "isClosed": ""
  },
  {
    "id": "yamagata-museum-19",
    "type": "museum",
    "name": "酒造資料館東光の酒蔵",
    "prefecture": "山形県",
    "postCode": "992-0031",
    "address": "山形県米沢市大町2－3－22",
    "city": "よねざわ",
    "image": "",
    "url": "",
    "latlng": "[37.9056891, 140.1121255]",
    "lat": 37.9056891,
    "lng": 140.1121255,
    "isClosed": ""
  },
  {
    "id": "yamagata-museum-20",
    "type": "museum",
    "name": "長井市古代の丘資料館",
    "prefecture": "山形県",
    "postCode": "993-0063",
    "address": "山形県長井市草岡2768－1",
    "city": "ながい",
    "image": "",
    "url": "",
    "latlng": "[38.1373894, 140.0001572]",
    "lat": 38.1373894,
    "lng": 140.0001572,
    "isClosed": ""
  },
  {
    "id": "yamagata-museum-21",
    "type": "museum",
    "name": "阿部記念館",
    "prefecture": "山形県",
    "postCode": "999-6821",
    "address": "山形県酒田市山寺宅地179-1",
    "city": "さかた",
    "image": "",
    "url": "",
    "latlng": "[38.849822, 139.9612741]",
    "lat": 38.849822,
    "lng": 139.9612741,
    "isClosed": ""
  },
  {
    "id": "yamagata-museum-22",
    "type": "museum",
    "name": "陸上自衛隊神町駐屯地史料館",
    "prefecture": "山形県",
    "postCode": "999-3765",
    "address": "山形県東根市神町南3－1－1 陸上自衛隊神町駐屯地",
    "city": "ひがしね",
    "image": "",
    "url": "",
    "latlng": "[38.4045281, 140.3960112]",
    "lat": 38.4045281,
    "lng": 140.3960112,
    "isClosed": ""
  },
  {
    "id": "yamagata-museum-23",
    "type": "museum",
    "name": "雪の里情報館",
    "prefecture": "山形県",
    "postCode": "996-0086",
    "address": "山形県新庄市石川町4-15",
    "city": "しんじょう",
    "image": "",
    "url": "http://www.city.shinjo.yamagata.jp/1636.html",
    "latlng": "[38.7708818, 140.2972245]",
    "lat": 38.7708818,
    "lng": 140.2972245,
    "isClosed": ""
  },
  {
    "id": "yamagata-museum-24",
    "type": "museum",
    "name": "高畠町郷土資料館",
    "prefecture": "山形県",
    "postCode": "992-0351",
    "address": "山形県高畠町安久津2011",
    "city": "たかはた",
    "image": "",
    "url": "",
    "latlng": "[38.0079496, 140.2197323]",
    "lat": 38.0079496,
    "lng": 140.2197323,
    "isClosed": ""
  },
  {
    "id": "yamagata-museum-25",
    "type": "museum",
    "name": "鳥海自然文化館「遊楽里」",
    "prefecture": "山形県",
    "postCode": "999-8521",
    "address": "山形県遊佐町吹浦西浜2－76",
    "city": "ゆざ",
    "image": "",
    "url": "",
    "latlng": "[39.0666959, 139.874333]",
    "lat": 39.0666959,
    "lng": 139.874333,
    "isClosed": ""
  },
  {
    "id": "yamagata-museum-26",
    "type": "museum",
    "name": "鶴岡市中央公民館・鶴岡市視聴覚センター",
    "prefecture": "山形県",
    "postCode": "997-0046",
    "address": "山形県鶴岡市みどり町22－1",
    "city": "つるおか",
    "image": "",
    "url": "",
    "latlng": "[38.7320531, 139.8084363]",
    "lat": 38.7320531,
    "lng": 139.8084363,
    "isClosed": ""
  },
  {
    "id": "yamagata-museum-27",
    "type": "museum",
    "name": "鶴岡市水道資料館",
    "prefecture": "山形県",
    "postCode": "997-0806",
    "address": "山形県鶴岡市遠賀原高間々185－1",
    "city": "つるおか",
    "image": "",
    "url": "",
    "latlng": "[38.7100854, 139.838967]",
    "lat": 38.7100854,
    "lng": 139.838967,
    "isClosed": ""
  },
  {
    "id": "yamagata-museum-28",
    "type": "museum",
    "name": "鶴岡市郷土資料館 （鶴岡市立図書館2F）",
    "prefecture": "山形県",
    "postCode": "997-0036",
    "address": "山形県鶴岡市家中新町14-7",
    "city": "つるおか",
    "image": "",
    "url": "http://lib.city.tsuruoka.yamagata.jp/",
    "latlng": "[38.72807239999999, 139.8187583]",
    "lat": 38.72807239999999,
    "lng": 139.8187583,
    "isClosed": ""
  },
  {
    "id": "yamagata-museum-29",
    "type": "museum",
    "name": "﻿森敦文庫",
    "prefecture": "山形県",
    "postCode": "997-0531",
    "address": "山形県鶴岡市大網 注連寺境内",
    "city": "つるおか",
    "image": "",
    "url": "",
    "latlng": "[38.6025901, 139.8871439]",
    "lat": 38.6025901,
    "lng": 139.8871439,
    "isClosed": ""
  },
  {
    "id": "yamagata-museum-30",
    "type": "museum",
    "name": "河北町紅花資料館",
    "prefecture": "山形県",
    "postCode": "999-3511",
    "address": "山形県河北町谷地戊1143",
    "city": "かほく",
    "image": "",
    "url": "",
    "latlng": "[38.4382761, 140.2997237]",
    "lat": 38.4382761,
    "lng": 140.2997237,
    "isClosed": ""
  },
  {
    "id": "yamagata-museum-31",
    "type": "museum",
    "name": "文教の杜　丸大扇屋・長沼孝三彫塑館",
    "prefecture": "山形県",
    "postCode": "993-0086",
    "address": "山形県長井市十日町1-11-7",
    "city": "ながい",
    "image": "",
    "url": "",
    "latlng": "[38.112084, 140.0361224]",
    "lat": 38.112084,
    "lng": 140.0361224,
    "isClosed": ""
  },
  {
    "id": "yamagata-museum-32",
    "type": "museum",
    "name": "新庄ふるさと歴史センター",
    "prefecture": "山形県",
    "postCode": "996-0085",
    "address": "山形県新庄市堀端町4－74",
    "city": "しんじょう",
    "image": "",
    "url": "",
    "latlng": "[38.7669974, 140.296577]",
    "lat": 38.7669974,
    "lng": 140.296577,
    "isClosed": ""
  },
  {
    "id": "yamagata-museum-33",
    "type": "museum",
    "name": "明円寺尚古館",
    "prefecture": "山形県",
    "postCode": "990-2355",
    "address": "山形県山形市二位田8",
    "city": "やまがた",
    "image": "",
    "url": "",
    "latlng": "[38.2217971, 140.2856404]",
    "lat": 38.2217971,
    "lng": 140.2856404,
    "isClosed": ""
  },
  {
    "id": "yamagata-museum-34",
    "type": "museum",
    "name": "昭和ミニ資料館",
    "prefecture": "山形県",
    "postCode": "992-0351",
    "address": "山形県高畠町高畠幸町1－612",
    "city": "たかはた",
    "image": "",
    "url": "",
    "latlng": "[38.0073122, 140.1948494]",
    "lat": 38.0073122,
    "lng": 140.1948494,
    "isClosed": ""
  },
  {
    "id": "yamagata-museum-35",
    "type": "museum",
    "name": "最上地区広域市町村圏事務組合教育センター",
    "prefecture": "山形県",
    "postCode": "996-0001",
    "address": "山形県新庄市五日町横内525－3",
    "city": "しんじょう",
    "image": "",
    "url": "",
    "latlng": "[38.7818563, 140.3387414]",
    "lat": 38.7818563,
    "lng": 140.3387414,
    "isClosed": ""
  },
  {
    "id": "yamagata-museum-36",
    "type": "museum",
    "name": "最上広域交流センター（ゆめりあ）",
    "prefecture": "山形県",
    "postCode": "996-0024",
    "address": "山形県新庄市多門町1－2",
    "city": "しんじょう",
    "image": "",
    "url": "",
    "latlng": "[38.764803, 140.3054323]",
    "lat": 38.764803,
    "lng": 140.3054323,
    "isClosed": ""
  },
  {
    "id": "yamagata-museum-37",
    "type": "museum",
    "name": "最上徳内記念館",
    "prefecture": "山形県",
    "postCode": "995-0035",
    "address": "山形県村山市中央1－2－12",
    "city": "むらやま",
    "image": "",
    "url": "",
    "latlng": "[38.4828761, 140.3820204]",
    "lat": 38.4828761,
    "lng": 140.3820204,
    "isClosed": ""
  },
  {
    "id": "yamagata-museum-38",
    "type": "museum",
    "name": "月山あさひ博物村アマゾン自然館・文化創造館",
    "prefecture": "山形県",
    "postCode": "997-0403",
    "address": "山形県鶴岡市越中山名平3－1",
    "city": "つるおか",
    "image": "",
    "url": "",
    "latlng": "[38.5879208, 139.8744239]",
    "lat": 38.5879208,
    "lng": 139.8744239,
    "isClosed": ""
  },
  {
    "id": "yamagata-museum-39",
    "type": "museum",
    "name": "月山湖水の文化館",
    "prefecture": "山形県",
    "postCode": "990-0732",
    "address": "山形県西川町砂子関158－130",
    "city": "にしかわ",
    "image": "",
    "url": "",
    "latlng": "[38.4560531, 140.0295084]",
    "lat": 38.4560531,
    "lng": 140.0295084,
    "isClosed": ""
  },
  {
    "id": "yamagata-museum-40",
    "type": "museum",
    "name": "朝日町エコミュージアム コアセンター創遊館",
    "prefecture": "山形県",
    "postCode": "990-1442",
    "address": "山形県鶴岡市宮宿2265",
    "city": "つるおか",
    "image": "",
    "url": "",
    "latlng": "[38.2983315, 140.1459227]",
    "lat": 38.2983315,
    "lng": 140.1459227,
    "isClosed": ""
  },
  {
    "id": "yamagata-museum-41",
    "type": "museum",
    "name": "東田川文化記念館",
    "prefecture": "山形県",
    "postCode": "999-7601",
    "address": "山形県鶴岡市藤島山ノ前99",
    "city": "つるおか",
    "image": "",
    "url": "",
    "latlng": "[38.76608969999999, 139.9024421]",
    "lat": 38.76608969999999,
    "lng": 139.9024421,
    "isClosed": ""
  },
  {
    "id": "yamagata-museum-42",
    "type": "museum",
    "name": "松山文化伝承館",
    "prefecture": "山形県",
    "postCode": "999-6832",
    "address": "山形県酒田市新屋敷36-2",
    "city": "さかた",
    "image": "",
    "url": "",
    "latlng": "[38.8599487, 139.95826]",
    "lat": 38.8599487,
    "lng": 139.95826,
    "isClosed": ""
  },
  {
    "id": "yamagata-museum-43",
    "type": "museum",
    "name": "松岡開墾記念館",
    "prefecture": "山形県",
    "postCode": "997-0152",
    "address": "山形県鶴岡市羽黒町猪俣新田松ヶ岡29",
    "city": "つるおか",
    "image": "",
    "url": "",
    "latlng": "[38.700385, 139.888009]",
    "lat": 38.700385,
    "lng": 139.888009,
    "isClosed": ""
  },
  {
    "id": "yamagata-museum-44",
    "type": "museum",
    "name": "格知学舎",
    "prefecture": "山形県",
    "postCode": "994-0022",
    "address": "山形県天童市貫津72",
    "city": "てんどう",
    "image": "",
    "url": "",
    "latlng": "[38.3439256, 140.4098439]",
    "lat": 38.3439256,
    "lng": 140.4098439,
    "isClosed": ""
  },
  {
    "id": "yamagata-museum-45",
    "type": "museum",
    "name": "山形県朝日少年自然の家",
    "prefecture": "山形県",
    "postCode": "990-1101",
    "address": "山形県大江町左沢楯山2523－5",
    "city": "おおえ",
    "image": "",
    "url": "",
    "latlng": "[38.386768, 140.213632]",
    "lat": 38.386768,
    "lng": 140.213632,
    "isClosed": ""
  },
  {
    "id": "yamagata-museum-46",
    "type": "museum",
    "name": "山形県産業科学館",
    "prefecture": "山形県",
    "postCode": "990-8580",
    "address": "山形県山形市城南町1-1-1 霞城セントラル内",
    "city": "やまがた",
    "image": "",
    "url": "http://y-sunka.org/",
    "latlng": "[38.2500132, 140.3268363]",
    "lat": 38.2500132,
    "lng": 140.3268363,
    "isClosed": ""
  },
  {
    "id": "yamagata-museum-47",
    "type": "museum",
    "name": "山形県県民の森　森林学習展示館",
    "prefecture": "山形県",
    "postCode": "990-0361",
    "address": "山形県山辺町畑谷1933－42",
    "city": "やまのべ",
    "image": "",
    "url": "",
    "latlng": "[38.2377186, 140.2015575]",
    "lat": 38.2377186,
    "lng": 140.2015575,
    "isClosed": ""
  },
  {
    "id": "yamagata-museum-48",
    "type": "museum",
    "name": "山形県立うきたむ風土記の丘考古資料館",
    "prefecture": "山形県",
    "postCode": "992-0302",
    "address": "山形県高畠町安久津2117",
    "city": "たかはた",
    "image": "",
    "url": "http://ukitamu.pupu.jp/",
    "latlng": "[38.0079688, 140.2145274]",
    "lat": 38.0079688,
    "lng": 140.2145274,
    "isClosed": ""
  },
  {
    "id": "yamagata-museum-49",
    "type": "museum",
    "name": "山形県立博物館教育資料館",
    "prefecture": "山形県",
    "postCode": "990-0041",
    "address": "山形県山形市緑町2-2-8",
    "city": "やまがた",
    "image": "",
    "url": "http://www.yamagata-museum.jp/education-museum/",
    "latlng": "[38.2543044, 140.3484067]",
    "lat": 38.2543044,
    "lng": 140.3484067,
    "isClosed": ""
  },
  {
    "id": "yamagata-museum-50",
    "type": "museum",
    "name": "山形県立自然博物園",
    "prefecture": "山形県",
    "postCode": "990-0700",
    "address": "山形県西川町姥ヶ岳159",
    "city": "にしかわ",
    "image": "",
    "url": "http://gassan-bunarin.jp/",
    "latlng": "[38.5363159, 140.0059064]",
    "lat": 38.5363159,
    "lng": 140.0059064,
    "isClosed": ""
  },
  {
    "id": "yamagata-museum-51",
    "type": "museum",
    "name": "山形県緑化センター",
    "prefecture": "山形県",
    "postCode": "990-2363",
    "address": "山形県山形市長谷堂馬場2265",
    "city": "やまがた",
    "image": "",
    "url": "",
    "latlng": "[38.2019342, 140.2636613]",
    "lat": 38.2019342,
    "lng": 140.2636613,
    "isClosed": ""
  },
  {
    "id": "yamagata-museum-52",
    "type": "museum",
    "name": "山形県郷土館（文翔館）",
    "prefecture": "山形県",
    "postCode": "990-0047",
    "address": "山形県山形市旅篭町3－4－51",
    "city": "やまがた",
    "image": "",
    "url": "",
    "latlng": "[38.2567546, 140.3412396]",
    "lat": 38.2567546,
    "lng": 140.3412396,
    "isClosed": ""
  },
  {
    "id": "yamagata-museum-53",
    "type": "museum",
    "name": "山形県酒田海洋センター",
    "prefecture": "山形県",
    "postCode": "998-0036",
    "address": "山形県酒田市船場町2－5－15",
    "city": "さかた",
    "image": "",
    "url": "",
    "latlng": "[38.914545, 139.8295278]",
    "lat": 38.914545,
    "lng": 139.8295278,
    "isClosed": ""
  },
  {
    "id": "yamagata-museum-54",
    "type": "museum",
    "name": "山形県防災学習館",
    "prefecture": "山形県",
    "postCode": "997-1301",
    "address": "山形県三川町横山堤27-1",
    "city": "みかわ",
    "image": "",
    "url": "",
    "latlng": "[38.7871247, 139.8485704]",
    "lat": 38.7871247,
    "lng": 139.8485704,
    "isClosed": ""
  },
  {
    "id": "yamagata-museum-55",
    "type": "museum",
    "name": "山形謄写印刷資料館（山形ガリ版資料館）",
    "prefecture": "山形県",
    "postCode": "990-0051",
    "address": "山形県山形市銅町1－1－5 中央印刷株式会社内",
    "city": "やまがた",
    "image": "",
    "url": "http://chuo-printing.co.jp/gariban/",
    "latlng": "[38.273103, 140.3364196]",
    "lat": 38.273103,
    "lng": 140.3364196,
    "isClosed": ""
  },
  {
    "id": "yamagata-museum-56",
    "type": "museum",
    "name": "山辺町ふるさと資料館",
    "prefecture": "山形県",
    "postCode": "990-0301",
    "address": "山形県山辺町山辺208－1",
    "city": "やまのべ",
    "image": "",
    "url": "",
    "latlng": "[38.2935232, 140.2687834]",
    "lat": 38.2935232,
    "lng": 140.2687834,
    "isClosed": ""
  },
  {
    "id": "yamagata-museum-57",
    "type": "museum",
    "name": "庄内町亀ノ尾の里資料館",
    "prefecture": "山形県",
    "postCode": "999-7727",
    "address": "山形県庄内町南野十八軒21-1",
    "city": "しょうない",
    "image": "",
    "url": "",
    "latlng": "[38.8103173, 139.9404315]",
    "lat": 38.8103173,
    "lng": 139.9404315,
    "isClosed": ""
  },
  {
    "id": "yamagata-museum-58",
    "type": "museum",
    "name": "庄内町内藤秀因水彩画記念館",
    "prefecture": "山形県",
    "postCode": "999-7781",
    "address": "山形県庄内町余目三人谷地58-1",
    "city": "しょうない",
    "image": "",
    "url": "",
    "latlng": "[38.8487065, 139.9044784]",
    "lat": 38.8487065,
    "lng": 139.9044784,
    "isClosed": ""
  },
  {
    "id": "yamagata-museum-59",
    "type": "museum",
    "name": "庄内町歴史民俗資料館",
    "prefecture": "山形県",
    "postCode": "999-6601",
    "address": "山形県庄内町狩川笠山390",
    "city": "しょうない",
    "image": "",
    "url": "",
    "latlng": "[38.7878019, 139.9755134]",
    "lat": 38.7878019,
    "lng": 139.9755134,
    "isClosed": ""
  },
  {
    "id": "yamagata-museum-60",
    "type": "museum",
    "name": "庄内米歴史資料館",
    "prefecture": "山形県",
    "postCode": "998-0838",
    "address": "山形県酒田市山居町1－1－8",
    "city": "さかた",
    "image": "",
    "url": "",
    "latlng": "[38.9122558, 139.8365537]",
    "lat": 38.9122558,
    "lng": 139.8365537,
    "isClosed": ""
  },
  {
    "id": "yamagata-museum-61",
    "type": "museum",
    "name": "﻿古澤酒造資料館",
    "prefecture": "山形県",
    "postCode": "991-0000",
    "address": "山形県寒河江市丸の内3－5－7",
    "city": "さがえ",
    "image": "",
    "url": "",
    "latlng": "[38.3765799, 140.2826456]",
    "lat": 38.3765799,
    "lng": 140.2826456,
    "isClosed": ""
  },
  {
    "id": "yamagata-museum-62",
    "type": "museum",
    "name": "国指定史跡　旧鐙屋",
    "prefecture": "山形県",
    "postCode": "998-0044",
    "address": "山形県酒田市中町1－14－20",
    "city": "さかた",
    "image": "",
    "url": "",
    "latlng": "[38.9154477, 139.8372598]",
    "lat": 38.9154477,
    "lng": 139.8372598,
    "isClosed": ""
  },
  {
    "id": "yamagata-museum-63",
    "type": "museum",
    "name": "國井誠海記念館",
    "prefecture": "山形県",
    "postCode": "990-0834",
    "address": "山形県山形市清住町2-7-41",
    "city": "やまがた",
    "image": "",
    "url": "http://www.seishin-sha.co.jp/",
    "latlng": "[38.2580789, 140.3130155]",
    "lat": 38.2580789,
    "lng": 140.3130155,
    "isClosed": ""
  },
  {
    "id": "yamagata-museum-64",
    "type": "museum",
    "name": "土門拳記念館",
    "prefecture": "山形県",
    "postCode": "998-0055",
    "address": "山形県酒田市飯森山2-13 飯森山公園内",
    "city": "さかた",
    "image": "",
    "url": "http://www.domonken-kinenkan.jp/",
    "latlng": "[38.8916134, 139.8232019]",
    "lat": 38.8916134,
    "lng": 139.8232019,
    "isClosed": ""
  },
  {
    "id": "yamagata-museum-65",
    "type": "museum",
    "name": "夕鶴の里資料館",
    "prefecture": "山形県",
    "postCode": "992-0474",
    "address": "山形県南陽市漆山2025－2",
    "city": "なんよう",
    "image": "",
    "url": "",
    "latlng": "[38.0709298, 140.1211291]",
    "lat": 38.0709298,
    "lng": 140.1211291,
    "isClosed": ""
  },
  {
    "id": "yamagata-museum-66",
    "type": "museum",
    "name": "大宝館",
    "prefecture": "山形県",
    "postCode": "997-0035",
    "address": "山形県鶴岡市馬場町4－7",
    "city": "つるおか",
    "image": "",
    "url": "",
    "latlng": "[38.7275316, 139.8249813]",
    "lat": 38.7275316,
    "lng": 139.8249813,
    "isClosed": ""
  },
  {
    "id": "yamagata-museum-67",
    "type": "museum",
    "name": "大江町歴史民俗資料館",
    "prefecture": "山形県",
    "postCode": "990-1163",
    "address": "山形県大江町本郷丁373－1",
    "city": "おおえ",
    "image": "",
    "url": "",
    "latlng": "[38.3798365, 140.1960275]",
    "lat": 38.3798365,
    "lng": 140.1960275,
    "isClosed": ""
  },
  {
    "id": "yamagata-museum-68",
    "type": "museum",
    "name": "大石田町立歴史民俗資料館",
    "prefecture": "山形県",
    "postCode": "999-4111",
    "address": "山形県大石田町大石田37－6",
    "city": "おおいしだ",
    "image": "",
    "url": "",
    "latlng": "[38.5884588, 140.3727451]",
    "lat": 38.5884588,
    "lng": 140.3727451,
    "isClosed": ""
  },
  {
    "id": "yamagata-museum-69",
    "type": "museum",
    "name": "天童市将棋資料館",
    "prefecture": "山形県",
    "postCode": "994-0034",
    "address": "山形県天童市本町1-1-1",
    "city": "てんどう",
    "image": "",
    "url": "",
    "latlng": "[38.3600545, 140.3695944]",
    "lat": 38.3600545,
    "lng": 140.3695944,
    "isClosed": ""
  },
  {
    "id": "yamagata-museum-70",
    "type": "museum",
    "name": "天童市立旧東村山郡役所資料館",
    "prefecture": "山形県",
    "postCode": "994-0041",
    "address": "山形県天童市五日町2-4-8",
    "city": "てんどう",
    "image": "",
    "url": "http://www.city.tendo.yamagata.jp/tourism/kanko/gunnyakusyo.html",
    "latlng": "[38.35314950000001, 140.3724687]",
    "lat": 38.35314950000001,
    "lng": 140.3724687,
    "isClosed": ""
  },
  {
    "id": "yamagata-museum-71",
    "type": "museum",
    "name": "天童民芸館",
    "prefecture": "山形県",
    "postCode": "994-0031",
    "address": "山形県天童市天童中2－3－10",
    "city": "てんどう",
    "image": "",
    "url": "",
    "latlng": "[38.3564291, 140.3784649]",
    "lat": 38.3564291,
    "lng": 140.3784649,
    "isClosed": ""
  },
  {
    "id": "yamagata-museum-72",
    "type": "museum",
    "name": "寒河江市チェリーランド　さくらんぼ会館",
    "prefecture": "山形県",
    "postCode": "990-0523",
    "address": "山形県寒河江市八鍬川原919－6",
    "city": "さがえ",
    "image": "",
    "url": "",
    "latlng": "[38.4000791, 140.2574974]",
    "lat": 38.4000791,
    "lng": 140.2574974,
    "isClosed": ""
  },
  {
    "id": "yamagata-museum-73",
    "type": "museum",
    "name": "寒河江市郷土館",
    "prefecture": "山形県",
    "postCode": "991-0041",
    "address": "山形県寒河江市寒河江長岡丙2707",
    "city": "さがえ",
    "image": "",
    "url": "",
    "latlng": "[38.38444459999999, 140.2681978]",
    "lat": 38.38444459999999,
    "lng": 140.2681978,
    "isClosed": ""
  },
  {
    "id": "yamagata-museum-74",
    "type": "museum",
    "name": "尾花沢市　芭蕉・清風歴史資料館",
    "prefecture": "山形県",
    "postCode": "999-4227",
    "address": "山形県尾花沢市中町5-36",
    "city": "おばなざわ",
    "image": "",
    "url": "http://www.city.obanazawa.yamagata.jp/2251.html",
    "latlng": "[38.6063712, 140.4043992]",
    "lat": 38.6063712,
    "lng": 140.4043992,
    "isClosed": ""
  },
  {
    "id": "yamagata-museum-75",
    "type": "museum",
    "name": "山形市産業歴史資料館",
    "prefecture": "山形県",
    "postCode": "990-2351",
    "address": "山形県山形市鋳物町10番地",
    "city": "やまがた",
    "image": "",
    "url": "http://www.city.yamagata-yamagata.lg.jp/shisetsu/sangyo/sangyo/428cdsanrekishi.html",
    "latlng": "[38.2305547, 140.2895253]",
    "lat": 38.2305547,
    "lng": 140.2895253,
    "isClosed": ""
  },
  {
    "id": "yamagata-museum-76",
    "type": "museum",
    "name": "山形市郷土館",
    "prefecture": "山形県",
    "postCode": "990-0826",
    "address": "山形県山形市霞城町1-1",
    "city": "やまがた",
    "image": "",
    "url": "http://www.city.yamagata-yamagata.lg.jp/shisetsu/kankou/kankou/8e805kyoudokan.html",
    "latlng": "[38.255885, 140.3301159]",
    "lat": 38.255885,
    "lng": 140.3301159,
    "isClosed": ""
  },
  {
    "id": "yamagata-museum-77",
    "type": "museum",
    "name": "﻿いでは文化記念館",
    "prefecture": "山形県",
    "postCode": "997-0211",
    "address": "山形県鶴岡市羽黒町手向院主南72",
    "city": "つるおか",
    "image": "",
    "url": "http://www.tsuruokakanko.com/cate/p0071.html",
    "latlng": "[38.7041702, 139.9648024]",
    "lat": 38.7041702,
    "lng": 139.9648024,
    "isClosed": ""
  },
  {
    "id": "yamagata-museum-78",
    "type": "museum",
    "name": "ギャラリー青木書道教室",
    "prefecture": "山形県",
    "postCode": "993-0072",
    "address": "山形県長井市五十川1003－1",
    "city": "ながい",
    "image": "",
    "url": "",
    "latlng": "[38.1370797, 140.0408525]",
    "lat": 38.1370797,
    "lng": 140.0408525,
    "isClosed": ""
  },
  {
    "id": "yamagata-museum-79",
    "type": "museum",
    "name": "バラ交流館",
    "prefecture": "山形県",
    "postCode": "995-0023",
    "address": "山形県村山市楯岡東沢2-16",
    "city": "むらやま",
    "image": "",
    "url": "http://www.city.murayama.yamagata.jp/",
    "latlng": "[38.4830519, 140.4044686]",
    "lat": 38.4830519,
    "lng": 140.4044686,
    "isClosed": ""
  },
  {
    "id": "yamagata-museum-80",
    "type": "museum",
    "name": "ふるさと味来館",
    "prefecture": "山形県",
    "postCode": "996-0301",
    "address": "山形県大蔵村南山967－9",
    "city": "おおくら",
    "image": "",
    "url": "",
    "latlng": "[38.6242085, 140.2182965]",
    "lat": 38.6242085,
    "lng": 140.2182965,
    "isClosed": ""
  },
  {
    "id": "yamagata-museum-81",
    "type": "museum",
    "name": "モモカミの里　高麗館",
    "prefecture": "山形県",
    "postCode": "999-6402",
    "address": "山形県戸沢村蔵岡3008-1",
    "city": "とざわ",
    "image": "",
    "url": "",
    "latlng": "[38.7281148, 140.1615967]",
    "lat": 38.7281148,
    "lng": 140.1615967,
    "isClosed": ""
  },
  {
    "id": "yamagata-museum-82",
    "type": "museum",
    "name": "よねざわ市民ギャラリー",
    "prefecture": "山形県",
    "postCode": "992-0045",
    "address": "山形県米沢市中央1-10-6",
    "city": "よねざわ",
    "image": "",
    "url": "https://www.library.yonezawa.yamagata.jp/naseba/gallery/",
    "latlng": "[37.912767, 140.1104418]",
    "lat": 37.912767,
    "lng": 140.1104418,
    "isClosed": ""
  },
  {
    "id": "yamagata-museum-83",
    "type": "museum",
    "name": "よねざわ昆虫館",
    "prefecture": "山形県",
    "postCode": "992-0077",
    "address": "山形県米沢市簗沢1776‐1",
    "city": "よねざわ",
    "image": "",
    "url": "http://samidare.jp/koncyu/",
    "latlng": "[37.887572, 140.0492594]",
    "lat": 37.887572,
    "lng": 140.0492594,
    "isClosed": ""
  },
  {
    "id": "yamagata-museum-84",
    "type": "museum",
    "name": "上山市立上山城",
    "prefecture": "山形県",
    "postCode": "999-3154",
    "address": "山形県上山市元城内3-7",
    "city": "かみのやま",
    "image": "",
    "url": "",
    "latlng": "[38.1580199, 140.2772861]",
    "lat": 38.1580199,
    "lng": 140.2772861,
    "isClosed": ""
  },
  {
    "id": "yamagata-museum-85",
    "type": "museum",
    "name": "中山町立歴史民俗資料館",
    "prefecture": "山形県",
    "postCode": "990-0401",
    "address": "山形県中山町長崎6005",
    "city": "なかやま",
    "image": "",
    "url": "",
    "latlng": "[38.337039, 140.2758594]",
    "lat": 38.337039,
    "lng": 140.2758594,
    "isClosed": ""
  },
  {
    "id": "yamagata-museum-86",
    "type": "museum",
    "name": "丸山薫記念館",
    "prefecture": "山形県",
    "postCode": "990-0743",
    "address": "山形県西川町岩根沢454－15",
    "city": "にしかわ",
    "image": "",
    "url": "",
    "latlng": "[38.4544267, 140.1025391]",
    "lat": 38.4544267,
    "lng": 140.1025391,
    "isClosed": ""
  },
  {
    "id": "yamagata-museum-87",
    "type": "museum",
    "name": "出羽ノ雪酒造資料館",
    "prefecture": "山形県",
    "postCode": "997-1124",
    "address": "山形県鶴岡市大山2－2－8",
    "city": "つるおか",
    "image": "",
    "url": "",
    "latlng": "[38.7479329, 139.7682498]",
    "lat": 38.7479329,
    "lng": 139.7682498,
    "isClosed": ""
  },
  {
    "id": "yamagata-museum-88",
    "type": "museum",
    "name": "北村山視聴覚教育センター",
    "prefecture": "山形県",
    "postCode": "995-0035",
    "address": "山形県村山市中央1－3－6",
    "city": "むらやま",
    "image": "",
    "url": "",
    "latlng": "[38.4837765, 140.3812692]",
    "lat": 38.4837765,
    "lng": 140.3812692,
    "isClosed": ""
  },
  {
    "id": "yamagata-museum-89",
    "type": "museum",
    "name": "南陽市立結城豊太郎記念館",
    "prefecture": "山形県",
    "postCode": "999-2211",
    "address": "山形県南陽市赤湯362",
    "city": "なんよう",
    "image": "",
    "url": "",
    "latlng": "[38.0484413, 140.1650458]",
    "lat": 38.0484413,
    "lng": 140.1650458,
    "isClosed": ""
  },
  {
    "id": "yamagata-museum-90",
    "type": "museum",
    "name": "原始布・古代織参考館",
    "prefecture": "山形県",
    "postCode": "992-0039",
    "address": "山形県米沢市門東町1-1-16",
    "city": "よねざわ",
    "image": "",
    "url": "http://www.naro.affrc.go.jp/archive/nias/silkwave/silkmuseum/YYKodai/kodai.htm",
    "latlng": "[37.9064056, 140.1109172]",
    "lat": 37.9064056,
    "lng": 140.1109172,
    "isClosed": ""
  }
]