[
  {
    "id": "iwate-art-1",
    "type": "art",
    "name": "岩手町立石神の丘美術館",
    "prefecture": "岩手県",
    "postCode": "028-4307",
    "address": "岩手県岩手郡岩手町五日市第10地割121−21",
    "city": "いわて",
    "image": "",
    "url": "https://ishigami-iwate.jp/",
    "latlng": "[39.9681445, 141.2141293]",
    "lat": 39.9681445,
    "lng": 141.2141293,
    "isClosed": ""
  },
  {
    "id": "iwate-art-2",
    "type": "art",
    "name": "萬鉄五郎記念美術館",
    "prefecture": "岩手県",
    "postCode": "028-0114",
    "address": "岩手県花巻市東和町土沢5区135",
    "city": "はなまき",
    "image": "",
    "url": "https://www.city.hanamaki.iwate.jp/bunkasports/bunka/yorozutetsugoro/1002101.html",
    "latlng": "[39.3872376, 141.231524]",
    "lat": 39.3872376,
    "lng": 141.231524,
    "isClosed": ""
  },
  {
    "id": "iwate-art-3",
    "type": "art",
    "name": "岩手県立美術館",
    "prefecture": "岩手県",
    "postCode": "020-0866",
    "address": "岩手県盛岡市本宮松幅12−3",
    "city": "もりおか",
    "image": "",
    "url": "https://www.ima.or.jp/",
    "latlng": "[39.6932522, 141.1247117]",
    "lat": 39.6932522,
    "lng": 141.1247117,
    "isClosed": ""
  },
  {
    "id": "iwate-art-4",
    "type": "art",
    "name": "深沢紅子野の花美術館",
    "prefecture": "岩手県",
    "postCode": "020-0885",
    "address": "岩手県盛岡市紺屋町4−8",
    "city": "もりおか",
    "image": "",
    "url": "http://www.nonohana.hs.plala.or.jp/",
    "latlng": "[39.70320359999999, 141.1560101]",
    "lat": 39.70320359999999,
    "lng": 141.1560101,
    "isClosed": ""
  },
  {
    "id": "iwate-art-5",
    "type": "art",
    "name": "御所湖川村美術館",
    "prefecture": "岩手県",
    "postCode": "020-0572",
    "address": "岩手県雫石町西安庭11-55-6",
    "city": "しずくいし",
    "image": "",
    "url": "http://www13.ocn.ne.jp/~k-museum/",
    "latlng": "[39.6311111, 141.0135844]",
    "lat": 39.6311111,
    "lng": 141.0135844,
    "isClosed": ""
  },
  {
    "id": "iwate-art-6",
    "type": "art",
    "name": "聖愛園おもちゃ美術館",
    "prefecture": "岩手県",
    "postCode": "023-1131",
    "address": "岩手県奥州市江刺区愛宕八日市51-3 特別養護老人ホーム聖愛園内",
    "city": "おうしゅう",
    "image": "",
    "url": "",
    "latlng": "[39.1854363, 141.1599852]",
    "lat": 39.1854363,
    "lng": 141.1599852,
    "isClosed": ""
  },
  {
    "id": "iwate-art-7",
    "type": "art",
    "name": "西和賀町立川村美術館・デッサン館",
    "prefecture": "岩手県",
    "postCode": "029-5600",
    "address": "岩手県西和賀町上野々39-142-1",
    "city": "にしわが",
    "image": "",
    "url": "http://www.town.nishiwaga.lg.jp/index.cfm/13,3760,42,47,html",
    "latlng": "[39.3018566, 140.7952467]",
    "lat": 39.3018566,
    "lng": 140.7952467,
    "isClosed": ""
  },
  {
    "id": "iwate-art-8",
    "type": "art",
    "name": "魚の番屋　深渡栄一美術館",
    "prefecture": "岩手県",
    "postCode": "028-8201",
    "address": "岩手県九戸郡野田村野田8-324－2",
    "city": "のだ",
    "image": "",
    "url": "https://fukawatari.sakura.ne.jp/",
    "latlng": "[40.0945851, 141.8042459]",
    "lat": 40.0945851,
    "lng": 141.8042459,
    "isClosed": ""
  }
]