[
  {
    "id": "iwate-museum-1",
    "type": "museum",
    "name": "一関市博物館",
    "prefecture": "岩手県",
    "postCode": "021-0101",
    "address": "岩手県一関市厳美町沖野々−215−1",
    "city": "いちのせき",
    "image": "/img/iwate/museum/ichinoseki-shi-hakubutsukan.jpg",
    "url": "https://www.city.ichinoseki.iwate.jp/museum/",
    "latlng": "[38.9466821, 141.0517482]",
    "lat": 38.9466821,
    "lng": 141.0517482,
    "isClosed": ""
  },
  {
    "id": "iwate-museum-2",
    "type": "museum",
    "name": "牛の博物館",
    "prefecture": "岩手県",
    "postCode": "029-4205",
    "address": "岩手県奥州市前沢南陣場103−1",
    "city": "おうしゅう",
    "image": "/img/iwate/museum/ushi-no-hakubutsukan.jpg",
    "url": "https://www.city.oshu.iwate.jp/htm/ushi/",
    "latlng": "[39.026935, 141.1239416]",
    "lat": 39.026935,
    "lng": 141.1239416,
    "isClosed": ""
  },
  {
    "id": "iwate-museum-3",
    "type": "museum",
    "name": "大船渡市立博物館",
    "prefecture": "岩手県",
    "postCode": "022-0001",
    "address": "岩手県大船渡市末崎町大浜221−86",
    "city": "おおふなと",
    "image": "/img/iwate/museum/oofunato-shiritsu-hakubutsukan.jpg",
    "url": "https://www.city.ofunato.iwate.jp/site/hakubutsukan/",
    "latlng": "[38.9889314, 141.7416389]",
    "lat": 38.9889314,
    "lng": 141.7416389,
    "isClosed": ""
  },
  {
    "id": "iwate-museum-4",
    "type": "museum",
    "name": "北上市立鬼の館",
    "prefecture": "岩手県",
    "postCode": "024-0321",
    "address": "岩手県北上市和賀町岩崎16地割131",
    "city": "きたかみ",
    "image": "/img/iwate/museum/kitakami-shiritsu-oni-no-kan.jpg",
    "url": "https://www.city.kitakami.iwate.jp/life/soshikikarasagasu/oninoyakata/index.html",
    "latlng": "[39.275636, 141.045489]",
    "lat": 39.275636,
    "lng": 141.045489,
    "isClosed": ""
  },
  {
    "id": "iwate-museum-5",
    "type": "museum",
    "name": "北上市立博物館",
    "prefecture": "岩手県",
    "postCode": "024-0043",
    "address": "岩手県北上市立花14地割59 北上市立博物館",
    "city": "にのへ",
    "image": "/img/iwate/museum/kitakami-shiritsu-hakubutsukan.jpg",
    "url": "https://www.city.kitakami.iwate.jp/life/kurashi_tetsuduki/bunka_sports/bunkashisetsu/3/index.html",
    "latlng": "[39.271378, 141.13042]",
    "lat": 39.271378,
    "lng": 141.13042,
    "isClosed": ""
  },
  {
    "id": "iwate-museum-6",
    "type": "museum",
    "name": "遠野市立博物館",
    "prefecture": "岩手県",
    "postCode": "028-0515",
    "address": "岩手県遠野市東舘町3−9",
    "city": "とおの",
    "image": "/img/iwate/museum/toono-shiritsu-hakubutsukan.jpg",
    "url": "https://www.city.tono.iwate.jp/index.cfm/48,25002,166,html",
    "latlng": "[39.3277207, 141.5289231]",
    "lat": 39.3277207,
    "lng": 141.5289231,
    "isClosed": ""
  },
  {
    "id": "iwate-museum-7",
    "type": "museum",
    "name": "碧祥寺博物館",
    "prefecture": "岩手県",
    "postCode": "029-5614",
    "address": "岩手県和賀郡西和賀町沢内太田3地割32",
    "city": "にしわが",
    "image": "",
    "url": "https://yamanoideyu.com/spot/article.php?p=74",
    "latlng": "[39.4273053, 140.7480922]",
    "lat": 39.4273053,
    "lng": 140.7480922,
    "isClosed": ""
  },
  {
    "id": "iwate-museum-8",
    "type": "museum",
    "name": "御所野縄文博物館",
    "prefecture": "岩手県",
    "postCode": "028-5316",
    "address": "岩手県二戸郡一戸町岩舘御所野2",
    "city": "いちのへ",
    "image": "/img/iwate/museum/gosho-no-joumon-hakubutsukan.jpg",
    "url": "https://goshono-iseki.com/",
    "latlng": "[40.1975245, 141.3103872]",
    "lat": 40.1975245,
    "lng": 141.3103872,
    "isClosed": ""
  },
  {
    "id": "iwate-museum-9",
    "type": "museum",
    "name": "花巻市博物館",
    "prefecture": "岩手県",
    "postCode": "025-0014",
    "address": "岩手県花巻市高松第26地割 8番地1",
    "city": "はなまき",
    "image": "",
    "url": "https://www.city.hanamaki.iwate.jp/bunkasports/bunka/1008981/index.html",
    "latlng": "[39.3994076, 141.1685662]",
    "lat": 39.3994076,
    "lng": 141.1685662,
    "isClosed": ""
  },
  {
    "id": "iwate-museum-10",
    "type": "museum",
    "name": "宮古市北上山地民俗資料館",
    "prefecture": "岩手県",
    "postCode": "028-2302",
    "address": "岩手県宮古市川井第2地割187−1",
    "city": "みやこ",
    "image": "",
    "url": "http://kitakamisanchi.city.miyako.iwate.jp/",
    "latlng": "[39.6001601, 141.6802677]",
    "lat": 39.6001601,
    "lng": 141.6802677,
    "isClosed": ""
  },
  {
    "id": "iwate-museum-11",
    "type": "museum",
    "name": "宮古市崎山貝塚縄文の森ミュージアム",
    "prefecture": "岩手県",
    "postCode": "027-0097",
    "address": "岩手県宮古市崎山第1地割16−1",
    "city": "みやこ",
    "image": "/img/iwate/museum/miyako-ichizaki-yamagai-tsuka-joumon-no-mori-myuujiamu.jpg",
    "url": "https://www.city.miyako.iwate.jp/bnka/sakiyamamuseum/sakiyama_museum1_2.html",
    "latlng": "[39.6715157, 141.9603442]",
    "lat": 39.6715157,
    "lng": 141.9603442,
    "isClosed": ""
  },
  {
    "id": "iwate-museum-12",
    "type": "museum",
    "name": "岩手県立博物館",
    "prefecture": "岩手県",
    "postCode": "020-0102",
    "address": "岩手県盛岡市上田松屋敷34",
    "city": "もりおか",
    "image": "/img/iwate/museum/iwateken-ritsu-hakubutsukan.jpg",
    "url": "http://www2.pref.iwate.jp/~hp0910/",
    "latlng": "[39.7554643, 141.1539674]",
    "lat": 39.7554643,
    "lng": 141.1539674,
    "isClosed": ""
  },
  {
    "id": "iwate-museum-13",
    "type": "museum",
    "name": "盛岡市遺跡の学び館",
    "prefecture": "岩手県",
    "postCode": "020-0866",
    "address": "岩手県盛岡市本宮荒屋13−1",
    "city": "もりおか",
    "image": "",
    "url": "https://www.city.morioka.iwate.jp/kankou/kankou/1037106/rekishi/1009437/1009438.html",
    "latlng": "[39.6920143, 141.1285514]",
    "lat": 39.6920143,
    "lng": 141.1285514,
    "isClosed": ""
  },
  {
    "id": "iwate-museum-14",
    "type": "museum",
    "name": "盛岡市子ども科学館",
    "prefecture": "岩手県",
    "postCode": "020-0866",
    "address": "岩手県盛岡市本宮蛇屋敷13−1",
    "city": "もりおか",
    "image": "/img/iwate/museum/moriokashi-kodomo-kagakukan.jpg",
    "url": "https://kodomokagakukan.com/",
    "latlng": "[39.694105, 141.1298716]",
    "lat": 39.694105,
    "lng": 141.1298716,
    "isClosed": ""
  },
  {
    "id": "iwate-museum-15",
    "type": "museum",
    "name": "盛岡市先人記念館",
    "prefecture": "岩手県",
    "postCode": "020-0866",
    "address": "岩手県盛岡市本宮蛇屋敷2−2",
    "city": "もりおか",
    "image": "/img/iwate/museum/moriokashi-senjin-kinenkan.jpg",
    "url": "https://www.mfca.jp/senjin/",
    "latlng": "[39.6940685, 141.1265861]",
    "lat": 39.6940685,
    "lng": 141.1265861,
    "isClosed": ""
  },
  {
    "id": "iwate-museum-16",
    "type": "museum",
    "name": "陸前高田市立博物館",
    "prefecture": "岩手県",
    "postCode": "029-2205",
    "address": "岩手県陸前高田市高田町並杉300番地1",
    "city": "りくぜんたかた",
    "image": "/img/iwate/museum/rikuzentakata-shiritsu-hakubutsukan.jpg",
    "url": "https://www.city.rikuzentakata.iwate.jp/soshiki/kanrika/hakubutsukan/index.html",
    "latlng": "[39.0209961, 141.6357434]",
    "lat": 39.0209961,
    "lng": 141.6357434,
    "isClosed": ""
  },
  {
    "id": "iwate-museum-17",
    "type": "museum",
    "name": "久慈琥珀博物館",
    "prefecture": "岩手県",
    "postCode": "028-0071",
    "address": "岩手県久慈市小久慈町第19地割156−133",
    "city": "くじ",
    "image": "/img/iwate/museum/kuji-kohaku-hakubutsukan.jpg",
    "url": "http://www.kuji.co.jp/museum",
    "latlng": "[40.1698441, 141.7239698]",
    "lat": 40.1698441,
    "lng": 141.7239698,
    "isClosed": ""
  },
  {
    "id": "iwate-museum-18",
    "type": "museum",
    "name": "岩手県立平泉世界遺産ガイダンスセンター",
    "prefecture": "岩手県",
    "postCode": "029-4102",
    "address": "岩手県西磐井郡平泉町平泉伽羅楽108−1",
    "city": "にしいわい",
    "image": "",
    "url": "https://www.sekaiisan.pref.iwate.jp/information",
    "latlng": "[38.9924759, 141.120806]",
    "lat": 38.9924759,
    "lng": 141.120806,
    "isClosed": ""
  },
  {
    "id": "iwate-museum-19",
    "type": "museum",
    "name": "宮沢賢治記念館",
    "prefecture": "岩手県",
    "postCode": "025-0011",
    "address": "岩手県花巻市矢沢第1地割1−36",
    "city": "はなまき",
    "image": "",
    "url": "https://www.city.hanamaki.iwate.jp/miyazawakenji/kinenkan/index.html",
    "latlng": "[39.39915000000001, 141.1623001]",
    "lat": 39.39915000000001,
    "lng": 141.1623001,
    "isClosed": ""
  },
  {
    "id": "iwate-museum-20",
    "type": "museum",
    "name": "アジア文化資料館",
    "prefecture": "岩手県",
    "postCode": "029-4102",
    "address": "岩手県平泉町平泉泉屋40－2",
    "city": "ひらいずみ",
    "image": "",
    "url": "",
    "latlng": "[38.9868198, 141.1179558]",
    "lat": 38.9868198,
    "lng": 141.1179558,
    "isClosed": ""
  },
  {
    "id": "iwate-museum-21",
    "type": "museum",
    "name": "アジア民族造形館",
    "prefecture": "岩手県",
    "postCode": "028-8201",
    "address": "岩手県野田村野田6-75",
    "city": "のだ",
    "image": "",
    "url": "http://www.vill.noda.iwate.jp/asia/index.html",
    "latlng": "[40.070712, 141.778398]",
    "lat": 40.070712,
    "lng": 141.778398,
    "isClosed": ""
  },
  {
    "id": "iwate-museum-22",
    "type": "museum",
    "name": "くらしの館",
    "prefecture": "岩手県",
    "postCode": "023-0402",
    "address": "岩手県奥州市胆沢区小山中油地173",
    "city": "おうしゅう",
    "image": "",
    "url": "",
    "latlng": "[39.0846538, 141.0837631]",
    "lat": 39.0846538,
    "lng": 141.0837631,
    "isClosed": ""
  },
  {
    "id": "iwate-museum-23",
    "type": "museum",
    "name": "けんじワールド　アルビレオ観測所（プラネタリウム）",
    "prefecture": "岩手県",
    "postCode": "020-0574",
    "address": "岩手県雫石町鴬宿10－64－1",
    "city": "しずくいし",
    "image": "",
    "url": "",
    "latlng": "[39.6288645, 140.9002043]",
    "lat": 39.6288645,
    "lng": 140.9002043,
    "isClosed": ""
  },
  {
    "id": "iwate-museum-24",
    "type": "museum",
    "name": "サトウハチロー記念館（叱られ坊主）",
    "prefecture": "岩手県",
    "postCode": "024-0043",
    "address": "岩手県北上市立花13－67－3 展勝地公園内",
    "city": "きたかみ",
    "image": "",
    "url": "http://www.city.kitakami.iwate.jp/sub03/shisetsu/shisetsu05/page_1281.html",
    "latlng": "[39.274976, 141.1266331]",
    "lat": 39.274976,
    "lng": 141.1266331,
    "isClosed": ""
  },
  {
    "id": "iwate-museum-25",
    "type": "museum",
    "name": "サハラガラスパーク",
    "prefecture": "岩手県",
    "postCode": "021-0101",
    "address": "岩手県一関市厳美町滝の上263－1",
    "city": "いちのせき",
    "image": "",
    "url": "http://www.sahara-g.co.jp/",
    "latlng": "[38.9649677, 140.8826118]",
    "lat": 38.9649677,
    "lng": 140.8826118,
    "isClosed": ""
  },
  {
    "id": "iwate-museum-26",
    "type": "museum",
    "name": "シベリア抑留史料保存館",
    "prefecture": "岩手県",
    "postCode": "020-0803",
    "address": "岩手県盛岡市新庄岩山 植物園「四季園」",
    "city": "もりおか",
    "image": "",
    "url": "",
    "latlng": "[39.7017963, 141.1828363]",
    "lat": 39.7017963,
    "lng": 141.1828363,
    "isClosed": ""
  },
  {
    "id": "iwate-museum-27",
    "type": "museum",
    "name": "とおの昔話村",
    "prefecture": "岩手県",
    "postCode": "028-0523",
    "address": "岩手県遠野市中央通り2－11",
    "city": "とおの",
    "image": "",
    "url": "",
    "latlng": "[39.3297715, 141.5285584]",
    "lat": 39.3297715,
    "lng": 141.5285584,
    "isClosed": ""
  },
  {
    "id": "iwate-museum-28",
    "type": "museum",
    "name": "ふるさと吉浜郷土資料室",
    "prefecture": "岩手県",
    "postCode": "022-0102",
    "address": "岩手県大船渡市三陸町吉浜扇洞127－2 吉浜中学校内",
    "city": "おおふなと",
    "image": "",
    "url": "",
    "latlng": "[39.15823839999999, 141.8359536]",
    "lat": 39.15823839999999,
    "lng": 141.8359536,
    "isClosed": ""
  },
  {
    "id": "iwate-museum-29",
    "type": "museum",
    "name": "マリンローズパーク野田玉川",
    "prefecture": "岩手県",
    "postCode": "028-8202",
    "address": "岩手県野田村玉川5－104－13",
    "city": "のだ",
    "image": "",
    "url": "",
    "latlng": "[40.0419409, 141.8168431]",
    "lat": 40.0419409,
    "lng": 141.8168431,
    "isClosed": ""
  },
  {
    "id": "iwate-museum-30",
    "type": "museum",
    "name": "もりおか啄木・賢治青春館",
    "prefecture": "岩手県",
    "postCode": "020-0871",
    "address": "岩手県盛岡市中ノ橋通1-1-25",
    "city": "もりおか",
    "image": "",
    "url": "http://www.odette.or.jp/seishunkan/",
    "latlng": "[39.69962170000001, 141.1543941]",
    "lat": 39.69962170000001,
    "lng": 141.1543941,
    "isClosed": ""
  },
  {
    "id": "iwate-museum-31",
    "type": "museum",
    "name": "もりおか歴史文化館",
    "prefecture": "岩手県",
    "postCode": "020-0023",
    "address": "岩手県盛岡市内丸1番50号",
    "city": "もりおか",
    "image": "",
    "url": "http://www.morireki.jp/",
    "latlng": "[39.7010348, 141.1526162]",
    "lat": 39.7010348,
    "lng": 141.1526162,
    "isClosed": ""
  },
  {
    "id": "iwate-museum-32",
    "type": "museum",
    "name": "ワインシャトー大迫",
    "prefecture": "岩手県",
    "postCode": "028-3203",
    "address": "岩手県花巻市大迫町大迫10-18-3",
    "city": "はなまき",
    "image": "",
    "url": "",
    "latlng": "[39.479065, 141.2898537]",
    "lat": 39.479065,
    "lng": 141.2898537,
    "isClosed": ""
  },
  {
    "id": "iwate-museum-33",
    "type": "museum",
    "name": "一戸観光天文台",
    "prefecture": "岩手県",
    "postCode": "028-5302",
    "address": "岩手県一戸町女鹿新田42－21",
    "city": "いちのへ",
    "image": "",
    "url": "",
    "latlng": "[40.1033434, 141.1810692]",
    "lat": 40.1033434,
    "lng": 141.1810692,
    "isClosed": ""
  },
  {
    "id": "iwate-museum-34",
    "type": "museum",
    "name": "一関小学校　学校博物館",
    "prefecture": "岩手県",
    "postCode": "021-0836",
    "address": "岩手県一関市鳴神33 一関小学校内",
    "city": "いちのせき",
    "image": "",
    "url": "",
    "latlng": "[38.92901, 141.1440762]",
    "lat": 38.92901,
    "lng": 141.1440762,
    "isClosed": ""
  },
  {
    "id": "iwate-museum-35",
    "type": "museum",
    "name": "三船十段記念館",
    "prefecture": "岩手県",
    "postCode": "028-0082",
    "address": "岩手県久慈市川貫 5-20-230",
    "city": "くじ",
    "image": "",
    "url": "http://www.city.kuji.iwate.jp/cb/hpc/Article-89-301.html",
    "latlng": "[40.1829629, 141.7503172]",
    "lat": 40.1829629,
    "lng": 141.7503172,
    "isClosed": ""
  },
  {
    "id": "iwate-museum-36",
    "type": "museum",
    "name": "世嬉の一　酒の民俗文化博物館",
    "prefecture": "岩手県",
    "postCode": "021-0885",
    "address": "岩手県一関市田村町5－42",
    "city": "いちのせき",
    "image": "",
    "url": "",
    "latlng": "[38.9315928, 141.1329679]",
    "lat": 38.9315928,
    "lng": 141.1329679,
    "isClosed": ""
  },
  {
    "id": "iwate-museum-37",
    "type": "museum",
    "name": "世界の椿館・碁石",
    "prefecture": "岩手県",
    "postCode": "022-0001",
    "address": "岩手県大船渡市末崎町大浜280-1",
    "city": "おおふなと",
    "image": "",
    "url": "http://www13.ocn.ne.jp/~goishi/",
    "latlng": "[38.9906452, 141.741158]",
    "lat": 38.9906452,
    "lng": 141.741158,
    "isClosed": ""
  },
  {
    "id": "iwate-museum-38",
    "type": "museum",
    "name": "中尊寺讃衡蔵",
    "prefecture": "岩手県",
    "postCode": "029-4102",
    "address": "岩手県平泉町平泉衣関202 中尊寺内",
    "city": "ひらいずみ",
    "image": "",
    "url": "http://www.chusonji.or.jp/",
    "latlng": "[39.0014285, 141.1005985]",
    "lat": 39.0014285,
    "lng": 141.1005985,
    "isClosed": ""
  },
  {
    "id": "iwate-museum-39",
    "type": "museum",
    "name": "久慈市山村文化交流センターおらほーる",
    "prefecture": "岩手県",
    "postCode": "028-8602",
    "address": "岩手県久慈市山形町川井13-38",
    "city": "くじ",
    "image": "",
    "url": "http://www2.city.kuji.iwate.jp/ahall/orahall/",
    "latlng": "[40.1548743, 141.5640579]",
    "lat": 40.1548743,
    "lng": 141.5640579,
    "isClosed": ""
  },
  {
    "id": "iwate-museum-40",
    "type": "museum",
    "name": "二戸歴史民俗資料館",
    "prefecture": "岩手県",
    "postCode": "028-6101",
    "address": "岩手県二戸市福岡長嶺80-1",
    "city": "にのへ",
    "image": "",
    "url": "http://www.city.ninohe.iwate.jp/kyouiku/kyouikusisetu/ninoheminzoku.html",
    "latlng": "[40.284647, 141.2983774]",
    "lat": 40.284647,
    "lng": 141.2983774,
    "isClosed": ""
  },
  {
    "id": "iwate-museum-41",
    "type": "museum",
    "name": "住田町民俗資料館",
    "prefecture": "岩手県",
    "postCode": "029-2501",
    "address": "岩手県住田町上有住山脈地15－1",
    "city": "すみた",
    "image": "",
    "url": "http://www.town.sumita.iwate.jp/kanko/museum/indexi.html",
    "latlng": "[39.19728449999999, 141.5881822]",
    "lat": 39.19728449999999,
    "lng": 141.5881822,
    "isClosed": ""
  },
  {
    "id": "iwate-museum-42",
    "type": "museum",
    "name": "八幡平市博物館",
    "prefecture": "岩手県",
    "postCode": "028-7533",
    "address": "岩手県八幡平市叺田230",
    "city": "はちまんたい",
    "image": "",
    "url": "http://www.city.hachimantai.lg.jp/cat51/cat61/cat523/post_1838.php",
    "latlng": "[40.1032265, 141.0523625]",
    "lat": 40.1032265,
    "lng": 141.0523625,
    "isClosed": ""
  },
  {
    "id": "iwate-museum-43",
    "type": "museum",
    "name": "八幡平市松尾ふれあい文化伝承館",
    "prefecture": "岩手県",
    "postCode": "028-7301",
    "address": "岩手県八幡平市野駄7-84-1",
    "city": "はちまんたい",
    "image": "",
    "url": "",
    "latlng": "[39.942537, 141.0518157]",
    "lat": 39.942537,
    "lng": 141.0518157,
    "isClosed": ""
  },
  {
    "id": "iwate-museum-44",
    "type": "museum",
    "name": "八幡平市松尾鉱山資料館",
    "prefecture": "岩手県",
    "postCode": "028-7303",
    "address": "岩手県八幡平市柏台2-5-6",
    "city": "はちまんたい",
    "image": "",
    "url": "http://www.city.hachimantai.lg.jp/cat51/cat61/cat523/post_426.php",
    "latlng": "[39.9144666, 140.9781992]",
    "lat": 39.9144666,
    "lng": 140.9781992,
    "isClosed": ""
  },
  {
    "id": "iwate-museum-45",
    "type": "museum",
    "name": "八幡平市西根歴史民俗資料館",
    "prefecture": "岩手県",
    "postCode": "028-7401",
    "address": "岩手県八幡平市寺田15-127",
    "city": "はちまんたい",
    "image": "",
    "url": "http://www.city.hachimantai.lg.jp/cat51/cat61/cat523/post_427.php",
    "latlng": "[39.9820192, 141.1077377]",
    "lat": 39.9820192,
    "lng": 141.1077377,
    "isClosed": ""
  },
  {
    "id": "iwate-museum-46",
    "type": "museum",
    "name": "利根山光人記念館",
    "prefecture": "岩手県",
    "postCode": "024-0043",
    "address": "岩手県北上市立花15－153－2",
    "city": "きたかみ",
    "image": "",
    "url": "http://www.city.kitakami.iwate.jp/sub03/shisetsu/shisetsu06/page_1282.html",
    "latlng": "[39.2888322, 141.1423692]",
    "lat": 39.2888322,
    "lng": 141.1423692,
    "isClosed": ""
  },
  {
    "id": "iwate-museum-47",
    "type": "museum",
    "name": "北上川学習交流館「あいぽーと」",
    "prefecture": "岩手県",
    "postCode": "029-0131",
    "address": "岩手県一関市狐禅寺石ノ瀬155-81",
    "city": "いちのせき",
    "image": "",
    "url": "http://www.thr.mlit.go.jp/iwate/iport/",
    "latlng": "[38.937155, 141.159153]",
    "lat": 38.937155,
    "lng": 141.159153,
    "isClosed": ""
  },
  {
    "id": "iwate-museum-48",
    "type": "museum",
    "name": "北上平和記念展示館",
    "prefecture": "岩手県",
    "postCode": "024-0334",
    "address": "岩手県北上市和賀町藤根14-147-3",
    "city": "きたかみ",
    "image": "",
    "url": "http://www.city.kitakami.iwate.jp/sub03/shisetsu/shisetsu08/page_1283.html",
    "latlng": "[39.315695, 141.0318191]",
    "lat": 39.315695,
    "lng": 141.0318191,
    "isClosed": ""
  },
  {
    "id": "iwate-museum-49",
    "type": "museum",
    "name": "南部杜氏伝承館",
    "prefecture": "岩手県",
    "postCode": "028-3171",
    "address": "岩手県花巻市石鳥谷町中寺林7-17-2",
    "city": "はなまき",
    "image": "",
    "url": "http://www.city.hanamaki.iwate.jp/sightseeing/kanko/1205814598352.html",
    "latlng": "[39.4724177, 141.1378579]",
    "lat": 39.4724177,
    "lng": 141.1378579,
    "isClosed": ""
  },
  {
    "id": "iwate-museum-50",
    "type": "museum",
    "name": "原敬記念館",
    "prefecture": "岩手県",
    "postCode": "020-0866",
    "address": "岩手県盛岡市本宮4丁目38番25号",
    "city": "もりおか",
    "image": "",
    "url": "http://www.mfca.jp/institution/harakei/index.html",
    "latlng": "[39.6874619, 141.1287959]",
    "lat": 39.6874619,
    "lng": 141.1287959,
    "isClosed": ""
  },
  {
    "id": "iwate-museum-51",
    "type": "museum",
    "name": "吉里吉里考古園",
    "prefecture": "岩手県",
    "postCode": "028-1101",
    "address": "岩手県大槌町吉里吉里第32地割崎山 18－30",
    "city": "おおつち",
    "image": "",
    "url": "",
    "latlng": "[39.3737577, 141.9590939]",
    "lat": 39.3737577,
    "lng": 141.9590939,
    "isClosed": ""
  },
  {
    "id": "iwate-museum-52",
    "type": "museum",
    "name": "夢館　奥州藤原歴史館",
    "prefecture": "岩手県",
    "postCode": "029-4102",
    "address": "岩手県平泉町平泉衣関13－1",
    "city": "ひらいずみ",
    "image": "",
    "url": "http://hiraizumi-yumeyakata.com/",
    "latlng": "[38.9970968, 141.108228]",
    "lat": 38.9970968,
    "lng": 141.108228,
    "isClosed": ""
  },
  {
    "id": "iwate-museum-53",
    "type": "museum",
    "name": "大籠キリシタン殉教公園資料館・クルス館",
    "prefecture": "岩手県",
    "postCode": "029-3522",
    "address": "岩手県一関市藤沢町大籠字右名沢28-7",
    "city": "いちのせき",
    "image": "",
    "url": "https://okagocross.com/",
    "latlng": "[38.7934986, 141.4042269]",
    "lat": 38.7934986,
    "lng": 141.4042269,
    "isClosed": ""
  },
  {
    "id": "iwate-museum-54",
    "type": "museum",
    "name": "大迫町立山岳博物館付属　縄文館",
    "prefecture": "岩手県",
    "postCode": "028-3203",
    "address": "岩手県花巻市大迫町大迫3-39",
    "city": "はなまき",
    "image": "",
    "url": "",
    "latlng": "[39.479065, 141.2898537]",
    "lat": 39.479065,
    "lng": 141.2898537,
    "isClosed": ""
  },
  {
    "id": "iwate-museum-55",
    "type": "museum",
    "name": "大迫町郷土文化保存伝習館",
    "prefecture": "岩手県",
    "postCode": "028-3201",
    "address": "岩手県花巻市大迫町内川目1-2",
    "city": "はなまき",
    "image": "",
    "url": "",
    "latlng": "[39.5340347, 141.3694996]",
    "lat": 39.5340347,
    "lng": 141.3694996,
    "isClosed": ""
  },
  {
    "id": "iwate-museum-56",
    "type": "museum",
    "name": "太陽と風の家",
    "prefecture": "岩手県",
    "postCode": "029-0303",
    "address": "岩手県一関市東山町松川滝の沢149-1",
    "city": "いちのせき",
    "image": "",
    "url": "http://www.city.ichinoseki.iwate.jp/index.cfm/6,0,149,html",
    "latlng": "[38.9808928, 141.2378933]",
    "lat": 38.9808928,
    "lng": 141.2378933,
    "isClosed": ""
  },
  {
    "id": "iwate-museum-57",
    "type": "museum",
    "name": "奥州宇宙遊学館",
    "prefecture": "岩手県",
    "postCode": "023-0861",
    "address": "岩手県奥州市水沢区星ガ丘町2番12号",
    "city": "おうしゅう",
    "image": "",
    "url": "http://uchuyugakukan.com/",
    "latlng": "[39.2839761, 141.1209399]",
    "lat": 39.2839761,
    "lng": 141.1209399,
    "isClosed": ""
  },
  {
    "id": "iwate-museum-58",
    "type": "museum",
    "name": "奥州市伝統産業会館　（キューポラの館）",
    "prefecture": "岩手県",
    "postCode": "023-0104",
    "address": "岩手県奥州市水沢区羽田町駅前1-109",
    "city": "おうしゅう",
    "image": "",
    "url": "",
    "latlng": "[39.1359174, 141.1954675]",
    "lat": 39.1359174,
    "lng": 141.1954675,
    "isClosed": ""
  },
  {
    "id": "iwate-museum-59",
    "type": "museum",
    "name": "奥州市埋蔵文化財調査センター",
    "prefecture": "岩手県",
    "postCode": "023-0003",
    "address": "岩手県奥州市奥州市水沢佐倉河字九蔵田96番地1",
    "city": "おうしゅう",
    "image": "",
    "url": "http://www.oshu-bunka.or.jp/maibun/",
    "latlng": "[39.1764202, 141.1354373]",
    "lat": 39.1764202,
    "lng": 141.1354373,
    "isClosed": ""
  },
  {
    "id": "iwate-museum-60",
    "type": "museum",
    "name": "奥州湖交流館",
    "prefecture": "岩手県",
    "postCode": "023-0403",
    "address": "岩手県奥州市胆沢若柳字馬留81‐1",
    "city": "おうしゅう",
    "image": "",
    "url": "https://ousyuuko-kouryuukan.amebaownd.com/",
    "latlng": "[39.1198559, 140.9349315]",
    "lat": 39.1198559,
    "lng": 140.9349315,
    "isClosed": ""
  },
  {
    "id": "iwate-museum-61",
    "type": "museum",
    "name": "宮古ビジターセンター",
    "prefecture": "岩手県",
    "postCode": "027-0001",
    "address": "岩手県宮古市日立浜町11-30",
    "city": "みやこ",
    "image": "",
    "url": "",
    "latlng": "[39.6460596, 141.9776605]",
    "lat": 39.6460596,
    "lng": 141.9776605,
    "isClosed": ""
  },
  {
    "id": "iwate-museum-62",
    "type": "museum",
    "name": "宮古市新里生涯学習センター（玄翁館）",
    "prefecture": "岩手県",
    "postCode": "028-2101",
    "address": "岩手県宮古市茂市第5地割",
    "city": "みやこ",
    "image": "",
    "url": "",
    "latlng": "[39.6158014, 141.7998732]",
    "lat": 39.6158014,
    "lng": 141.7998732,
    "isClosed": ""
  },
  {
    "id": "iwate-museum-63",
    "type": "museum",
    "name": "宮沢賢治イーハトーブ館",
    "prefecture": "岩手県",
    "postCode": "025-0014",
    "address": "岩手県花巻市高松1－1－1",
    "city": "はなまき",
    "image": "",
    "url": "",
    "latlng": "[39.3862671, 141.1743876]",
    "lat": 39.3862671,
    "lng": 141.1743876,
    "isClosed": ""
  },
  {
    "id": "iwate-museum-64",
    "type": "museum",
    "name": "寄生木記念館",
    "prefecture": "岩手県",
    "postCode": "027-0063",
    "address": "岩手県宮古市山口1丁目3－14",
    "city": "みやこ",
    "image": "",
    "url": "http://www.city.miyako.iwate.jp/cb/hpc/Article-486-4879.html",
    "latlng": "[39.650128, 141.9366995]",
    "lat": 39.650128,
    "lng": 141.9366995,
    "isClosed": ""
  },
  {
    "id": "iwate-museum-65",
    "type": "museum",
    "name": "小岩井農場まきば園 まきばの天文館",
    "prefecture": "岩手県",
    "postCode": "020-0507",
    "address": "岩手県雫石町丸谷地36-1",
    "city": "しずくいし",
    "image": "",
    "url": "http://www.koiwai.co.jp/",
    "latlng": "[39.7237923, 141.0139428]",
    "lat": 39.7237923,
    "lng": 141.0139428,
    "isClosed": ""
  },
  {
    "id": "iwate-museum-66",
    "type": "museum",
    "name": "小岩井農場資料館",
    "prefecture": "岩手県",
    "postCode": "020-0507",
    "address": "岩手県雫石町丸谷地36-1 小岩井農場まきば園内",
    "city": "しずくいし",
    "image": "",
    "url": "http://www.koiwai.co.jp/makiba/",
    "latlng": "[39.7237923, 141.0139428]",
    "lat": 39.7237923,
    "lng": 141.0139428,
    "isClosed": ""
  },
  {
    "id": "iwate-museum-67",
    "type": "museum",
    "name": "山田町立鯨と海の科学館",
    "prefecture": "岩手県",
    "postCode": "028-1371",
    "address": "岩手県下閉伊郡山田町船越7-50-1",
    "city": "やまだ",
    "image": "",
    "url": "https://yamada-kujirakan.jp/",
    "latlng": "[39.43795069999999, 142.0101627]",
    "lat": 39.43795069999999,
    "lng": 142.0101627,
    "isClosed": ""
  },
  {
    "id": "iwate-museum-68",
    "type": "museum",
    "name": "岩手大学ミュージアム",
    "prefecture": "岩手県",
    "postCode": "020-8550",
    "address": "岩手県盛岡市上田3-18-8",
    "city": "もりおか",
    "image": "",
    "url": "http://www.museum.iwate-u.ac.jp/",
    "latlng": "[39.71577569999999, 141.1373354]",
    "lat": 39.71577569999999,
    "lng": 141.1373354,
    "isClosed": ""
  },
  {
    "id": "iwate-museum-69",
    "type": "museum",
    "name": "岩手県森林学習展示館",
    "prefecture": "岩手県",
    "postCode": "028-7302",
    "address": "岩手県八幡平市寄木1 岩手県県民の森内",
    "city": "はちまんたい",
    "image": "",
    "url": "",
    "latlng": "[39.8927618, 140.9253837]",
    "lat": 39.8927618,
    "lng": 140.9253837,
    "isClosed": ""
  },
  {
    "id": "iwate-museum-70",
    "type": "museum",
    "name": "岩手県立水産科学館",
    "prefecture": "岩手県",
    "postCode": "027-0001",
    "address": "岩手県宮古市日立浜町32-38",
    "city": "みやこ",
    "image": "",
    "url": "http://uolog.npo-iwate.jp/uoriyas/",
    "latlng": "[39.6389863, 141.9701416]",
    "lat": 39.6389863,
    "lng": 141.9701416,
    "isClosed": ""
  },
  {
    "id": "iwate-museum-71",
    "type": "museum",
    "name": "岩手県立総合防災センター",
    "prefecture": "岩手県",
    "postCode": "028-3602",
    "address": "岩手県矢巾町藤沢3-117-1",
    "city": "やはば",
    "image": "",
    "url": "http://www.iwate-bousai.jp/",
    "latlng": "[39.6176702, 141.165879]",
    "lat": 39.6176702,
    "lng": 141.165879,
    "isClosed": ""
  },
  {
    "id": "iwate-museum-72",
    "type": "museum",
    "name": "岩手県立農業ふれあい公園　農業科学博物館",
    "prefecture": "岩手県",
    "postCode": "024-0001",
    "address": "岩手県北上市飯豊3－110",
    "city": "きたかみ",
    "image": "",
    "url": "http://www.pref.iwate.jp/~hp2088/park/",
    "latlng": "[39.3517153, 141.092939]",
    "lat": 39.3517153,
    "lng": 141.092939,
    "isClosed": ""
  },
  {
    "id": "iwate-museum-73",
    "type": "museum",
    "name": "平泉文化史館",
    "prefecture": "岩手県",
    "postCode": "029-4100",
    "address": "岩手県平泉町坂下10－7",
    "city": "ひらいずみ",
    "image": "",
    "url": "http://www.kpc.co.jp/hirarest/bunka2.html",
    "latlng": "[38.99911530000001, 141.1083053]",
    "lat": 38.99911530000001,
    "lng": 141.1083053,
    "isClosed": ""
  },
  {
    "id": "iwate-museum-74",
    "type": "museum",
    "name": "平泉郷土館",
    "prefecture": "岩手県",
    "postCode": "029-4102",
    "address": "岩手県平泉町平泉字花立44",
    "city": "ひらいずみ",
    "image": "",
    "url": "",
    "latlng": "[38.9929485, 141.1111205]",
    "lat": 38.9929485,
    "lng": 141.1111205,
    "isClosed": ""
  },
  {
    "id": "iwate-museum-75",
    "type": "museum",
    "name": "後藤新平記念館",
    "prefecture": "岩手県",
    "postCode": "023-0053",
    "address": "岩手県奥州市水沢区大手町4-1",
    "city": "おうしゅう",
    "image": "",
    "url": "http://www.city.oshu.iwate.jp/shinpei/",
    "latlng": "[39.1526189, 141.1314791]",
    "lat": 39.1526189,
    "lng": 141.1314791,
    "isClosed": ""
  },
  {
    "id": "iwate-museum-76",
    "type": "museum",
    "name": "志波城古代公園",
    "prefecture": "岩手県",
    "postCode": "020-0855",
    "address": "岩手県盛岡市上鹿妻五兵新田47-11",
    "city": "もりおか",
    "image": "",
    "url": "http://www.city.morioka.iwate.jp/shisei/moriokagaido/rekishi/1009476/index.html",
    "latlng": "[39.676851, 141.0867278]",
    "lat": 39.676851,
    "lng": 141.0867278,
    "isClosed": ""
  },
  {
    "id": "iwate-museum-77",
    "type": "museum",
    "name": "懐徳館",
    "prefecture": "岩手県",
    "postCode": "029-4302",
    "address": "岩手県奥州市衣川区日向60-2",
    "city": "おうしゅう",
    "image": "",
    "url": "",
    "latlng": "[39.0176023, 141.1094142]",
    "lat": 39.0176023,
    "lng": 141.1094142,
    "isClosed": ""
  },
  {
    "id": "iwate-museum-78",
    "type": "museum",
    "name": "斎藤實記念館",
    "prefecture": "岩手県",
    "postCode": "023-0054",
    "address": "岩手県奥州市水沢区吉小路24",
    "city": "おうしゅう",
    "image": "",
    "url": "http://www.city.oshu.iwate.jp/htm/soshiki/syakai/kousui/index.html",
    "latlng": "[39.1439597, 141.1327905]",
    "lat": 39.1439597,
    "lng": 141.1327905,
    "isClosed": ""
  },
  {
    "id": "iwate-museum-79",
    "type": "museum",
    "name": "日本現代詩歌文学館",
    "prefecture": "岩手県",
    "postCode": "024-8503",
    "address": "岩手県北上市本石町2-5-60",
    "city": "きたかみ",
    "image": "",
    "url": "https://www.shiikabun.jp/",
    "latlng": "[39.2929258, 141.1145233]",
    "lat": 39.2929258,
    "lng": 141.1145233,
    "isClosed": ""
  },
  {
    "id": "iwate-museum-80",
    "type": "museum",
    "name": "旧後藤家住宅",
    "prefecture": "岩手県",
    "postCode": "023-1101",
    "address": "岩手県奥州市江刺区岩谷堂向山1",
    "city": "おうしゅう",
    "image": "",
    "url": "",
    "latlng": "[39.1919406, 141.1855439]",
    "lat": 39.1919406,
    "lng": 141.1855439,
    "isClosed": ""
  },
  {
    "id": "iwate-museum-81",
    "type": "museum",
    "name": "東和ふるさと歴史資料館",
    "prefecture": "岩手県",
    "postCode": "028-0114",
    "address": "岩手県花巻市東和町土沢9区198",
    "city": "はなまき",
    "image": "",
    "url": "http://www.city.hanamaki.iwate.jp/sightseeing/history/index.html",
    "latlng": "[39.3822436, 141.237231]",
    "lat": 39.3822436,
    "lng": 141.237231,
    "isClosed": ""
  },
  {
    "id": "iwate-museum-82",
    "type": "museum",
    "name": "東日本大震災津波伝承館　いわてTSUNAMIメモリアル",
    "prefecture": "岩手県",
    "postCode": "029-2204",
    "address": "岩手県陸前高田市気仙町字土手影180番地 （高田松原津波復興祈念公園内）",
    "city": "りくぜんたかた",
    "image": "",
    "url": "https://iwate-tsunami-memorial.jp/",
    "latlng": "[39.0067558, 141.6271923]",
    "lat": 39.0067558,
    "lng": 141.6271923,
    "isClosed": ""
  },
  {
    "id": "iwate-museum-83",
    "type": "museum",
    "name": "柳之御所資料館",
    "prefecture": "岩手県",
    "postCode": "029-4102",
    "address": "岩手県平泉町平泉伽羅楽108－1",
    "city": "ひらいずみ",
    "image": "",
    "url": "http://www.town.hiraizumi.iwate.jp/site/entry/cat140/cat149/cat188/post_290.php",
    "latlng": "[38.9924759, 141.120806]",
    "lat": 38.9924759,
    "lng": 141.120806,
    "isClosed": ""
  },
  {
    "id": "iwate-museum-84",
    "type": "museum",
    "name": "桜地人館",
    "prefecture": "岩手県",
    "postCode": "025-0084",
    "address": "岩手県花巻市桜町4－14",
    "city": "はなまき",
    "image": "",
    "url": "",
    "latlng": "[39.3755898, 141.1261934]",
    "lat": 39.3755898,
    "lng": 141.1261934,
    "isClosed": ""
  },
  {
    "id": "iwate-museum-85",
    "type": "museum",
    "name": "武家住宅資料館",
    "prefecture": "岩手県",
    "postCode": "023-0054",
    "address": "岩手県奥州市水沢区吉小路43",
    "city": "おうしゅう",
    "image": "",
    "url": "",
    "latlng": "[39.1439597, 141.1327905]",
    "lat": 39.1439597,
    "lng": 141.1327905,
    "isClosed": ""
  },
  {
    "id": "iwate-museum-86",
    "type": "museum",
    "name": "歴史ふれあい館",
    "prefecture": "岩手県",
    "postCode": "029-4302",
    "address": "岩手県奥州市衣川区日向60-18",
    "city": "おうしゅう",
    "image": "",
    "url": "",
    "latlng": "[39.0176023, 141.1094142]",
    "lat": 39.0176023,
    "lng": 141.1094142,
    "isClosed": ""
  },
  {
    "id": "iwate-museum-87",
    "type": "museum",
    "name": "歴史公園えさし藤原の郷",
    "prefecture": "岩手県",
    "postCode": "023-1101",
    "address": "岩手県奥州市江刺区岩谷堂小名丸86-1",
    "city": "おうしゅう",
    "image": "",
    "url": "http://www.fujiwaranosato.com/",
    "latlng": "[39.1963941, 141.1892204]",
    "lat": 39.1963941,
    "lng": 141.1892204,
    "isClosed": ""
  },
  {
    "id": "iwate-museum-88",
    "type": "museum",
    "name": "毛越寺宝物館",
    "prefecture": "岩手県",
    "postCode": "029-4102",
    "address": "岩手県平泉町平泉大沢58",
    "city": "ひらいずみ",
    "image": "",
    "url": "http://www.motsuji.or.jp/",
    "latlng": "[38.9870882, 141.1089524]",
    "lat": 38.9870882,
    "lng": 141.1089524,
    "isClosed": ""
  },
  {
    "id": "iwate-museum-89",
    "type": "museum",
    "name": "気仙大工左官伝承館",
    "prefecture": "岩手県",
    "postCode": "029-2207",
    "address": "岩手県陸前高田市小友町茗荷1－237",
    "city": "りくぜんたかた",
    "image": "",
    "url": "",
    "latlng": "[39.011192, 141.6934673]",
    "lat": 39.011192,
    "lng": 141.6934673,
    "isClosed": ""
  },
  {
    "id": "iwate-museum-90",
    "type": "museum",
    "name": "水沢消防記念館",
    "prefecture": "岩手県",
    "postCode": "023-0053",
    "address": "岩手県奥州市水沢区日高小路13",
    "city": "おうしゅう",
    "image": "",
    "url": "",
    "latlng": "[39.1423647, 141.134495]",
    "lat": 39.1423647,
    "lng": 141.134495,
    "isClosed": ""
  },
  {
    "id": "iwate-museum-91",
    "type": "museum",
    "name": "江釣子村史跡センター・展示室",
    "prefecture": "岩手県",
    "postCode": "024-0071",
    "address": "岩手県北上市上江釣子20地割146",
    "city": "きたかみ",
    "image": "",
    "url": "",
    "latlng": "[39.2930424, 141.081224]",
    "lat": 39.2930424,
    "lng": 141.081224,
    "isClosed": ""
  },
  {
    "id": "iwate-museum-92",
    "type": "museum",
    "name": "洋野町立種市歴史民俗資料館",
    "prefecture": "岩手県",
    "postCode": "028-7914",
    "address": "岩手県洋野町種市第23地割27-1",
    "city": "ひろの",
    "image": "",
    "url": "",
    "latlng": "[40.4071587, 141.718174]",
    "lat": 40.4071587,
    "lng": 141.718174,
    "isClosed": ""
  },
  {
    "id": "iwate-museum-93",
    "type": "museum",
    "name": "浄法寺歴史民俗資料館",
    "prefecture": "岩手県",
    "postCode": "028-6802",
    "address": "岩手県二戸市浄法寺町御山御山久保35",
    "city": "にのへ",
    "image": "",
    "url": "http://www.city.ninohe.iwate.jp/kyouiku/kyouikusisetu/j%20minzoku.html",
    "latlng": "[40.196215, 141.1831713]",
    "lat": 40.196215,
    "lng": 141.1831713,
    "isClosed": ""
  },
  {
    "id": "iwate-museum-94",
    "type": "museum",
    "name": "淡水魚具森の資料館",
    "prefecture": "岩手県",
    "postCode": "028-7111",
    "address": "岩手県八幡平市大更19-73-2",
    "city": "はちまんたい",
    "image": "",
    "url": "",
    "latlng": "[39.9125114, 141.0960776]",
    "lat": 39.9125114,
    "lng": 141.0960776,
    "isClosed": ""
  },
  {
    "id": "iwate-museum-95",
    "type": "museum",
    "name": "湯本博物館",
    "prefecture": "岩手県",
    "postCode": "029-5500",
    "address": "岩手県西和賀町湯本30地割82",
    "city": "にしわが",
    "image": "",
    "url": "",
    "latlng": "[39.3443629, 140.7720985]",
    "lat": 39.3443629,
    "lng": 140.7720985,
    "isClosed": ""
  },
  {
    "id": "iwate-museum-96",
    "type": "museum",
    "name": "滝沢村埋蔵文化財センター",
    "prefecture": "岩手県",
    "postCode": "020-0173",
    "address": "岩手県滝沢村滝沢湯舟沢327－13",
    "city": "たきざわ",
    "image": "",
    "url": "http://www.vill.takizawa.iwate.jp/maibun",
    "latlng": "[39.7806851, 141.0977356]",
    "lat": 39.7806851,
    "lng": 141.0977356,
    "isClosed": ""
  },
  {
    "id": "iwate-museum-97",
    "type": "museum",
    "name": "玉山歴史民俗資料館",
    "prefecture": "岩手県",
    "postCode": "028-4123",
    "address": "岩手県盛岡市玉山区巻堀33-2",
    "city": "もりおか",
    "image": "",
    "url": "",
    "latlng": "[39.83023, 141.2267345]",
    "lat": 39.83023,
    "lng": 141.2267345,
    "isClosed": ""
  },
  {
    "id": "iwate-museum-98",
    "type": "museum",
    "name": "玉里民俗資料館",
    "prefecture": "岩手県",
    "postCode": "023-1134",
    "address": "岩手県奥州市江刺区玉里青條12",
    "city": "おうしゅう",
    "image": "",
    "url": "",
    "latlng": "[39.1803401, 141.1816366]",
    "lat": 39.1803401,
    "lng": 141.1816366,
    "isClosed": ""
  },
  {
    "id": "iwate-museum-99",
    "type": "museum",
    "name": "田中舘愛橘記念科学館",
    "prefecture": "岩手県",
    "postCode": "028-6103",
    "address": "岩手県二戸市石切所荷渡55",
    "city": "にのへ",
    "image": "",
    "url": "http://www.civic.ninohe.iwate.jp/index.html",
    "latlng": "[40.268657, 141.2930361]",
    "lat": 40.268657,
    "lng": 141.2930361,
    "isClosed": ""
  },
  {
    "id": "iwate-museum-100",
    "type": "museum",
    "name": "田野畑村民俗資料館",
    "prefecture": "岩手県",
    "postCode": "028-8407",
    "address": "岩手県田野畑村田野畑128－9",
    "city": "たのはた",
    "image": "",
    "url": "http://www.vill.tanohata.iwate.jp/",
    "latlng": "[39.9317248, 141.8904147]",
    "lat": 39.9317248,
    "lng": 141.8904147,
    "isClosed": ""
  },
  {
    "id": "iwate-museum-101",
    "type": "museum",
    "name": "盛岡市都南歴史民俗資料館",
    "prefecture": "岩手県",
    "postCode": "020-0842",
    "address": "岩手県盛岡市湯沢1地割1－38",
    "city": "もりおか",
    "image": "",
    "url": "http://www.city.morioka.iwate.jp/kokyoshisetsu/kinenkan/tonanrekishi/003992.html",
    "latlng": "[39.6419152, 141.0824701]",
    "lat": 39.6419152,
    "lng": 141.0824701,
    "isClosed": ""
  },
  {
    "id": "iwate-museum-102",
    "type": "museum",
    "name": "矢巾町歴史民俗資料館",
    "prefecture": "岩手県",
    "postCode": "028-3603",
    "address": "岩手県矢巾町西徳田3-188-2",
    "city": "やはば",
    "image": "",
    "url": "http://www.town.yahaba.iwate.jp/siryoukann/",
    "latlng": "[39.609745, 141.1699041]",
    "lat": 39.609745,
    "lng": 141.1699041,
    "isClosed": ""
  },
  {
    "id": "iwate-museum-103",
    "type": "museum",
    "name": "石と賢治のミュージアム",
    "prefecture": "岩手県",
    "postCode": "029-0303",
    "address": "岩手県一関市東山町松川字滝ノ沢149-1",
    "city": "いちのせき",
    "image": "",
    "url": "http://www.city.ichinoseki.iwate.jp/index.cfm/6,0,149,html",
    "latlng": "[38.9786821, 141.2384239]",
    "lat": 38.9786821,
    "lng": 141.2384239,
    "isClosed": ""
  },
  {
    "id": "iwate-museum-104",
    "type": "museum",
    "name": "石川啄木記念館",
    "prefecture": "岩手県",
    "postCode": "028-4132",
    "address": "岩手県盛岡市玉山区渋民字渋民9",
    "city": "もりおか",
    "image": "",
    "url": "http://www.takuboku.com/",
    "latlng": "[39.8460525, 141.171234]",
    "lat": 39.8460525,
    "lng": 141.171234,
    "isClosed": ""
  },
  {
    "id": "iwate-museum-105",
    "type": "museum",
    "name": "石鳥谷歴史民俗資料館",
    "prefecture": "岩手県",
    "postCode": "028-3171",
    "address": "岩手県花巻市石鳥谷町中寺林第7地割7番地1",
    "city": "はなまき",
    "image": "",
    "url": "https://www.city.hanamaki.iwate.jp/bunkasports/bunka/sonotashisetsu/1002030.html",
    "latlng": "[39.4823758, 141.1425297]",
    "lat": 39.4823758,
    "lng": 141.1425297,
    "isClosed": ""
  },
  {
    "id": "iwate-museum-106",
    "type": "museum",
    "name": "石鳥谷町立歴史民俗資料館",
    "prefecture": "岩手県",
    "postCode": "028-3171",
    "address": "岩手県花巻市石鳥谷町中寺林7-7-1",
    "city": "はなまき",
    "image": "",
    "url": "",
    "latlng": "[39.4724177, 141.1378579]",
    "lat": 39.4724177,
    "lng": 141.1378579,
    "isClosed": ""
  },
  {
    "id": "iwate-museum-107",
    "type": "museum",
    "name": "福田繁雄デザイン館",
    "prefecture": "岩手県",
    "postCode": "028-6103",
    "address": "岩手県二戸市石切所荷渡６－２ 二戸市シビックセンター内２階",
    "city": "にのへ",
    "image": "",
    "url": "https://www.nbsk.or.jp/fukuda/",
    "latlng": "[40.2688929, 141.2948004]",
    "lat": 40.2688929,
    "lng": 141.2948004,
    "isClosed": ""
  },
  {
    "id": "iwate-museum-108",
    "type": "museum",
    "name": "胆沢ダム学習館",
    "prefecture": "岩手県",
    "postCode": "023-0403",
    "address": "岩手県奥州市胆沢区若柳馬留81-1",
    "city": "おうしゅう",
    "image": "",
    "url": "http://www.thr.mlit.go.jp/isawa/fureai/",
    "latlng": "[39.0846538, 141.0837631]",
    "lat": 39.0846538,
    "lng": 141.0837631,
    "isClosed": ""
  },
  {
    "id": "iwate-museum-109",
    "type": "museum",
    "name": "芦東山記念館",
    "prefecture": "岩手県",
    "postCode": "029-0521",
    "address": "岩手県一関市大東町渋民伊勢堂71",
    "city": "いちのせき",
    "image": "",
    "url": "http://www.city.ichinoseki.iwate.jp/index.cfm/6,9265,112,92,html",
    "latlng": "[39.0200602, 141.345186]",
    "lat": 39.0200602,
    "lng": 141.345186,
    "isClosed": ""
  },
  {
    "id": "iwate-museum-110",
    "type": "museum",
    "name": "花巻新渡戸記念館",
    "prefecture": "岩手県",
    "postCode": "025-0014",
    "address": "岩手県花巻市高松9-21",
    "city": "はなまき",
    "image": "",
    "url": "http://www.city.hanamaki.iwate.jp/sightseeing/nitobe/index.html",
    "latlng": "[39.3862671, 141.1743876]",
    "lat": 39.3862671,
    "lng": 141.1743876,
    "isClosed": ""
  },
  {
    "id": "iwate-museum-111",
    "type": "museum",
    "name": "西和賀町歴史民俗資料館",
    "prefecture": "岩手県",
    "postCode": "029-5512",
    "address": "岩手県西和賀町西和賀町上野々39-190-2",
    "city": "にしわが",
    "image": "",
    "url": "http://www.town.nishiwaga.lg.jp/index.cfm/13,3762,42,47,html",
    "latlng": "[39.3018566, 140.7952467]",
    "lat": 39.3018566,
    "lng": 140.7952467,
    "isClosed": ""
  },
  {
    "id": "iwate-museum-112",
    "type": "museum",
    "name": "軽米町歴史民俗資料館",
    "prefecture": "岩手県",
    "postCode": "028-6302",
    "address": "岩手県軽米町軽米9-53-1",
    "city": "かるまい",
    "image": "",
    "url": "http://www.town.karumai.iwate.jp/chiiki/shisetsu/kyoikubunkataiiku/",
    "latlng": "[40.3248821, 141.4433364]",
    "lat": 40.3248821,
    "lng": 141.4433364,
    "isClosed": ""
  },
  {
    "id": "iwate-museum-113",
    "type": "museum",
    "name": "遠野ふるさと村",
    "prefecture": "岩手県",
    "postCode": "028-0661",
    "address": "岩手県遠野市附馬牛町上附馬牛5-89-1",
    "city": "とおの",
    "image": "",
    "url": "http://www.tonotv.com/members/furusatomura/",
    "latlng": "[39.3960096, 141.5403655]",
    "lat": 39.3960096,
    "lng": 141.5403655,
    "isClosed": ""
  },
  {
    "id": "iwate-museum-114",
    "type": "museum",
    "name": "遠野伝承園",
    "prefecture": "岩手県",
    "postCode": "028-0555",
    "address": "岩手県遠野市土淵町土淵6地割5－1",
    "city": "とおの",
    "image": "",
    "url": "http://www.densyoen.jp/",
    "latlng": "[39.35736350000001, 141.569408]",
    "lat": 39.35736350000001,
    "lng": 141.569408,
    "isClosed": ""
  },
  {
    "id": "iwate-museum-115",
    "type": "museum",
    "name": "遠野郷土人形民芸村",
    "prefecture": "岩手県",
    "postCode": "028-0501",
    "address": "岩手県遠野市青笹町糠前42－8－6",
    "city": "とおの",
    "image": "",
    "url": "",
    "latlng": "[39.3305291, 141.6462109]",
    "lat": 39.3305291,
    "lng": 141.6462109,
    "isClosed": ""
  },
  {
    "id": "iwate-museum-116",
    "type": "museum",
    "name": "野村胡堂・あらえびす記念館",
    "prefecture": "岩手県",
    "postCode": "028-3315",
    "address": "岩手県紫波町彦部暮坪193-1",
    "city": "しわ",
    "image": "",
    "url": "http://kodo.or.tv/",
    "latlng": "[39.5309853, 141.1925906]",
    "lat": 39.5309853,
    "lng": 141.1925906,
    "isClosed": ""
  },
  {
    "id": "iwate-museum-117",
    "type": "museum",
    "name": "金ケ崎町立千田正記念館",
    "prefecture": "岩手県",
    "postCode": "029-4502",
    "address": "岩手県金ケ崎町三ヶ尻谷地中98",
    "city": "かねがさき",
    "image": "",
    "url": "",
    "latlng": "[39.2142561, 141.112129]",
    "lat": 39.2142561,
    "lng": 141.112129,
    "isClosed": ""
  },
  {
    "id": "iwate-museum-118",
    "type": "museum",
    "name": "釜石市立　鉄の歴史館",
    "prefecture": "岩手県",
    "postCode": "026-0002",
    "address": "岩手県釜石市大平町3-12-1",
    "city": "かまいし",
    "image": "",
    "url": "http://www.city.kamaishi.iwate.jp/rekishikan/",
    "latlng": "[39.2555898, 141.8942679]",
    "lat": 39.2555898,
    "lng": 141.8942679,
    "isClosed": ""
  },
  {
    "id": "iwate-museum-119",
    "type": "museum",
    "name": "釜石市郷土資料館",
    "prefecture": "岩手県",
    "postCode": "026-0031",
    "address": "岩手県釜石市鈴子町15-2 釜石市教育センター北側",
    "city": "かまいし",
    "image": "",
    "url": "http://www.city.kamaishi.iwate.jp/kyoudo/index.html",
    "latlng": "[39.2744282, 141.8695539]",
    "lat": 39.2744282,
    "lng": 141.8695539,
    "isClosed": ""
  },
  {
    "id": "iwate-museum-120",
    "type": "museum",
    "name": "陸前高田市海と貝のミュージアム【休館中】",
    "prefecture": "岩手県",
    "postCode": "029-2205",
    "address": "岩手県陸前高田市高田町下宿55",
    "city": "りくぜんたかた",
    "image": "",
    "url": "",
    "latlng": "[39.0080103, 141.6444482]",
    "lat": 39.0080103,
    "lng": 141.6444482,
    "isClosed": ""
  },
  {
    "id": "iwate-museum-121",
    "type": "museum",
    "name": "陸奥資料館",
    "prefecture": "岩手県",
    "postCode": "028-3622",
    "address": "岩手県矢巾町上矢次4－5－1",
    "city": "やはば",
    "image": "",
    "url": "",
    "latlng": "[39.6211354, 141.1355377]",
    "lat": 39.6211354,
    "lng": 141.1355377,
    "isClosed": ""
  },
  {
    "id": "iwate-museum-122",
    "type": "museum",
    "name": "雪谷川フォリストパーク軽米",
    "prefecture": "岩手県",
    "postCode": "028-6411",
    "address": "岩手県軽米町小軽米20－3－1",
    "city": "かるまい",
    "image": "",
    "url": "",
    "latlng": "[40.2589098, 141.5587589]",
    "lat": 40.2589098,
    "lng": 141.5587589,
    "isClosed": ""
  },
  {
    "id": "iwate-museum-123",
    "type": "museum",
    "name": "雫石町歴史民俗資料館",
    "prefecture": "岩手県",
    "postCode": "020-0572",
    "address": "岩手県雫石町西安庭第15地割39－7",
    "city": "しずくいし",
    "image": "",
    "url": "",
    "latlng": "[39.673412, 140.9872834]",
    "lat": 39.673412,
    "lng": 140.9872834,
    "isClosed": ""
  },
  {
    "id": "iwate-museum-124",
    "type": "museum",
    "name": "高村光太郎記念館",
    "prefecture": "岩手県",
    "postCode": "025-0037",
    "address": "岩手県花巻市太田3-85-1",
    "city": "はなまき",
    "image": "",
    "url": "https://www.hanamaki-takamura-kotaro.jp/",
    "latlng": "[39.3871234, 141.0211865]",
    "lat": 39.3871234,
    "lng": 141.0211865,
    "isClosed": ""
  },
  {
    "id": "iwate-museum-125",
    "type": "museum",
    "name": "高村記念館",
    "prefecture": "岩手県",
    "postCode": "025-0037",
    "address": "岩手県花巻市太田3－91",
    "city": "はなまき",
    "image": "",
    "url": "",
    "latlng": "[39.3871234, 141.0211865]",
    "lat": 39.3871234,
    "lng": 141.0211865,
    "isClosed": ""
  },
  {
    "id": "iwate-museum-126",
    "type": "museum",
    "name": "高野長英記念館",
    "prefecture": "岩手県",
    "postCode": "023-0857",
    "address": "岩手県奥州市水沢区中上野町1-9",
    "city": "おうしゅう",
    "image": "",
    "url": "http://www.city.oshu.iwate.jp/syuzou01/",
    "latlng": "[39.1526189, 141.1314791]",
    "lat": 39.1526189,
    "lng": 141.1314791,
    "isClosed": ""
  },
  {
    "id": "iwate-museum-127",
    "type": "museum",
    "name": "龍泉新洞科学館",
    "prefecture": "岩手県",
    "postCode": "027-0501",
    "address": "岩手県岩泉町岩泉小屋敷地内",
    "city": "いわいずみ",
    "image": "",
    "url": "",
    "latlng": "[39.85896839999999, 141.7885382]",
    "lat": 39.85896839999999,
    "lng": 141.7885382,
    "isClosed": ""
  }
]
