[
  {
    "id": "hiroshima-art-1",
    "type": "art",
    "name": "尾道市立美術館",
    "prefecture": "広島県",
    "postCode": "722-0032",
    "address": "広島県尾道市西土堂町17−19",
    "city": "おのみち",
    "image": "",
    "url": "https://www.onomichi-museum.jp/",
    "latlng": "[34.4099517, 133.1957558]",
    "lat": 34.4099517,
    "lng": 133.1957558,
    "isClosed": ""
  },
  {
    "id": "hiroshima-art-2",
    "type": "art",
    "name": "平山郁夫美術館",
    "prefecture": "広島県",
    "postCode": "722-2413",
    "address": "広島県尾道市瀬戸田町沢200−2",
    "city": "おのみち",
    "image": "",
    "url": "https://hirayama-museum.or.jp/",
    "latlng": "[34.3057109, 133.0904582]",
    "lat": 34.3057109,
    "lng": 133.0904582,
    "isClosed": ""
  },
  {
    "id": "hiroshima-art-3",
    "type": "art",
    "name": "呉市立美術館",
    "prefecture": "広島県",
    "postCode": "737-0028",
    "address": "広島県呉市幸町4 入船山公園内",
    "city": "くれ",
    "image": "",
    "url": "https://www.kure-bi.jp/",
    "latlng": "[34.2402778, 132.5638889]",
    "lat": 34.2402778,
    "lng": 132.5638889,
    "isClosed": ""
  },
  {
    "id": "hiroshima-art-4",
    "type": "art",
    "name": "ウッドワン美術館",
    "prefecture": "広島県",
    "postCode": "738-0301",
    "address": "広島県廿日市市吉和4278",
    "city": "はつかいち",
    "image": "",
    "url": "https://www.woodone-museum.jp/",
    "latlng": "[34.4988175, 132.1439958]",
    "lat": 34.4988175,
    "lng": 132.1439958,
    "isClosed": ""
  },
  {
    "id": "hiroshima-art-5",
    "type": "art",
    "name": "海の見える杜美術館",
    "prefecture": "広島県",
    "postCode": "739-0488",
    "address": "広島県廿日市市大野亀ケ岡10701",
    "city": "はつかいち",
    "image": "",
    "url": "https://www.umam.jp/",
    "latlng": "[34.3057905, 132.2837075]",
    "lat": 34.3057905,
    "lng": 132.2837075,
    "isClosed": ""
  },
  {
    "id": "hiroshima-art-6",
    "type": "art",
    "name": "泉美術館",
    "prefecture": "広島県",
    "postCode": "733-0833",
    "address": "広島県広島市西区商工センター2丁目3−1 エクセル 5階",
    "city": "ひろしま",
    "image": "",
    "url": "http://www.izumi-museum.jp/",
    "latlng": "[34.3733509, 132.3990137]",
    "lat": 34.3733509,
    "lng": 132.3990137,
    "isClosed": ""
  },
  {
    "id": "hiroshima-art-7",
    "type": "art",
    "name": "広島県立美術館",
    "prefecture": "広島県",
    "postCode": "730-0014",
    "address": "広島県広島市中区上幟町2−22",
    "city": "ひろしま",
    "image": "",
    "url": "https://www.hpam.jp/",
    "latlng": "[34.3998807, 132.4662431]",
    "lat": 34.3998807,
    "lng": 132.4662431,
    "isClosed": ""
  },
  {
    "id": "hiroshima-art-8",
    "type": "art",
    "name": "ひろしま美術館",
    "prefecture": "広島県",
    "postCode": "730-0011",
    "address": "広島県広島市中区基町3−2",
    "city": "ひろしま",
    "image": "",
    "url": "https://www.hiroshima-museum.jp/",
    "latlng": "[34.3986294, 132.458096]",
    "lat": 34.3986294,
    "lng": 132.458096,
    "isClosed": ""
  },
  {
    "id": "hiroshima-art-9",
    "type": "art",
    "name": "しぶや美術館",
    "prefecture": "広島県",
    "postCode": "720-0056",
    "address": "広島県福山市本町8−27",
    "city": "ふくやま",
    "image": "",
    "url": "https://vessel-group.co.jp/shibuya-museum/",
    "latlng": "[34.4936274, 133.3636685]",
    "lat": 34.4936274,
    "lng": 133.3636685,
    "isClosed": ""
  },
  {
    "id": "hiroshima-art-10",
    "type": "art",
    "name": "ふくやま美術館",
    "prefecture": "広島県",
    "postCode": "720-0067",
    "address": "広島県福山市西町2丁目4−3",
    "city": "ふくやま",
    "image": "",
    "url": "https://www.city.fukuyama.hiroshima.jp/site/fukuyama-museum/",
    "latlng": "[34.4909843, 133.3590531]",
    "lat": 34.4909843,
    "lng": 133.3590531,
    "isClosed": ""
  },
  {
    "id": "hiroshima-art-11",
    "type": "art",
    "name": "東広島市立美術館",
    "prefecture": "広島県",
    "postCode": "739-0015",
    "address": "広島県東広島市西条栄町9−1",
    "city": "ひがしひろしま",
    "image": "",
    "url": "https://hhmoa.jp/",
    "latlng": "[34.4271551, 132.7423159]",
    "lat": 34.4271551,
    "lng": 132.7423159,
    "isClosed": ""
  },
  {
    "id": "hiroshima-art-12",
    "type": "art",
    "name": "下瀬美術館",
    "prefecture": "広島県",
    "postCode": "739-0622",
    "address": "広島県大竹市晴海2丁目10−50",
    "city": "おおたけ",
    "image": "",
    "url": "https://www.simose-museum.jp/",
    "latlng": "[34.2415568, 132.2273761]",
    "lat": 34.2415568,
    "lng": 132.2273761,
    "isClosed": ""
  },
  {
    "id": "hiroshima-art-13",
    "type": "art",
    "name": "広島市現代美術館",
    "prefecture": "広島県",
    "postCode": "732-0815",
    "address": "広島県広島市南区比治山公園1−1",
    "city": "ひろしま",
    "image": "",
    "url": "https://www.hiroshima-moca.jp/",
    "latlng": "[34.3868138, 132.4737717]",
    "lat": 34.3868138,
    "lng": 132.4737717,
    "isClosed": ""
  }
]