[
  {
    "id": "hiroshima-museum-1",
    "type": "museum",
    "name": "安芸高田市歴史民俗博物館",
    "prefecture": "広島県",
    "postCode": "731-0501",
    "address": "広島県安芸高田市吉田町吉田278−1",
    "city": "あきたかた",
    "image": "",
    "url": "https://www.akitakata.jp/ja/hakubutsukan/",
    "latlng": "[34.6706228, 132.7015768]",
    "lat": 34.6706228,
    "lng": 132.7015768,
    "isClosed": ""
  },
  {
    "id": "hiroshima-museum-2",
    "type": "museum",
    "name": "耕三寺博物館",
    "prefecture": "広島県",
    "postCode": "722-2411",
    "address": "広島県尾道市瀬戸田町瀬戸田553−2 未来心の丘",
    "city": "おのみち",
    "image": "",
    "url": "https://www.kousanji.or.jp/",
    "latlng": "[34.3032374, 133.0889489]",
    "lat": 34.3032374,
    "lng": 133.0889489,
    "isClosed": ""
  },
  {
    "id": "hiroshima-museum-3",
    "type": "museum",
    "name": "庄原市帝釈峡博物展示施設時悠館",
    "prefecture": "広島県",
    "postCode": "729-5244",
    "address": "広島県庄原市東城町帝釈未渡1909 時悠館",
    "city": "しょうばら",
    "image": "",
    "url": "https://www.city.shobara.hiroshima.jp/main/education/shisetsu/cat01/cat/index.html",
    "latlng": "[34.8650996, 133.2033848]",
    "lat": 34.8650996,
    "lng": 133.2033848,
    "isClosed": ""
  },
  {
    "id": "hiroshima-museum-4",
    "type": "museum",
    "name": "庄原市立比和自然科学博物館",
    "prefecture": "広島県",
    "postCode": "727-0301",
    "address": "広島県庄原市比和町比和1119−1",
    "city": "しょうばら",
    "image": "",
    "url": "https://www.city.shobara.hiroshima.jp/main/education/shisetsu/cat01/01/",
    "latlng": "[34.9838839, 132.9861541]",
    "lat": 34.9838839,
    "lng": 132.9861541,
    "isClosed": ""
  },
  {
    "id": "hiroshima-museum-5",
    "type": "museum",
    "name": "厳島神社宝物館",
    "prefecture": "広島県",
    "postCode": "739-0588",
    "address": "広島県廿日市市宮島町",
    "city": "はつかいち",
    "image": "",
    "url": "",
    "latlng": "[34.29753609999999, 132.3216115]",
    "lat": 34.29753609999999,
    "lng": 132.3216115,
    "isClosed": ""
  },
  {
    "id": "hiroshima-museum-6",
    "type": "museum",
    "name": "仙石庭園庭石ミュージアム",
    "prefecture": "広島県",
    "postCode": "739-2111",
    "address": "広島県東広島市高屋町高屋堀1589−7 仙石庭園",
    "city": "ひがしひろしま",
    "image": "",
    "url": "https://senseki.org/",
    "latlng": "[34.4708527, 132.7911638]",
    "lat": 34.4708527,
    "lng": 132.7911638,
    "isClosed": ""
  },
  {
    "id": "hiroshima-museum-7",
    "type": "museum",
    "name": "広島市江波山気象館",
    "prefecture": "広島県",
    "postCode": "730-0835",
    "address": "広島県広島市中区江波南1丁目40−1",
    "city": "ひろしま",
    "image": "",
    "url": "https://www.ebayama.jp/",
    "latlng": "[34.3661897, 132.4351202]",
    "lat": 34.3661897,
    "lng": 132.4351202,
    "isClosed": ""
  },
  {
    "id": "hiroshima-museum-8",
    "type": "museum",
    "name": "広島市郷土資料館",
    "prefecture": "広島県",
    "postCode": "734-0015",
    "address": "広島県広島市南区宇品御幸2丁目6−20",
    "city": "ひろしま",
    "image": "",
    "url": "http://www.cf.city.hiroshima.jp/kyodo/",
    "latlng": "[34.3660264, 132.4618518]",
    "lat": 34.3660264,
    "lng": 132.4618518,
    "isClosed": ""
  },
  {
    "id": "hiroshima-museum-9",
    "type": "museum",
    "name": "広島市交通科学館（ヌマジ交通ミュージアム）",
    "prefecture": "広島県",
    "postCode": "731-0143",
    "address": "広島県広島市安佐南区長楽寺2丁目12−2",
    "city": "ひろしま",
    "image": "",
    "url": "https://www.vehicle.city.hiroshima.jp/",
    "latlng": "[34.4706299, 132.4282292]",
    "lat": 34.4706299,
    "lng": 132.4282292,
    "isClosed": ""
  },
  {
    "id": "hiroshima-museum-10",
    "type": "museum",
    "name": "広島市こども文化科学館",
    "prefecture": "広島県",
    "postCode": "730-0011",
    "address": "広島県広島市中区基町5−83",
    "city": "ひろしま",
    "image": "",
    "url": "http://www.pyonta.city.hiroshima.jp/",
    "latlng": "[34.3985476, 132.4537187]",
    "lat": 34.3985476,
    "lng": 132.4537187,
    "isClosed": ""
  },
  {
    "id": "hiroshima-museum-11",
    "type": "museum",
    "name": "頼山陽史跡資料館（広島県立歴史博物館分館）",
    "prefecture": "広島県",
    "postCode": "730-0036",
    "address": "広島県広島市中区袋町5−15",
    "city": "ひろしま",
    "image": "",
    "url": "https://www.pref.hiroshima.lg.jp/site/raisanyou/",
    "latlng": "[34.39152139999999, 132.457191]",
    "lat": 34.39152139999999,
    "lng": 132.457191,
    "isClosed": ""
  },
  {
    "id": "hiroshima-museum-12",
    "type": "museum",
    "name": "広島県立歴史博物館",
    "prefecture": "広島県",
    "postCode": "720-0067",
    "address": "広島県福山市西町2丁目4−1",
    "city": "ふくやま",
    "image": "",
    "url": "https://www.pref.hiroshima.lg.jp/site/rekishih/",
    "latlng": "[34.4897245, 133.3589247]",
    "lat": 34.4897245,
    "lng": 133.3589247,
    "isClosed": ""
  },
  {
    "id": "hiroshima-museum-13",
    "type": "museum",
    "name": "福山市しんいち歴史民俗博物館",
    "prefecture": "広島県",
    "postCode": "729-3103",
    "address": "広島県福山市新市町新市916",
    "city": "ふくやま",
    "image": "",
    "url": "https://www.city.fukuyama.hiroshima.jp/soshiki/shinichi-rekimin/",
    "latlng": "[34.5581035, 133.2756285]",
    "lat": 34.5581035,
    "lng": 133.2756285,
    "isClosed": ""
  },
  {
    "id": "hiroshima-museum-14",
    "type": "museum",
    "name": "福山自動車時計博物館",
    "prefecture": "広島県",
    "postCode": "720-0073",
    "address": "広島県福山市北吉津町3丁目1−22",
    "city": "ふくやま",
    "image": "",
    "url": "https://www.facm.net/",
    "latlng": "[34.4978385, 133.3630593]",
    "lat": 34.4978385,
    "lng": 133.3630593,
    "isClosed": ""
  },
  {
    "id": "hiroshima-museum-15",
    "type": "museum",
    "name": "福山市立福山城博物館",
    "prefecture": "広島県",
    "postCode": "720-0061",
    "address": "広島県福山市丸之内1丁目8−3",
    "city": "ふくやま",
    "image": "",
    "url": "https://fukuyamajo.jp/",
    "latlng": "[34.4908101, 133.3613878]",
    "lat": 34.4908101,
    "lng": 133.3613878,
    "isClosed": ""
  },
  {
    "id": "hiroshima-museum-16",
    "type": "museum",
    "name": "広島県立歴史民俗資料館",
    "prefecture": "広島県",
    "postCode": "729-6216",
    "address": "広島県三次市小田幸町122",
    "city": "みよし",
    "image": "",
    "url": "https://www.pref.hiroshima.lg.jp/site/rekimin/",
    "latlng": "[34.7624796, 132.8996856]",
    "lat": 34.7624796,
    "lng": 132.8996856,
    "isClosed": ""
  },
  {
    "id": "hiroshima-museum-17",
    "type": "museum",
    "name": "筆の里工房",
    "prefecture": "広島県",
    "postCode": "731-4214",
    "address": "広島県安芸郡熊野町中溝5丁目17−1",
    "city": "くまの",
    "image": "",
    "url": "https://fude.or.jp/jp/",
    "latlng": "[34.3426777, 132.5753882]",
    "lat": 34.3426777,
    "lng": 132.5753882,
    "isClosed": ""
  },
  {
    "id": "hiroshima-museum-18",
    "type": "museum",
    "name": "アートギャラリーミヤウチ",
    "prefecture": "広島県",
    "postCode": "738-0034",
    "address": "広島県廿日市市宮内4347−2",
    "city": "はつかいち",
    "image": "",
    "url": "https://miyauchiaf.or.jp/",
    "latlng": "[34.3425772, 132.3028217]",
    "lat": 34.3425772,
    "lng": 132.3028217,
    "isClosed": ""
  },
  {
    "id": "hiroshima-museum-19",
    "type": "museum",
    "name": "広島大学総合博物館",
    "prefecture": "広島県",
    "postCode": "739-0046",
    "address": "広島県東広島市鏡山1丁目1−1 総合博物館本館",
    "city": "ひがしひろしま",
    "image": "",
    "url": "https://www.digital-museum.hiroshima-u.ac.jp/~humuseum/",
    "latlng": "[34.4030199, 132.7105288]",
    "lat": 34.4030199,
    "lng": 132.7105288,
    "isClosed": ""
  },
  {
    "id": "hiroshima-museum-20",
    "type": "museum",
    "name": "広島城",
    "prefecture": "広島県",
    "postCode": "730-0011",
    "address": "広島県広島市中区基町21−1",
    "city": "ひろしま",
    "image": "",
    "url": "https://www.rijo-castle.jp/",
    "latlng": "[34.4027297, 132.4590573]",
    "lat": 34.4027297,
    "lng": 132.4590573,
    "isClosed": ""
  },
  {
    "id": "hiroshima-museum-21",
    "type": "museum",
    "name": "広島市立大学芸術資料館",
    "prefecture": "広島県",
    "postCode": "731-3166",
    "address": "広島県広島市安佐南区大塚東3丁目4−1",
    "city": "ひろしま",
    "image": "",
    "url": "http://museum.hiroshima-cu.ac.jp/index.cgi/ja",
    "latlng": "[34.4403106, 132.4158017]",
    "lat": 34.4403106,
    "lng": 132.4158017,
    "isClosed": ""
  }
]