[
  {
    "id": "akita-art-1",
    "type": "art",
    "name": "秋田県立美術館",
    "prefecture": "秋田県",
    "postCode": "010-0001",
    "address": "秋田県秋田市中通1丁目4−2",
    "city": "あきた",
    "image": "",
    "url": "https://www.akita-museum-of-art.jp/index.htm",
    "latlng": "[39.7174154, 140.121438]",
    "lat": 39.7174154,
    "lng": 140.121438,
    "isClosed": ""
  },
  {
    "id": "akita-art-2",
    "type": "art",
    "name": "秋田市立千秋美術館",
    "prefecture": "秋田県",
    "postCode": "010-0001",
    "address": "秋田県秋田市中通2丁目3−8",
    "city": "あきた",
    "image": "",
    "url": "https://www.city.akita.lg.jp/kanko/kanrenshisetsu/1003643/index.html",
    "latlng": "[39.71741859999999, 140.1246133]",
    "lat": 39.71741859999999,
    "lng": 140.1246133,
    "isClosed": ""
  },
  {
    "id": "akita-art-3",
    "type": "art",
    "name": "秋田県立近代美術館",
    "prefecture": "秋田県",
    "postCode": "013-0064",
    "address": "秋田県横手市赤坂富ケ沢62−46",
    "city": "よこ",
    "image": "",
    "url": "https://common3.pref.akita.lg.jp/kinbi/",
    "latlng": "[39.2935109, 140.5458744]",
    "lat": 39.2935109,
    "lng": 140.5458744,
    "isClosed": ""
  },
  {
    "id": "akita-art-4",
    "type": "art",
    "name": "横手市増田まんが美術館",
    "prefecture": "秋田県",
    "postCode": "019-0701",
    "address": "秋田県横手市増田町増田新町285",
    "city": "ますだ",
    "image": "",
    "url": "https://manga-museum.com/",
    "latlng": "[39.204677, 140.5504385]",
    "lat": 39.204677,
    "lng": 140.5504385,
    "isClosed": ""
  },
  {
    "id": "akita-art-5",
    "type": "art",
    "name": "角館町平福記念美術館",
    "prefecture": "秋田県",
    "postCode": "014-0334",
    "address": "秋田県仙北市角館町表町上丁4-4",
    "city": "せんぼく",
    "image": "",
    "url": "http://www.city.semboku.akita.jp/sightseeing/hirafuku/index.html",
    "latlng": "[39.6019599, 140.5600877]",
    "lat": 39.6019599,
    "lng": 140.5600877,
    "isClosed": ""
  },
  {
    "id": "akita-art-6",
    "type": "art",
    "name": "金銀杢目金美術館",
    "prefecture": "秋田県",
    "postCode": "014-0323",
    "address": "秋田県仙北市角館町横町14-1",
    "city": "せんぼく",
    "image": "",
    "url": "",
    "latlng": "[39.5960274, 140.5627891]",
    "lat": 39.5960274,
    "lng": 140.5627891,
    "isClosed": ""
  },
  {
    "id": "akita-art-7",
    "type": "art",
    "name": "羽州路・入田美術館",
    "prefecture": "秋田県",
    "postCode": "014-0317",
    "address": "秋田県仙北市角館町下中町21",
    "city": "せんぼく",
    "image": "",
    "url": "",
    "latlng": "[39.5922517, 140.5627127]",
    "lat": 39.5922517,
    "lng": 140.5627127,
    "isClosed": ""
  },
  {
    "id": "akita-art-8",
    "type": "art",
    "name": "天馬美術館",
    "prefecture": "秋田県",
    "postCode": "012-1125",
    "address": "秋田県羽後町野中水無19-1",
    "city": "うご",
    "image": "",
    "url": "",
    "latlng": "[39.1772085, 140.4353634]",
    "lat": 39.1772085,
    "lng": 140.4353634,
    "isClosed": ""
  },
  {
    "id": "akita-art-9",
    "type": "art",
    "name": "大村美術館",
    "prefecture": "秋田県",
    "postCode": "014-0326",
    "address": "秋田県仙北市角館町山根町39-1",
    "city": "せんぼく",
    "image": "",
    "url": "http://www007.upp.so-net.ne.jp/lalique/museum/",
    "latlng": "[39.5991563, 140.5630559]",
    "lat": 39.5991563,
    "lng": 140.5630559,
    "isClosed": ""
  }
]