[
  {
    "id": "akita-museum-1",
    "type": "museum",
    "name": "秋田県立博物館",
    "prefecture": "秋田県",
    "postCode": "010-0124",
    "address": "秋田県秋田市金足鳰崎後山52",
    "city": "あきた",
    "image": "/img/akita/museum/akitaken-ritsu-hakubutsukan.jpg",
    "url": "https://akihaku.jp/",
    "latlng": "[39.8173661, 140.0660762]",
    "lat": 39.8173661,
    "lng": 140.0660762,
    "isClosed": ""
  },
  {
    "id": "akita-museum-2",
    "type": "museum",
    "name": "小坂町立総合博物館郷土館",
    "prefecture": "秋田県",
    "postCode": "017-0201",
    "address": "秋田県鹿角郡小坂町小坂字中前田48−1",
    "city": "こさか",
    "image": "/img/akita/museum/kosaka-chouritsu-sougou-hakubutsukan-kyoudo-kan.jpg",
    "url": "https://www.town.kosaka.akita.jp/machinososhiki/sonotashisetsu/sogouhakubutsukan/index.html",
    "latlng": "[40.3236472, 140.7405647]",
    "lat": 40.3236472,
    "lng": 140.7405647,
    "isClosed": ""
  },
  {
    "id": "akita-museum-3",
    "type": "museum",
    "name": "浜辺の歌音楽館",
    "prefecture": "秋田県",
    "postCode": "018-4301",
    "address": "秋田県北秋田市米内沢寺ノ下17−4",
    "city": "きたあきた",
    "image": "",
    "url": "https://www.city.kitaakita.akita.jp/genre/kankou/contents-6027",
    "latlng": "[40.11870070000001, 140.3673743]",
    "lat": 40.11870070000001,
    "lng": 140.3673743,
    "isClosed": ""
  },
  {
    "id": "akita-museum-4",
    "type": "museum",
    "name": "大潟村干拓博物館",
    "prefecture": "秋田県",
    "postCode": "010-0445",
    "address": "秋田県南秋田郡大潟村西5丁目2",
    "city": "おおがた",
    "image": "/img/akita/museum/oogata-mura-kantaku-hakubutsukan.jpg",
    "url": "http://museum.vill.ogata.akita.jp/",
    "latlng": "[40.01534729999999, 139.9515979]",
    "lat": 40.01534729999999,
    "lng": 139.9515979,
    "isClosed": ""
  },
  {
    "id": "akita-museum-5",
    "type": "museum",
    "name": "秋田県児童会館",
    "prefecture": "秋田県",
    "postCode": "010-0955",
    "address": "秋田県秋田市山王中島町1−2",
    "city": "あきた",
    "image": "/img/akita/museum/akitaken-jidou-kaikan.jpg",
    "url": "http://akita-jidoukaikan.com/",
    "latlng": "[39.7177983, 140.0925819]",
    "lat": 39.7177983,
    "lng": 140.0925819,
    "isClosed": ""
  },
  {
    "id": "akita-museum-6",
    "type": "museum",
    "name": "秋田大学国際資源学部附属鉱業博物館",
    "prefecture": "秋田県",
    "postCode": "010-8502",
    "address": "秋田県秋田市手形学園町1−1",
    "city": "あきた",
    "image": "/img/akita/museum/akitadaigaku-kokusai-shigengaku-bu-fuzoku-kougyou-hakubutsukan.jpg",
    "url": "https://www.mus.akita-u.ac.jp/",
    "latlng": "[39.72751239999999, 140.134954]",
    "lat": 39.72751239999999,
    "lng": 140.134954,
    "isClosed": ""
  },
  {
    "id": "akita-museum-7",
    "type": "museum",
    "name": "秋田県立農業科学館",
    "prefecture": "秋田県",
    "postCode": "014-0073",
    "address": "秋田県大仙市内小友中沢171−4",
    "city": "だいせん",
    "image": "/img/akita/museum/akitaken-ritsu-nougyou-kagakukan.jpg",
    "url": "https://www.obako.or.jp/sun-agrin/",
    "latlng": "[39.4367133, 140.4387889]",
    "lat": 39.4367133,
    "lng": 140.4387889,
    "isClosed": ""
  },
  {
    "id": "akita-museum-8",
    "type": "museum",
    "name": "雄物川郷土資料館",
    "prefecture": "秋田県",
    "postCode": "013-0208",
    "address": "秋田県横手市雄物川町沼館高畑366",
    "city": "よこて",
    "image": "/img/akita/museum/omonogawa-kyoudo-shiryoukan.jpg",
    "url": "https://www.city.yokote.lg.jp/shisetsu/1001528/1005103.html",
    "latlng": "[39.2975943, 140.4316006]",
    "lat": 39.2975943,
    "lng": 140.4316006,
    "isClosed": ""
  },
  {
    "id": "akita-museum-9",
    "type": "museum",
    "name": "象潟郷土資料館",
    "prefecture": "秋田県",
    "postCode": "018-0104",
    "address": "秋田県にかほ市象潟町狐森31－1",
    "city": "にかほ",
    "image": "",
    "url": "",
    "latlng": "[39.20202, 139.9075269]",
    "lat": 39.20202,
    "lng": 139.9075269,
    "isClosed": ""
  },
  {
    "id": "akita-museum-10",
    "type": "museum",
    "name": "金峯神社宝物殿",
    "prefecture": "秋田県",
    "postCode": "018-0153",
    "address": "秋田県にかほ市象潟町小滝奈曽沢1 遠藤 様方",
    "city": "にかほ",
    "image": "",
    "url": "",
    "latlng": "[39.1844198, 139.9449821]",
    "lat": 39.1844198,
    "lng": 139.9449821,
    "isClosed": ""
  },
  {
    "id": "akita-museum-11",
    "type": "museum",
    "name": "院内銀山異人館",
    "prefecture": "秋田県",
    "postCode": "019-0111",
    "address": "秋田県湯沢市上院内小沢115",
    "city": "ゆざわ",
    "image": "",
    "url": "",
    "latlng": "[39.0499103, 140.4138574]",
    "lat": 39.0499103,
    "lng": 140.4138574,
    "isClosed": ""
  },
  {
    "id": "akita-museum-12",
    "type": "museum",
    "name": "雄和図書館　石露月資料コーナー",
    "prefecture": "秋田県",
    "postCode": "010-1222",
    "address": "秋田県秋田市雄和石田妙法上大部48-1 雄和図書館2F",
    "city": "あきた",
    "image": "",
    "url": "",
    "latlng": "[39.5909545, 140.1702264]",
    "lat": 39.5909545,
    "lng": 140.1702264,
    "isClosed": ""
  },
  {
    "id": "akita-museum-13",
    "type": "museum",
    "name": "高山植物園",
    "prefecture": "秋田県",
    "postCode": "014-1201",
    "address": "秋田県仙北市生保内黒沢8",
    "city": "せんぼく",
    "image": "",
    "url": "",
    "latlng": "[39.716043, 140.72406]",
    "lat": 39.716043,
    "lng": 140.72406,
    "isClosed": ""
  },
  {
    "id": "akita-museum-14",
    "type": "museum",
    "name": "鳥海鉾立ビジターセンター",
    "prefecture": "秋田県",
    "postCode": "018-0153",
    "address": "秋田県にかほ市象潟町小滝鉾立",
    "city": "にかほ",
    "image": "",
    "url": "",
    "latlng": "[39.1198995, 139.9924724]",
    "lat": 39.1198995,
    "lng": 139.9924724,
    "isClosed": ""
  },
  {
    "id": "akita-museum-15",
    "type": "museum",
    "name": "鹿角市先人顕彰館",
    "prefecture": "秋田県",
    "postCode": "018-5334",
    "address": "秋田県鹿角市十和田毛馬内柏崎3－2",
    "city": "かづの",
    "image": "",
    "url": "",
    "latlng": "[40.2732468, 140.7702626]",
    "lat": 40.2732468,
    "lng": 140.7702626,
    "isClosed": ""
  },
  {
    "id": "akita-museum-16",
    "type": "museum",
    "name": "鹿角市出土文化財管理センター",
    "prefecture": "秋田県",
    "postCode": "018-5421",
    "address": "秋田県鹿角市十和田大湯万座13",
    "city": "かづの",
    "image": "",
    "url": "",
    "latlng": "[40.2734387, 140.8052549]",
    "lat": 40.2734387,
    "lng": 140.8052549,
    "isClosed": ""
  },
  {
    "id": "akita-museum-17",
    "type": "museum",
    "name": "鹿角市大湯温泉総合振興プラザ",
    "prefecture": "秋田県",
    "postCode": "018-5200",
    "address": "秋田県鹿角市十和田大湯中田23－3",
    "city": "かづの",
    "image": "",
    "url": "",
    "latlng": "[40.2933957, 140.8265698]",
    "lat": 40.2933957,
    "lng": 140.8265698,
    "isClosed": ""
  },
  {
    "id": "akita-museum-18",
    "type": "museum",
    "name": "鹿角市鉱山歴史館",
    "prefecture": "秋田県",
    "postCode": "018-5202",
    "address": "秋田県鹿角市尾去沢獅子沢13－5 マインランド尾去沢内",
    "city": "かづの",
    "image": "",
    "url": "",
    "latlng": "[40.18566, 140.7466402]",
    "lat": 40.18566,
    "lng": 140.7466402,
    "isClosed": ""
  },
  {
    "id": "akita-museum-19",
    "type": "museum",
    "name": "鹿角観光ふるさと館・あんとらあ",
    "prefecture": "秋田県",
    "postCode": "018-5201",
    "address": "秋田県鹿角市花輪新田町11－4",
    "city": "かづの",
    "image": "",
    "url": "",
    "latlng": "[40.1811045, 140.785352]",
    "lat": 40.1811045,
    "lng": 140.785352,
    "isClosed": ""
  },
  {
    "id": "akita-museum-20",
    "type": "museum",
    "name": "秋田県公文書館",
    "prefecture": "秋田県",
    "postCode": "010-0952",
    "address": "秋田県秋田市山王新町14－31",
    "city": "あきた",
    "image": "",
    "url": "",
    "latlng": "[39.7182735, 140.0935746]",
    "lat": 39.7182735,
    "lng": 140.0935746,
    "isClosed": ""
  },
  {
    "id": "akita-museum-21",
    "type": "museum",
    "name": "秋田県埋蔵文化財センター",
    "prefecture": "秋田県",
    "postCode": "014-0802",
    "address": "秋田県大仙市払田字牛嶋２０番地",
    "city": "だいせん",
    "image": "",
    "url": "http://www.pref.akita.jp/gakusyu/maibun_hp/index2.htm",
    "latlng": "[39.4646316, 140.5483649]",
    "lat": 39.4646316,
    "lng": 140.5483649,
    "isClosed": ""
  },
  {
    "id": "akita-museum-22",
    "type": "museum",
    "name": "秋田県環境と文化のむら",
    "prefecture": "秋田県",
    "postCode": "018-1723",
    "address": "秋田県五城目町上樋口山田沢156－1",
    "city": "ごじょうめ",
    "image": "",
    "url": "",
    "latlng": "[39.9267569, 140.1203145]",
    "lat": 39.9267569,
    "lng": 140.1203145,
    "isClosed": ""
  },
  {
    "id": "akita-museum-23",
    "type": "museum",
    "name": "秋田経済法科大学雪国民俗研究所附設雪国民俗資料館",
    "prefecture": "秋田県",
    "postCode": "010-0058",
    "address": "秋田県秋田市下北手桜守沢46－1",
    "city": "あきた",
    "image": "",
    "url": "",
    "latlng": "[39.7165268, 140.1578551]",
    "lat": 39.7165268,
    "lng": 140.1578551,
    "isClosed": ""
  },
  {
    "id": "akita-museum-24",
    "type": "museum",
    "name": "美郷町学友館",
    "prefecture": "秋田県",
    "postCode": "019-1404",
    "address": "秋田県仙北郡美郷町六郷字安楽寺122",
    "city": "みさと",
    "image": "",
    "url": "http://www.town.misato.akita.jp/gakuyu/906.html",
    "latlng": "[39.4212685, 140.5540246]",
    "lat": 39.4212685,
    "lng": 140.5540246,
    "isClosed": ""
  },
  {
    "id": "akita-museum-25",
    "type": "museum",
    "name": "美郷町歴史民俗資料館・佐々木毅記念室",
    "prefecture": "秋田県",
    "postCode": "019ｰ1531",
    "address": "秋田県仙北郡美郷町畑屋字高野5番地1",
    "city": "みさと",
    "image": "",
    "url": "https://www.town.misato.akita.jp/gakuyu/2855",
    "latlng": "[39.4351406, 140.5635575]",
    "lat": 39.4351406,
    "lng": 140.5635575,
    "isClosed": ""
  },
  {
    "id": "akita-museum-26",
    "type": "museum",
    "name": "羽後町歴史民俗資料館",
    "prefecture": "秋田県",
    "postCode": "012-1131",
    "address": "秋田県羽後町西馬音内上川原30－1",
    "city": "うご",
    "image": "",
    "url": "",
    "latlng": "[39.198078, 140.4011908]",
    "lat": 39.198078,
    "lng": 140.4011908,
    "isClosed": ""
  },
  {
    "id": "akita-museum-27",
    "type": "museum",
    "name": "胡桃館遺跡埋蔵資料館",
    "prefecture": "秋田県",
    "postCode": "018-3301",
    "address": "秋田県北秋田市綴子胡桃館1",
    "city": "きたあきた",
    "image": "",
    "url": "",
    "latlng": "[40.2351267, 140.3605194]",
    "lat": 40.2351267,
    "lng": 140.3605194,
    "isClosed": ""
  },
  {
    "id": "akita-museum-28",
    "type": "museum",
    "name": "能代市子ども館",
    "prefecture": "秋田県",
    "postCode": "016-0803",
    "address": "秋田県能代市大町10－1",
    "city": "のしろ",
    "image": "",
    "url": "",
    "latlng": "[40.2164059, 140.0248687]",
    "lat": 40.2164059,
    "lng": 140.0248687,
    "isClosed": ""
  },
  {
    "id": "akita-museum-29",
    "type": "museum",
    "name": "若美ふるさと資料館",
    "prefecture": "秋田県",
    "postCode": "010-0401",
    "address": "秋田県男鹿市野石大場沢1-48",
    "city": "おが",
    "image": "",
    "url": "",
    "latlng": "[40.0327866, 139.9260536]",
    "lat": 40.0327866,
    "lng": 139.9260536,
    "isClosed": ""
  },
  {
    "id": "akita-museum-30",
    "type": "museum",
    "name": "藤里町歴史民俗資料館",
    "prefecture": "秋田県",
    "postCode": "018-3201",
    "address": "秋田県藤里町藤琴下湯の沢29",
    "city": "ふじさと",
    "image": "",
    "url": "",
    "latlng": "[40.3056081, 140.2946993]",
    "lat": 40.3056081,
    "lng": 140.2946993,
    "isClosed": ""
  },
  {
    "id": "akita-museum-31",
    "type": "museum",
    "name": "角館樺細工伝承館",
    "prefecture": "秋田県",
    "postCode": "014-0331",
    "address": "秋田県仙北市角館町表町下丁10-1",
    "city": "せんぼく",
    "image": "",
    "url": "http://www.city.semboku.akita.jp/sightseeing/densyo/",
    "latlng": "[39.5994749, 140.5610579]",
    "lat": 39.5994749,
    "lng": 140.5610579,
    "isClosed": ""
  },
  {
    "id": "akita-museum-32",
    "type": "museum",
    "name": "角館歴史村・青柳家",
    "prefecture": "秋田県",
    "postCode": "014-0325",
    "address": "秋田県仙北市角館町東勝楽丁26",
    "city": "せんぼく",
    "image": "",
    "url": "http://www.samuraiworld.com/",
    "latlng": "[39.597857, 140.5617449]",
    "lat": 39.597857,
    "lng": 140.5617449,
    "isClosed": ""
  },
  {
    "id": "akita-museum-33",
    "type": "museum",
    "name": "﻿潟上市昭和歴史民俗資料館・潟上市八郎潟漁撈用具収蔵庫",
    "prefecture": "秋田県",
    "postCode": "018-1401",
    "address": "秋田県潟上市昭和大久保元木山根50",
    "city": "かたがみ",
    "image": "",
    "url": "",
    "latlng": "[39.8626155, 140.0683193]",
    "lat": 39.8626155,
    "lng": 140.0683193,
    "isClosed": ""
  },
  {
    "id": "akita-museum-34",
    "type": "museum",
    "name": "潟上市郷土文化保存伝習館",
    "prefecture": "秋田県",
    "postCode": "018-1416",
    "address": "秋田県潟上市昭和豊川山田家の上62",
    "city": "かたがみ",
    "image": "",
    "url": "",
    "latlng": "[39.8738277, 140.0852312]",
    "lat": 39.8738277,
    "lng": 140.0852312,
    "isClosed": ""
  },
  {
    "id": "akita-museum-35",
    "type": "museum",
    "name": "物部長穂記念館",
    "prefecture": "秋田県",
    "postCode": "019-2411",
    "address": "秋田県大仙市協和境唐松岳44-2",
    "city": "だいせん",
    "image": "",
    "url": "",
    "latlng": "[39.6073135, 140.3212974]",
    "lat": 39.6073135,
    "lng": 140.3212974,
    "isClosed": ""
  },
  {
    "id": "akita-museum-36",
    "type": "museum",
    "name": "玉川温泉ビジターセンター",
    "prefecture": "秋田県",
    "postCode": "014-1205",
    "address": "秋田県仙北市田沢湖玉川渋黒沢",
    "city": "せんぼく",
    "image": "",
    "url": "",
    "latlng": "[39.886462, 140.7177105]",
    "lat": 39.886462,
    "lng": 140.7177105,
    "isClosed": ""
  },
  {
    "id": "akita-museum-37",
    "type": "museum",
    "name": "由利本荘市矢島郷土文化保存伝習施設",
    "prefecture": "秋田県",
    "postCode": "015-0404",
    "address": "秋田県由利本荘市矢島町七日町羽坂64-1",
    "city": "ゆりほんじょう",
    "image": "",
    "url": "",
    "latlng": "[39.231696, 140.1393981]",
    "lat": 39.231696,
    "lng": 140.1393981,
    "isClosed": ""
  },
  {
    "id": "akita-museum-38",
    "type": "museum",
    "name": "男鹿真山伝承館",
    "prefecture": "秋田県",
    "postCode": "010-0685",
    "address": "秋田県男鹿市北浦真山水喰沢97",
    "city": "おが",
    "image": "",
    "url": "",
    "latlng": "[39.9057214, 139.9500738]",
    "lat": 39.9057214,
    "lng": 139.9500738,
    "isClosed": ""
  },
  {
    "id": "akita-museum-39",
    "type": "museum",
    "name": "白瀬南極探検隊記念館",
    "prefecture": "秋田県",
    "postCode": "018-0302",
    "address": "秋田県にかほ市黒川岩潟15-3",
    "city": "にかほ",
    "image": "",
    "url": "http://hyper.city.nikaho.akita.jp/shirase/",
    "latlng": "[39.2681677, 139.9254949]",
    "lat": 39.2681677,
    "lng": 139.9254949,
    "isClosed": ""
  },
  {
    "id": "akita-museum-40",
    "type": "museum",
    "name": "白神山地世界遺産センター　藤里館",
    "prefecture": "秋田県",
    "postCode": "018-3201",
    "address": "秋田県藤里町藤琴里栗63",
    "city": "ふじさと",
    "image": "",
    "url": "",
    "latlng": "[40.3087449, 140.2868985]",
    "lat": 40.3087449,
    "lng": 140.2868985,
    "isClosed": ""
  },
  {
    "id": "akita-museum-41",
    "type": "museum",
    "name": "石坂洋次郎文学記念館",
    "prefecture": "秋田県",
    "postCode": "013-0005",
    "address": "秋田県横手市幸町2－10",
    "city": "よこて",
    "image": "",
    "url": "",
    "latlng": "[39.3242248, 140.565774]",
    "lat": 39.3242248,
    "lng": 140.565774,
    "isClosed": ""
  },
  {
    "id": "akita-museum-42",
    "type": "museum",
    "name": "石川達三記念室",
    "prefecture": "秋田県",
    "postCode": "010-0875",
    "address": "秋田県秋田市千秋徳町4-4 中央図書館明徳館内",
    "city": "あきた",
    "image": "",
    "url": "http://www.city.akita.akita.jp/city/ed/mt/default.htm",
    "latlng": "[39.7227582, 140.1265757]",
    "lat": 39.7227582,
    "lng": 140.1265757,
    "isClosed": ""
  },
  {
    "id": "akita-museum-43",
    "type": "museum",
    "name": "秋乃宮博物館",
    "prefecture": "秋田県",
    "postCode": "019-0321",
    "address": "秋田県湯沢市秋ノ宮湯ノ岱106",
    "city": "ゆざわ",
    "image": "",
    "url": "",
    "latlng": "[38.9601427, 140.5300443]",
    "lat": 38.9601427,
    "lng": 140.5300443,
    "isClosed": ""
  },
  {
    "id": "akita-museum-44",
    "type": "museum",
    "name": "秋田ポートタワー",
    "prefecture": "秋田県",
    "postCode": "011-0945",
    "address": "秋田県秋田市土崎港西1－9－1",
    "city": "あきた",
    "image": "",
    "url": "",
    "latlng": "[39.7540033, 140.0636457]",
    "lat": 39.7540033,
    "lng": 140.0636457,
    "isClosed": ""
  },
  {
    "id": "akita-museum-45",
    "type": "museum",
    "name": "秋田城跡出土品収蔵庫",
    "prefecture": "秋田県",
    "postCode": "011-0901",
    "address": "秋田県秋田市寺内大畑141",
    "city": "あきた",
    "image": "",
    "url": "",
    "latlng": "[39.7409081, 140.0801853]",
    "lat": 39.7409081,
    "lng": 140.0801853,
    "isClosed": ""
  },
  {
    "id": "akita-museum-46",
    "type": "museum",
    "name": "秋田市立佐竹史料館",
    "prefecture": "秋田県",
    "postCode": "010-0876",
    "address": "秋田県秋田市千秋公園内1－4",
    "city": "あきた",
    "image": "",
    "url": "",
    "latlng": "[39.7199711, 140.1247511]",
    "lat": 39.7199711,
    "lng": 140.1247511,
    "isClosed": ""
  },
  {
    "id": "akita-museum-47",
    "type": "museum",
    "name": "秋田市立赤れんが郷土館",
    "prefecture": "秋田県",
    "postCode": "010-0921",
    "address": "秋田県秋田市大町3-3-21",
    "city": "あきた",
    "image": "",
    "url": "http://www.city.akita.akita.jp/city/ed/ak/",
    "latlng": "[39.7167252, 140.1154925]",
    "lat": 39.7167252,
    "lng": 140.1154925,
    "isClosed": ""
  },
  {
    "id": "akita-museum-48",
    "type": "museum",
    "name": "秋田民芸村",
    "prefecture": "秋田県",
    "postCode": "019-0321",
    "address": "秋田県湯沢市秋ノ宮畑35-5",
    "city": "ゆざわ",
    "image": "",
    "url": "",
    "latlng": "[38.9427692, 140.5502609]",
    "lat": 38.9427692,
    "lng": 140.5502609,
    "isClosed": ""
  },
  {
    "id": "akita-museum-49",
    "type": "museum",
    "name": "秋田犬会館・秋田犬博物室",
    "prefecture": "秋田県",
    "postCode": "017-8691",
    "address": "秋田県大館市三の丸13－1",
    "city": "おおだて",
    "image": "",
    "url": "",
    "latlng": "[40.2728865, 140.5640378]",
    "lat": 40.2728865,
    "lng": 140.5640378,
    "isClosed": ""
  },
  {
    "id": "akita-museum-50",
    "type": "museum",
    "name": "﻿大館市立長走風穴館",
    "prefecture": "秋田県",
    "postCode": "017-0001",
    "address": "秋田県大館市長走362－6",
    "city": "おおだて",
    "image": "",
    "url": "",
    "latlng": "[40.3818591, 140.6037711]",
    "lat": 40.3818591,
    "lng": 140.6037711,
    "isClosed": ""
  },
  {
    "id": "akita-museum-51",
    "type": "museum",
    "name": "大館市立鳥潟会館附属郷土資料庫",
    "prefecture": "秋田県",
    "postCode": "017-0005",
    "address": "秋田県大館市花岡町根井下156",
    "city": "おおだて",
    "image": "",
    "url": "",
    "latlng": "[40.3318851, 140.5532107]",
    "lat": 40.3318851,
    "lng": 140.5532107,
    "isClosed": ""
  },
  {
    "id": "akita-museum-52",
    "type": "museum",
    "name": "大館郷土博物館",
    "prefecture": "秋田県",
    "postCode": "017-0012",
    "address": "秋田県大館市釈迦内獅子ヶ森1",
    "city": "おおだて",
    "image": "",
    "url": "",
    "latlng": "[40.298149, 140.5802249]",
    "lat": 40.298149,
    "lng": 140.5802249,
    "isClosed": ""
  },
  {
    "id": "akita-museum-53",
    "type": "museum",
    "name": "小坂町立総合博物館 郷土館",
    "prefecture": "秋田県",
    "postCode": "017-0201",
    "address": "秋田県小坂町小坂中前田48-1",
    "city": "こさか",
    "image": "",
    "url": "http://www.town.kosaka.akita.jp/kyoudokan/kyoudokan1.htm",
    "latlng": "[40.3236472, 140.7405647]",
    "lat": 40.3236472,
    "lng": 140.7405647,
    "isClosed": ""
  },
  {
    "id": "akita-museum-54",
    "type": "museum",
    "name": "小坂町立総合博物館「郷土館」",
    "prefecture": "秋田県",
    "postCode": "017-0201",
    "address": "秋田県鹿角郡小坂町小坂中前田４８−１",
    "city": "こさか",
    "image": "",
    "url": "http://www.town.kosaka.akita.jp/kyodokan/",
    "latlng": "[40.3236472, 140.7405647]",
    "lat": 40.3236472,
    "lng": 140.7405647,
    "isClosed": ""
  },
  {
    "id": "akita-museum-55",
    "type": "museum",
    "name": "小坂鉱山事務所",
    "prefecture": "秋田県",
    "postCode": "017-0202",
    "address": "秋田県小坂町小坂鉱山古館48-2",
    "city": "こさか",
    "image": "",
    "url": "http://www.town.kosaka.akita.jp/jimusho/jimusho.htm",
    "latlng": "[40.3285157, 140.7441385]",
    "lat": 40.3285157,
    "lng": 140.7441385,
    "isClosed": ""
  },
  {
    "id": "akita-museum-56",
    "type": "museum",
    "name": "山の幸資料館",
    "prefecture": "秋田県",
    "postCode": "014-0511",
    "address": "秋田県仙北市西木町西明寺 潟尻 潟前森林公園",
    "city": "せんぼく",
    "image": "",
    "url": "",
    "latlng": "[39.7147517, 140.6284602]",
    "lat": 39.7147517,
    "lng": 140.6284602,
    "isClosed": ""
  },
  {
    "id": "akita-museum-57",
    "type": "museum",
    "name": "山本ふるさと文化館　石井漠メモリアルホール",
    "prefecture": "秋田県",
    "postCode": "018-2303",
    "address": "秋田県三種町山本町森岳東堤沢72-44 山本ふるさと文化館内",
    "city": "みたね",
    "image": "",
    "url": "",
    "latlng": "[40.08813360000001, 140.0868853]",
    "lat": 40.08813360000001,
    "lng": 140.0868853,
    "isClosed": ""
  },
  {
    "id": "akita-museum-58",
    "type": "museum",
    "name": "山田記念館資料収蔵庫",
    "prefecture": "秋田県",
    "postCode": "017-0846",
    "address": "秋田県大館市常盤木町6－7",
    "city": "おおだて",
    "image": "",
    "url": "",
    "latlng": "[40.2667238, 140.5584165]",
    "lat": 40.2667238,
    "lng": 140.5584165,
    "isClosed": ""
  },
  {
    "id": "akita-museum-59",
    "type": "museum",
    "name": "平鹿町農村文化伝承館",
    "prefecture": "秋田県",
    "postCode": "013-0105",
    "address": "秋田県横手市平鹿町浅舞上蒋沼25",
    "city": "よこて",
    "image": "",
    "url": "",
    "latlng": "[39.257346, 140.4933216]",
    "lat": 39.257346,
    "lng": 140.4933216,
    "isClosed": ""
  },
  {
    "id": "akita-museum-60",
    "type": "museum",
    "name": "後三年の役　金沢資料館",
    "prefecture": "秋田県",
    "postCode": "013-0814",
    "address": "秋田県横手市金沢中野根小屋102-4",
    "city": "よこて",
    "image": "",
    "url": "",
    "latlng": "[39.3744475, 140.5695259]",
    "lat": 39.3744475,
    "lng": 140.5695259,
    "isClosed": ""
  },
  {
    "id": "akita-museum-61",
    "type": "museum",
    "name": "昔の看板資料館「桃源塾」",
    "prefecture": "秋田県",
    "postCode": "010-0802",
    "address": "秋田県秋田市外旭川八幡田1－17－12",
    "city": "あきた",
    "image": "",
    "url": "",
    "latlng": "[39.7416856, 140.102836]",
    "lat": 39.7416856,
    "lng": 140.102836,
    "isClosed": ""
  },
  {
    "id": "akita-museum-62",
    "type": "museum",
    "name": "本荘郷土資料館",
    "prefecture": "秋田県",
    "postCode": "015-0011",
    "address": "秋田県由利本荘市石脇弁慶川5",
    "city": "ゆりほんじょう",
    "image": "",
    "url": "",
    "latlng": "[39.39838659999999, 140.0489906]",
    "lat": 39.39838659999999,
    "lng": 140.0489906,
    "isClosed": ""
  },
  {
    "id": "akita-museum-63",
    "type": "museum",
    "name": "東光館",
    "prefecture": "秋田県",
    "postCode": "015-0023",
    "address": "秋田県由利本荘市赤田上田表95 五峰苑内",
    "city": "ゆりほんじょう",
    "image": "",
    "url": "",
    "latlng": "[39.4270851, 140.1031997]",
    "lat": 39.4270851,
    "lng": 140.1031997,
    "isClosed": ""
  },
  {
    "id": "akita-museum-64",
    "type": "museum",
    "name": "横山民俗資料館",
    "prefecture": "秋田県",
    "postCode": "015-0053",
    "address": "秋田県由利本荘市福山居屋敷82",
    "city": "ゆりほんじょう",
    "image": "",
    "url": "",
    "latlng": "[39.4041924, 140.0733969]",
    "lat": 39.4041924,
    "lng": 140.0733969,
    "isClosed": ""
  },
  {
    "id": "akita-museum-65",
    "type": "museum",
    "name": "横手公園展望台・横手城",
    "prefecture": "秋田県",
    "postCode": "013-0012",
    "address": "秋田県横手市城山町29-1",
    "city": "よこて",
    "image": "",
    "url": "",
    "latlng": "[39.3210813, 140.5692614]",
    "lat": 39.3210813,
    "lng": 140.5692614,
    "isClosed": ""
  },
  {
    "id": "akita-museum-66",
    "type": "museum",
    "name": "﻿八峰町郷土資料館",
    "prefecture": "秋田県",
    "postCode": "018-2507",
    "address": "秋田県八峰町峰浜田中字野田沢37",
    "city": "はっぽう",
    "image": "",
    "url": "",
    "latlng": "[40.2865769, 140.0335302]",
    "lat": 40.2865769,
    "lng": 140.0335302,
    "isClosed": ""
  },
  {
    "id": "akita-museum-67",
    "type": "museum",
    "name": "八森ぶなっこランド",
    "prefecture": "秋田県",
    "postCode": "018-2632",
    "address": "秋田県八峰町三十釜",
    "city": "はっぽう",
    "image": "",
    "url": "",
    "latlng": "[40.38620909999999, 140.0244676]",
    "lat": 40.38620909999999,
    "lng": 140.0244676,
    "isClosed": ""
  },
  {
    "id": "akita-museum-68",
    "type": "museum",
    "name": "八郎潟町オリンピック記念会館",
    "prefecture": "秋田県",
    "postCode": "018-1606",
    "address": "秋田県八郎潟町夜叉袋中羽立1-1 (中羽立運動公園内)",
    "city": "はちろうがた",
    "image": "",
    "url": "",
    "latlng": "[39.9522009, 140.0803877]",
    "lat": 39.9522009,
    "lng": 140.0803877,
    "isClosed": ""
  },
  {
    "id": "akita-museum-69",
    "type": "museum",
    "name": "内館文庫",
    "prefecture": "秋田県",
    "postCode": "018-3301",
    "address": "秋田県北秋田市綴子西館47",
    "city": "きたあきた",
    "image": "",
    "url": "",
    "latlng": "[40.2529306, 140.3686599]",
    "lat": 40.2529306,
    "lng": 140.3686599,
    "isClosed": ""
  },
  {
    "id": "akita-museum-70",
    "type": "museum",
    "name": "出羽グリーン化石保存館",
    "prefecture": "秋田県",
    "postCode": "019-2201",
    "address": "秋田県大仙市円行寺立蔵44",
    "city": "だいせん",
    "image": "",
    "url": "",
    "latlng": "[39.4757262, 140.2956292]",
    "lat": 39.4757262,
    "lng": 140.2956292,
    "isClosed": ""
  },
  {
    "id": "akita-museum-71",
    "type": "museum",
    "name": "北秋田市郷土文化保存阿仁伝承館",
    "prefecture": "秋田県",
    "postCode": "018-4613",
    "address": "秋田県北秋田市阿仁銀山下新町41-22",
    "city": "きたあきた",
    "image": "",
    "url": "",
    "latlng": "[39.9988896, 140.4018205]",
    "lat": 39.9988896,
    "lng": 140.4018205,
    "isClosed": ""
  },
  {
    "id": "akita-museum-72",
    "type": "museum",
    "name": "十和田ふるさとセンター",
    "prefecture": "秋田県",
    "postCode": "018-5511",
    "address": "秋田県小坂町十和田湖畔大川岱",
    "city": "こさか",
    "image": "",
    "url": "",
    "latlng": "[40.4557553, 140.8393581]",
    "lat": 40.4557553,
    "lng": 140.8393581,
    "isClosed": ""
  },
  {
    "id": "akita-museum-73",
    "type": "museum",
    "name": "十文字町歴史資料展示室",
    "prefecture": "秋田県",
    "postCode": "019-0504",
    "address": "秋田県横手市十文字町新田梨木西上24-1",
    "city": "よこて",
    "image": "",
    "url": "",
    "latlng": "[39.2300682, 140.53041]",
    "lat": 39.2300682,
    "lng": 140.53041,
    "isClosed": ""
  },
  {
    "id": "akita-museum-74",
    "type": "museum",
    "name": "南外村民俗資料交流館",
    "prefecture": "秋田県",
    "postCode": "019-1941",
    "address": "秋田県大仙市南外松木田193-1",
    "city": "だいせん",
    "image": "",
    "url": "",
    "latlng": "[39.426131, 140.3549147]",
    "lat": 39.426131,
    "lng": 140.3549147,
    "isClosed": ""
  },
  {
    "id": "akita-museum-75",
    "type": "museum",
    "name": "史跡保存伝承の里　亀田城",
    "prefecture": "秋田県",
    "postCode": "018-1223",
    "address": "秋田県由利本荘市岩城下蛇田高城",
    "city": "ゆりほんじょう",
    "image": "",
    "url": "",
    "latlng": "[39.497843, 140.0880678]",
    "lat": 39.497843,
    "lng": 140.0880678,
    "isClosed": ""
  },
  {
    "id": "akita-museum-76",
    "type": "museum",
    "name": "史跡保存伝承の里・天鷺村 岩城歴史民俗資料館",
    "prefecture": "秋田県",
    "postCode": "018-1217",
    "address": "秋田県由利本荘市岩城亀田亀田町田町41天鷺村内",
    "city": "ゆりほんじょう",
    "image": "",
    "url": "",
    "latlng": "[39.5007844, 140.0838409]",
    "lat": 39.5007844,
    "lng": 140.0838409,
    "isClosed": ""
  },
  {
    "id": "akita-museum-77",
    "type": "museum",
    "name": "大仙市仙北歴史民俗資料館",
    "prefecture": "秋田県",
    "postCode": "014-0112",
    "address": "秋田県大仙市板見内一ツ森96-1",
    "city": "だいせん",
    "image": "",
    "url": "",
    "latlng": "[39.4734128, 140.537093]",
    "lat": 39.4734128,
    "lng": 140.537093,
    "isClosed": ""
  },
  {
    "id": "akita-museum-78",
    "type": "museum",
    "name": "大仙市仙北民具資料館 餅の館",
    "prefecture": "秋田県",
    "postCode": "014-0112",
    "address": "秋田県大仙市板見内一ツ森418",
    "city": "だいせん",
    "image": "",
    "url": "",
    "latlng": "[39.473978, 140.5363842]",
    "lat": 39.473978,
    "lng": 140.5363842,
    "isClosed": ""
  },
  {
    "id": "akita-museum-79",
    "type": "museum",
    "name": "大仙市協和自然資源等活用型交流促進施設「大盛館」",
    "prefecture": "秋田県",
    "postCode": "019-2412",
    "address": "秋田県大仙市協和荒川川前9-1",
    "city": "だいせん",
    "image": "",
    "url": "",
    "latlng": "[39.6321561, 140.4004605]",
    "lat": 39.6321561,
    "lng": 140.4004605,
    "isClosed": ""
  },
  {
    "id": "akita-museum-80",
    "type": "museum",
    "name": "大仙市大曲民俗資料館",
    "prefecture": "秋田県",
    "postCode": "014-0006",
    "address": "秋田県大曲市花館中町2－58",
    "city": "おおまがり",
    "image": "",
    "url": "",
    "latlng": "[39.4736283, 140.4631046]",
    "lat": 39.4736283,
    "lng": 140.4631046,
    "isClosed": ""
  },
  {
    "id": "akita-museum-81",
    "type": "museum",
    "name": "大内歴史民俗資料館",
    "prefecture": "秋田県",
    "postCode": "018-0711",
    "address": "秋田県由利本荘市岩谷町日渡100",
    "city": "ゆりほんじょう",
    "image": "",
    "url": "",
    "latlng": "[39.4438439, 140.095723]",
    "lat": 39.4438439,
    "lng": 140.095723,
    "isClosed": ""
  },
  {
    "id": "akita-museum-82",
    "type": "museum",
    "name": "大太鼓の館",
    "prefecture": "秋田県",
    "postCode": "018-3301",
    "address": "秋田県北秋田市綴子大提道下62-1",
    "city": "きたあきた",
    "image": "",
    "url": "",
    "latlng": "[40.2799987, 140.372516]",
    "lat": 40.2799987,
    "lng": 140.372516,
    "isClosed": ""
  },
  {
    "id": "akita-museum-83",
    "type": "museum",
    "name": "大潟村干拓写真館",
    "prefecture": "秋田県",
    "postCode": "010-0492",
    "address": "秋田県大潟村東2－3－6",
    "city": "おおがた",
    "image": "",
    "url": "",
    "latlng": "[40.0183158, 139.9605375]",
    "lat": 40.0183158,
    "lng": 139.9605375,
    "isClosed": ""
  },
  {
    "id": "akita-museum-84",
    "type": "museum",
    "name": "﻿あきた角館西宮家",
    "prefecture": "秋田県",
    "postCode": "014-0311",
    "address": "秋田県仙北市角館町田町上丁11－1 西宮家",
    "city": "せんぼく",
    "image": "",
    "url": "",
    "latlng": "[39.592941, 140.564841]",
    "lat": 39.592941,
    "lng": 140.564841,
    "isClosed": ""
  },
  {
    "id": "akita-museum-85",
    "type": "museum",
    "name": "かみおか嶽雄館",
    "prefecture": "秋田県",
    "postCode": "019-1701",
    "address": "秋田県大仙市神宮寺下川原前開102",
    "city": "だいせん",
    "image": "",
    "url": "",
    "latlng": "[39.4963956, 140.4137955]",
    "lat": 39.4963956,
    "lng": 140.4137955,
    "isClosed": ""
  },
  {
    "id": "akita-museum-86",
    "type": "museum",
    "name": "たざわこ芸術村化石館",
    "prefecture": "秋田県",
    "postCode": "014-1192",
    "address": "秋田県仙北市田沢湖卒田早稲田430",
    "city": "せんぼく",
    "image": "",
    "url": "",
    "latlng": "[39.6108357, 140.6239238]",
    "lat": 39.6108357,
    "lng": 140.6239238,
    "isClosed": ""
  },
  {
    "id": "akita-museum-87",
    "type": "museum",
    "name": "なまはげ館",
    "prefecture": "秋田県",
    "postCode": "010-0685",
    "address": "秋田県男鹿市北浦真山水喰沢",
    "city": "おが",
    "image": "",
    "url": "",
    "latlng": "[39.9645564, 139.7834306]",
    "lat": 39.9645564,
    "lng": 139.7834306,
    "isClosed": ""
  },
  {
    "id": "akita-museum-88",
    "type": "museum",
    "name": "ノースアジア大学雪国民俗館",
    "prefecture": "秋田県",
    "postCode": "010-8515",
    "address": "秋田県秋田市下北手桜守沢46-1",
    "city": "あきた",
    "image": "",
    "url": "https://www.nau.ac.jp/yukiguni/",
    "latlng": "[39.7165268, 140.1578551]",
    "lat": 39.7165268,
    "lng": 140.1578551,
    "isClosed": ""
  },
  {
    "id": "akita-museum-89",
    "type": "museum",
    "name": "フェライト子ども科学館",
    "prefecture": "秋田県",
    "postCode": "018-0402",
    "address": "秋田県にかほ市平沢宝田4－1",
    "city": "にかほ",
    "image": "",
    "url": "http://www.ferrite.jp/",
    "latlng": "[39.2848374, 139.9609218]",
    "lat": 39.2848374,
    "lng": 139.9609218,
    "isClosed": ""
  },
  {
    "id": "akita-museum-90",
    "type": "museum",
    "name": "マインランド尾去沢　鉱山歴史の坑道・コスモアドベンチャー",
    "prefecture": "秋田県",
    "postCode": "018-5202",
    "address": "秋田県鹿角市尾去沢獅子沢13－5",
    "city": "かづの",
    "image": "",
    "url": "",
    "latlng": "[40.1857734, 140.7475978]",
    "lat": 40.1857734,
    "lng": 140.7475978,
    "isClosed": ""
  },
  {
    "id": "akita-museum-91",
    "type": "museum",
    "name": "マタギ資料館",
    "prefecture": "秋田県",
    "postCode": "018-4731",
    "address": "秋田県北秋田市阿仁打当67",
    "city": "きたあきた",
    "image": "",
    "url": "",
    "latlng": "[39.9251527, 140.5985231]",
    "lat": 39.9251527,
    "lng": 140.5985231,
    "isClosed": ""
  },
  {
    "id": "akita-museum-92",
    "type": "museum",
    "name": "まほろば唐松 中世の館 唐松城",
    "prefecture": "秋田県",
    "postCode": "019-2411",
    "address": "秋田県大仙市協和境唐松岳44-2",
    "city": "だいせん",
    "image": "",
    "url": "",
    "latlng": "[39.6073135, 140.3212974]",
    "lat": 39.6073135,
    "lng": 140.3212974,
    "isClosed": ""
  },
  {
    "id": "akita-museum-93",
    "type": "museum",
    "name": "まるごと自然館",
    "prefecture": "秋田県",
    "postCode": "019-0803",
    "address": "秋田県東成瀬村椿川堤31-2",
    "city": "ひがしなるせ",
    "image": "",
    "url": "http://marugoto.higashinaruse.com/",
    "latlng": "[39.1465316, 140.7148942]",
    "lat": 39.1465316,
    "lng": 140.7148942,
    "isClosed": ""
  },
  {
    "id": "akita-museum-94",
    "type": "museum",
    "name": "七代佐藤養助　「漆蔵資料館」",
    "prefecture": "秋田県",
    "postCode": "019-0701",
    "address": "秋田県横手市増田町増田本町5",
    "city": "よこて",
    "image": "",
    "url": "http://www.sato-yoske.co.jp/yousin-an/page01.htm",
    "latlng": "[39.2051652, 140.5450354]",
    "lat": 39.2051652,
    "lng": 140.5450354,
    "isClosed": ""
  },
  {
    "id": "akita-museum-95",
    "type": "museum",
    "name": "三種町琴丘歴史民俗資料館",
    "prefecture": "秋田県",
    "postCode": "018-2104",
    "address": "秋田県三種町鹿渡字東小瀬川 51",
    "city": "みたね",
    "image": "",
    "url": "",
    "latlng": "[40.033426, 140.0811839]",
    "lat": 40.033426,
    "lng": 140.0811839,
    "isClosed": ""
  },
  {
    "id": "akita-museum-96",
    "type": "museum",
    "name": "上小阿仁村生涯学習センター　郷土資料室",
    "prefecture": "秋田県",
    "postCode": "018-4421",
    "address": "秋田県上小阿仁村小沢田向川原60－3",
    "city": "かみこあに",
    "image": "",
    "url": "",
    "latlng": "[40.0639034, 140.2980775]",
    "lat": 40.0639034,
    "lng": 140.2980775,
    "isClosed": ""
  },
  {
    "id": "akita-museum-97",
    "type": "museum",
    "name": "五城目町森林資料館",
    "prefecture": "秋田県",
    "postCode": "018-1701",
    "address": "秋田県五城目町兎品沢62－2",
    "city": "ごじょうめ",
    "image": "",
    "url": "",
    "latlng": "[39.9568902, 140.1260972]",
    "lat": 39.9568902,
    "lng": 140.1260972,
    "isClosed": ""
  },
  {
    "id": "akita-museum-98",
    "type": "museum",
    "name": "井坂記念館",
    "prefecture": "秋田県",
    "postCode": "016-0815",
    "address": "秋田県能代市御指南町25",
    "city": "のしろ",
    "image": "",
    "url": "",
    "latlng": "[40.2119665, 140.0358725]",
    "lat": 40.2119665,
    "lng": 140.0358725,
    "isClosed": ""
  },
  {
    "id": "akita-museum-99",
    "type": "museum",
    "name": "井川町歴史民俗資料館",
    "prefecture": "秋田県",
    "postCode": "018-1512",
    "address": "秋田県井川町北川尻海老沢樋の口79－2",
    "city": "いかわ",
    "image": "",
    "url": "",
    "latlng": "[39.9143058, 140.0821417]",
    "lat": 39.9143058,
    "lng": 140.0821417,
    "isClosed": ""
  },
  {
    "id": "akita-museum-100",
    "type": "museum",
    "name": "仁別森林博物館",
    "prefecture": "秋田県",
    "postCode": "010-0824",
    "address": "秋田県秋田市仁別務沢国有林22林班",
    "city": "あきた",
    "image": "",
    "url": "",
    "latlng": "[39.8152322, 140.233398]",
    "lat": 39.8152322,
    "lng": 140.233398,
    "isClosed": ""
  },
  {
    "id": "akita-museum-101",
    "type": "museum",
    "name": "仁賀保勤労青少年ホーム展示室",
    "prefecture": "秋田県",
    "postCode": "018-0402",
    "address": "秋田県にかほ市平沢中町79",
    "city": "にかほ",
    "image": "",
    "url": "http://hyper.city.nikaho.akita.jp/Nikaho/ni03.html",
    "latlng": "[39.2924988, 139.9616273]",
    "lat": 39.2924988,
    "lng": 139.9616273,
    "isClosed": ""
  },
  {
    "id": "akita-museum-102",
    "type": "museum",
    "name": "仙北市総合情報センター　新潮社記念文学館",
    "prefecture": "秋田県",
    "postCode": "014-0311",
    "address": "秋田県仙北市角館町田町上丁23",
    "city": "せんぼく",
    "image": "",
    "url": "",
    "latlng": "[39.593069, 140.5655452]",
    "lat": 39.593069,
    "lng": 140.5655452,
    "isClosed": ""
  },
  {
    "id": "akita-museum-103",
    "type": "museum",
    "name": "入道埼灯台資料展示室",
    "prefecture": "秋田県",
    "postCode": "010-0500",
    "address": "秋田県男鹿市北浦入道埼昆布浦2-14",
    "city": "おが",
    "image": "",
    "url": "",
    "latlng": "[40.0050465, 139.7018229]",
    "lat": 40.0050465,
    "lng": 139.7018229,
    "isClosed": ""
  }
]