[
  {
    "id": "mie-museum-1",
    "type": "museum",
    "name": "伊賀流忍者博物館",
    "prefecture": "三重県",
    "postCode": "518-0873",
    "address": "三重県伊賀市上野丸之内117",
    "city": "いが",
    "image": "",
    "url": "https://www.iganinja.jp/",
    "latlng": "[34.7695416, 136.130094]",
    "lat": 34.7695416,
    "lng": 136.130094,
    "isClosed": ""
  },
  {
    "id": "mie-museum-2",
    "type": "museum",
    "name": "神宮徴古館農業館・式年遷宮記念せんぐう館",
    "prefecture": "三重県",
    "postCode": "516-0016",
    "address": "三重県伊勢市神田久志本町1754−1",
    "city": "いせ",
    "image": "",
    "url": "https://museum.isejingu.or.jp/index.html",
    "latlng": "[34.4858411, 136.7248157]",
    "lat": 34.4858411,
    "lng": 136.7248157,
    "isClosed": ""
  },
  {
    "id": "mie-museum-3",
    "type": "museum",
    "name": "亀山市歴史博物館",
    "prefecture": "三重県",
    "postCode": "519-0151",
    "address": "三重県亀山市若山町7−30",
    "city": "かめやま",
    "image": "",
    "url": "http://kameyamarekihaku.jp/",
    "latlng": "[34.8589285, 136.4474128]",
    "lat": 34.8589285,
    "lng": 136.4474128,
    "isClosed": ""
  },
  {
    "id": "mie-museum-4",
    "type": "museum",
    "name": "桑名市博物館",
    "prefecture": "三重県",
    "postCode": "511-0039",
    "address": "三重県桑名市京町37−1",
    "city": "くわな",
    "image": "",
    "url": "https://www.city.kuwana.lg.jp/shisetsu/bunka/005.html",
    "latlng": "[35.0634167, 136.6938694]",
    "lat": 35.0634167,
    "lng": 136.6938694,
    "isClosed": ""
  },
  {
    "id": "mie-museum-5",
    "type": "museum",
    "name": "鈴鹿市考古博物館",
    "prefecture": "三重県",
    "postCode": "513-0013",
    "address": "三重県鈴鹿市国分町224",
    "city": "すずか",
    "image": "",
    "url": "https://www.city.suzuka.lg.jp/kouko/",
    "latlng": "[34.9073109, 136.5645866]",
    "lat": 34.9073109,
    "lng": 136.5645866,
    "isClosed": ""
  },
  {
    "id": "mie-museum-6",
    "type": "museum",
    "name": "斎宮歴史博物館",
    "prefecture": "三重県",
    "postCode": "515-0325",
    "address": "三重県多気郡明和町竹川503",
    "city": "めいわ",
    "image": "",
    "url": "https://www.bunka.pref.mie.lg.jp/saiku/",
    "latlng": "[34.5427611, 136.6096255]",
    "lat": 34.5427611,
    "lng": 136.6096255,
    "isClosed": ""
  },
  {
    "id": "mie-museum-7",
    "type": "museum",
    "name": "石水博物館",
    "prefecture": "三重県",
    "postCode": "514-0821",
    "address": "三重県津市垂水3032−18",
    "city": "つ",
    "image": "",
    "url": "http://sekisui-museum.or.jp/",
    "latlng": "[34.6978728, 136.504686]",
    "lat": 34.6978728,
    "lng": 136.504686,
    "isClosed": ""
  },
  {
    "id": "mie-museum-8",
    "type": "museum",
    "name": "三重県総合博物館",
    "prefecture": "三重県",
    "postCode": "514-0061",
    "address": "三重県津市一身田上津部田3060",
    "city": "つ",
    "image": "",
    "url": "https://www.bunka.pref.mie.lg.jp/MieMu/",
    "latlng": "[34.7422687, 136.5017456]",
    "lat": 34.7422687,
    "lng": 136.5017456,
    "isClosed": ""
  },
  {
    "id": "mie-museum-9",
    "type": "museum",
    "name": "鳥羽市立海の博物館",
    "prefecture": "三重県",
    "postCode": "517-0025",
    "address": "三重県鳥羽市浦村町 大吉1731−68",
    "city": "とば",
    "image": "",
    "url": "http://www.umihaku.com/",
    "latlng": "[34.4353049, 136.8979869]",
    "lat": 34.4353049,
    "lng": 136.8979869,
    "isClosed": ""
  },
  {
    "id": "mie-museum-10",
    "type": "museum",
    "name": "松浦武四郎記念館",
    "prefecture": "三重県",
    "postCode": "515-2109",
    "address": "三重県松阪市小野江町383",
    "city": "まつさか",
    "image": "",
    "url": "https://takeshiro.net/",
    "latlng": "[34.642606, 136.509113]",
    "lat": 34.642606,
    "lng": 136.509113,
    "isClosed": ""
  },
  {
    "id": "mie-museum-11",
    "type": "museum",
    "name": "松阪市文化財センター",
    "prefecture": "三重県",
    "postCode": "515-0821",
    "address": "三重県松阪市外五曲町1",
    "city": "まつさか",
    "image": "",
    "url": "https://www.city.matsusaka.mie.jp/site/bunkazai-center/",
    "latlng": "[34.5782542, 136.5202176]",
    "lat": 34.5782542,
    "lng": 136.5202176,
    "isClosed": ""
  },
  {
    "id": "mie-museum-12",
    "type": "museum",
    "name": "本居宣長記念館",
    "prefecture": "三重県",
    "postCode": "515-0073",
    "address": "三重県松阪市殿町1536−7",
    "city": "まつさか",
    "image": "",
    "url": "https://www.norinagakinenkan.com/",
    "latlng": "[34.5750098, 136.5253258]",
    "lat": 34.5750098,
    "lng": 136.5253258,
    "isClosed": ""
  },
  {
    "id": "mie-museum-13",
    "type": "museum",
    "name": "朝日町歴史博物館",
    "prefecture": "三重県",
    "postCode": "510-8103",
    "address": "三重県三重郡朝日町柿2278",
    "city": "あさひ",
    "image": "",
    "url": "https://asahitown-museum.com/",
    "latlng": "[35.036698, 136.6589656]",
    "lat": 35.036698,
    "lng": 136.6589656,
    "isClosed": ""
  },
  {
    "id": "mie-museum-14",
    "type": "museum",
    "name": "パラミタ・ミュージアム",
    "prefecture": "三重県",
    "postCode": "510-1245",
    "address": "三重県三重郡菰野町大羽根園松ケ枝町21−6",
    "city": "こもの",
    "image": "",
    "url": "https://www.paramitamuseum.com/top.html",
    "latlng": "[35.0127804, 136.4898819]",
    "lat": 35.0127804,
    "lng": 136.4898819,
    "isClosed": ""
  },
  {
    "id": "mie-museum-15",
    "type": "museum",
    "name": "四日市市立博物館",
    "prefecture": "三重県",
    "postCode": "510-0075",
    "address": "三重県四日市市安島1丁目3−16",
    "city": "よっかいち",
    "image": "",
    "url": "https://www.city.yokkaichi.mie.jp/museum/museum.html",
    "latlng": "[34.9679318, 136.615498]",
    "lat": 34.9679318,
    "lng": 136.615498,
    "isClosed": ""
  }
]