[
  {
    "id": "nagano-art-1",
    "type": "art",
    "name": "安曇野市豊科近代美術館",
    "prefecture": "長野県",
    "postCode": "399-8205",
    "address": "長野県安曇野市豊科5609−3",
    "city": "あづみの",
    "image": "",
    "url": "http://www.azumino-museum.com/",
    "latlng": "[36.3054766, 137.9062865]",
    "lat": 36.3054766,
    "lng": 137.9062865,
    "isClosed": ""
  },
  {
    "id": "nagano-art-2",
    "type": "art",
    "name": "安曇野高橋節郎記念美術館",
    "prefecture": "長野県",
    "postCode": "399-8302",
    "address": "長野県安曇野市穂高北穂高408−1",
    "city": "あづみの",
    "image": "",
    "url": "http://azumino-bunka.com/facility/setsuro-museum/",
    "latlng": "[36.3548888, 137.8914058]",
    "lat": 36.3548888,
    "lng": 137.8914058,
    "isClosed": ""
  },
  {
    "id": "nagano-art-3",
    "type": "art",
    "name": "碌山美術館",
    "prefecture": "長野県",
    "postCode": "399-8303",
    "address": "長野県安曇野市穂高5095−1",
    "city": "あづみの",
    "image": "",
    "url": "http://rokuzan.jp/",
    "latlng": "[36.3437008, 137.8814025]",
    "lat": 36.3437008,
    "lng": 137.8814025,
    "isClosed": ""
  },
  {
    "id": "nagano-art-4",
    "type": "art",
    "name": "飯田市美術博物館",
    "prefecture": "長野県",
    "postCode": "395-0034",
    "address": "長野県飯田市追手町2丁目655−7",
    "city": "いいだ",
    "image": "",
    "url": "https://www.iida-museum.org/",
    "latlng": "[35.5120009, 137.8305391]",
    "lat": 35.5120009,
    "lng": 137.8305391,
    "isClosed": ""
  },
  {
    "id": "nagano-art-5",
    "type": "art",
    "name": "上田市立美術館",
    "prefecture": "長野県",
    "postCode": "386-0025",
    "address": "長野県上田市天神3丁目15−15",
    "city": "うえだ",
    "image": "",
    "url": "https://www.santomyuze.com/museum/",
    "latlng": "[36.39873499999999, 138.2430352]",
    "lat": 36.39873499999999,
    "lng": 138.2430352,
    "isClosed": ""
  },
  {
    "id": "nagano-art-6",
    "type": "art",
    "name": "美ヶ原高原美術館",
    "prefecture": "長野県",
    "postCode": "386-0507",
    "address": "長野県上田市武石上本入2085−70",
    "city": "うえだ",
    "image": "",
    "url": "https://www.utsukushi-oam.jp/",
    "latlng": "[36.2301088, 138.1394856]",
    "lat": 36.2301088,
    "lng": 138.1394856,
    "isClosed": ""
  },
  {
    "id": "nagano-art-7",
    "type": "art",
    "name": "市立岡谷美術考古館",
    "prefecture": "長野県",
    "postCode": "394-0027",
    "address": "長野県岡谷市中央町1丁目9−8",
    "city": "おかや",
    "image": "",
    "url": "http://www.okaya-museum.jp/",
    "latlng": "[36.0587805, 138.047176]",
    "lat": 36.0587805,
    "lng": 138.047176,
    "isClosed": ""
  },
  {
    "id": "nagano-art-8",
    "type": "art",
    "name": "小さな絵本美術館",
    "prefecture": "長野県",
    "postCode": "394-0081",
    "address": "長野県岡谷市長地権現町4丁目6−13",
    "city": "おかや",
    "image": "",
    "url": "https://www.ba-ba.net/",
    "latlng": "[36.0645509, 138.0707216]",
    "lat": 36.0645509,
    "lng": 138.0707216,
    "isClosed": ""
  },
  {
    "id": "nagano-art-9",
    "type": "art",
    "name": "辰野美術館",
    "prefecture": "長野県",
    "postCode": "399-0425",
    "address": "長野県上伊那郡辰野町樋口2407−1",
    "city": "たつの",
    "image": "",
    "url": "http://artm.town.tatsuno.nagano.jp/",
    "latlng": "[35.9638477, 137.9925913]",
    "lat": 35.9638477,
    "lng": 137.9925913,
    "isClosed": ""
  },
  {
    "id": "nagano-art-10",
    "type": "art",
    "name": "グレイスフル芸術館　おぶせ藤岡牧夫美術館",
    "prefecture": "長野県",
    "postCode": "381-0211",
    "address": "長野県上高井郡小布施町雁田1171",
    "city": "おぶせ",
    "image": "",
    "url": "https://fujiokamakio.jp/",
    "latlng": "[36.6880404, 138.3295977]",
    "lat": 36.6880404,
    "lng": 138.3295977,
    "isClosed": ""
  },
  {
    "id": "nagano-art-11",
    "type": "art",
    "name": "北アルプス展望美術館（池田町立美術館）",
    "prefecture": "長野県",
    "postCode": "399-8602",
    "address": "長野県北安曇郡池田町会染7782",
    "city": "いけだ",
    "image": "",
    "url": "https://navam-ikd.jp",
    "latlng": "[36.3866282, 137.8955661]",
    "lat": 36.3866282,
    "lng": 137.8955661,
    "isClosed": ""
  },
  {
    "id": "nagano-art-12",
    "type": "art",
    "name": "安曇野ちひろ美術館",
    "prefecture": "長野県",
    "postCode": "399-8501",
    "address": "長野県北安曇郡松川村西原3358−24",
    "city": "まつかわ",
    "image": "",
    "url": "https://chihiro.jp/azumino/",
    "latlng": "[36.4104541, 137.8450247]",
    "lat": 36.4104541,
    "lng": 137.8450247,
    "isClosed": ""
  },
  {
    "id": "nagano-art-13",
    "type": "art",
    "name": "セゾン現代美術館",
    "prefecture": "長野県",
    "postCode": "389-0111",
    "address": "長野県北佐久郡軽井沢町長倉2140 芹ケ沢2140",
    "city": "かるいざわ",
    "image": "",
    "url": "https://smma.or.jp/",
    "latlng": "[36.3676023, 138.5837904]",
    "lat": 36.3676023,
    "lng": 138.5837904,
    "isClosed": ""
  },
  {
    "id": "nagano-art-14",
    "type": "art",
    "name": "田崎美術館",
    "prefecture": "長野県",
    "postCode": "389-0111",
    "address": "長野県北佐久郡軽井沢町長倉 横吹2141−279",
    "city": "かるいざわ",
    "image": "",
    "url": "http://tasaki-museum.org/",
    "latlng": "[36.3561967, 138.5898176]",
    "lat": 36.3561967,
    "lng": 138.5898176,
    "isClosed": ""
  },
  {
    "id": "nagano-art-15",
    "type": "art",
    "name": "ルヴァン美術館",
    "prefecture": "長野県",
    "postCode": "389-0111",
    "address": "長野県北佐久郡軽井沢町長倉957−10",
    "city": "かるいざわ",
    "image": "",
    "url": "https://www.levent.or.jp/",
    "latlng": "[36.3274374, 138.5850901]",
    "lat": 36.3274374,
    "lng": 138.5850901,
    "isClosed": ""
  },
  {
    "id": "nagano-art-16",
    "type": "art",
    "name": "脇田美術館",
    "prefecture": "長野県",
    "postCode": "389-0102",
    "address": "長野県北佐久郡軽井沢町旧道1570−4",
    "city": "かるいざわ",
    "image": "",
    "url": "http://www.wakita-museum.com/",
    "latlng": "[36.3483927, 138.5970297]",
    "lat": 36.3483927,
    "lng": 138.5970297,
    "isClosed": ""
  },
  {
    "id": "nagano-art-17",
    "type": "art",
    "name": "小諸市立小山敬三美術館",
    "prefecture": "長野県",
    "postCode": "384-0804",
    "address": "長野県小諸市丁221",
    "city": "こもろ",
    "image": "",
    "url": "https://www.city.komoro.lg.jp/soshikikarasagasu/kyoikuiinkaijimukyoku/bunkazai_shogaigakushuka/4/2/2/2084.html",
    "latlng": "[36.3281739, 138.4149234]",
    "lat": 36.3281739,
    "lng": 138.4149234,
    "isClosed": ""
  },
  {
    "id": "nagano-art-18",
    "type": "art",
    "name": "市立小諸高原美術館・白鳥映雪館",
    "prefecture": "長野県",
    "postCode": "384-0041",
    "address": "長野県小諸市菱平2805−1",
    "city": "こもろ",
    "image": "",
    "url": "https://www.city.komoro.lg.jp/soshikikarasagasu/kyoikuiinkaijimukyoku/bunkazai_shogaigakushuka/4/2/4/index.html",
    "latlng": "[36.3438217, 138.4204227]",
    "lat": 36.3438217,
    "lng": 138.4204227,
    "isClosed": ""
  },
  {
    "id": "nagano-art-19",
    "type": "art",
    "name": "佐久市立近代美術館",
    "prefecture": "長野県",
    "postCode": "385-0011",
    "address": "長野県佐久市猿久保35−5",
    "city": "さく",
    "image": "",
    "url": "https://www.city.saku.nagano.jp/museum/",
    "latlng": "[36.2557301, 138.4838489]",
    "lat": 36.2557301,
    "lng": 138.4838489,
    "isClosed": ""
  },
  {
    "id": "nagano-art-20",
    "type": "art",
    "name": "ハーモ美術館",
    "prefecture": "長野県",
    "postCode": "393-0045",
    "address": "長野県諏訪郡下諏訪町10616540",
    "city": "しもすわ",
    "image": "",
    "url": "http://www.harmo-museum.jp/",
    "latlng": "[36.0695678, 138.0801295]",
    "lat": 36.0695678,
    "lng": 138.0801295,
    "isClosed": ""
  },
  {
    "id": "nagano-art-21",
    "type": "art",
    "name": "伊東近代美術館",
    "prefecture": "長野県",
    "postCode": "392-0004",
    "address": "長野県諏訪市諏訪2丁目4−6",
    "city": "すわ",
    "image": "",
    "url": "",
    "latlng": "[36.0414512, 138.1210872]",
    "lat": 36.0414512,
    "lng": 138.1210872,
    "isClosed": ""
  },
  {
    "id": "nagano-art-22",
    "type": "art",
    "name": "北澤美術館",
    "prefecture": "長野県",
    "postCode": "392-0027",
    "address": "長野県諏訪市湖岸通り1丁目13−28",
    "city": "すわ",
    "image": "",
    "url": "https://kitazawa-museum.or.jp/",
    "latlng": "[36.0558261, 138.1117682]",
    "lat": 36.0558261,
    "lng": 138.1117682,
    "isClosed": ""
  },
  {
    "id": "nagano-art-23",
    "type": "art",
    "name": "サンリツ服部美術館",
    "prefecture": "長野県",
    "postCode": "392-0027",
    "address": "長野県諏訪市湖岸通り2丁目1−1",
    "city": "すわ",
    "image": "",
    "url": "http://www.sunritz-hattori-museum.or.jp/",
    "latlng": "[36.0551785, 138.1119297]",
    "lat": 36.0551785,
    "lng": 138.1119297,
    "isClosed": ""
  },
  {
    "id": "nagano-art-24",
    "type": "art",
    "name": "諏訪市原田泰治美術館",
    "prefecture": "長野県",
    "postCode": "392-0010",
    "address": "長野県諏訪市渋崎1792−375",
    "city": "すわ",
    "image": "",
    "url": "https://www.taizi-artmuseum.jp/",
    "latlng": "[36.0395376, 138.0980019]",
    "lat": 36.0395376,
    "lng": 138.0980019,
    "isClosed": ""
  },
  {
    "id": "nagano-art-25",
    "type": "art",
    "name": "諏訪市美術館",
    "prefecture": "長野県",
    "postCode": "392-0027",
    "address": "長野県諏訪市湖岸通り4丁目1−14",
    "city": "すわ",
    "image": "",
    "url": "https://www.city.suwa.lg.jp/site/museum/",
    "latlng": "[36.0478077, 138.1131162]",
    "lat": 36.0478077,
    "lng": 138.1131162,
    "isClosed": ""
  },
  {
    "id": "nagano-art-26",
    "type": "art",
    "name": "北野美術館",
    "prefecture": "長野県",
    "postCode": "381-0101",
    "address": "長野県長野市若穂綿内7963−2",
    "city": "ながの",
    "image": "",
    "url": "https://kitano-museum.or.jp/",
    "latlng": "[36.6177489, 138.2528564]",
    "lat": 36.6177489,
    "lng": 138.2528564,
    "isClosed": ""
  },
  {
    "id": "nagano-art-27",
    "type": "art",
    "name": "北野美術館分館北野カルチュラルセンター",
    "prefecture": "長野県",
    "postCode": "380-0845",
    "address": "長野県長野市南長野西後町1603 北野美術館分館",
    "city": "ながの",
    "image": "",
    "url": "https://kitano-museum.or.jp/cultural/",
    "latlng": "[36.6530299, 138.1870631]",
    "lat": 36.6530299,
    "lng": 138.1870631,
    "isClosed": ""
  },
  {
    "id": "nagano-art-28",
    "type": "art",
    "name": "長野県立美術館",
    "prefecture": "長野県",
    "postCode": "380-0801",
    "address": "長野県長野市箱清水1丁目4−4",
    "city": "ながの",
    "image": "",
    "url": "https://nagano.art.museum/",
    "latlng": "[36.66153600000001, 138.1910147]",
    "lat": 36.66153600000001,
    "lng": 138.1910147,
    "isClosed": ""
  },
  {
    "id": "nagano-art-29",
    "type": "art",
    "name": "長野市立博物館分館　信州新町美術館　有島生馬記念館",
    "prefecture": "長野県",
    "postCode": "381-2404",
    "address": "長野県長野市信州新町上条88−3",
    "city": "ながの",
    "image": "",
    "url": "http://www.ngn.janis.or.jp/~shinmachi-museum/",
    "latlng": "[36.5719912, 138.0208983]",
    "lat": 36.5719912,
    "lng": 138.0208983,
    "isClosed": ""
  },
  {
    "id": "nagano-art-30",
    "type": "art",
    "name": "水野美術館",
    "prefecture": "長野県",
    "postCode": "380-0928",
    "address": "長野県長野市若里6丁目2−20",
    "city": "ながの",
    "image": "",
    "url": "https://mizuno-museum.jp/",
    "latlng": "[36.628232, 138.1931434]",
    "lat": 36.628232,
    "lng": 138.1931434,
    "isClosed": ""
  },
  {
    "id": "nagano-art-31",
    "type": "art",
    "name": "朝日美術館",
    "prefecture": "長野県",
    "postCode": "390-1104",
    "address": "長野県東筑摩郡朝日村古見1308",
    "city": "あさひ",
    "image": "",
    "url": "https://www.vill.asahi.nagano.jp/special/asahibijutsukan/index.html",
    "latlng": "[36.1253151, 137.865878]",
    "lat": 36.1253151,
    "lng": 137.865878,
    "isClosed": ""
  },
  {
    "id": "nagano-art-32",
    "type": "art",
    "name": "松本市美術館",
    "prefecture": "長野県",
    "postCode": "390-0811",
    "address": "長野県松本市中央4丁目2−22",
    "city": "まつもと",
    "image": "",
    "url": "https://matsumoto-artmuse.jp/",
    "latlng": "[36.2320143, 137.9764674]",
    "lat": 36.2320143,
    "lng": 137.9764674,
    "isClosed": ""
  },
  {
    "id": "nagano-art-33",
    "type": "art",
    "name": "小海町高原美術館",
    "prefecture": "長野県",
    "postCode": "384-1103",
    "address": "長野県南佐久郡小海町豊里5918−2",
    "city": "こうみ",
    "image": "",
    "url": "https://www.koumi-museum.com/",
    "latlng": "[36.0593653, 138.4401852]",
    "lat": 36.0593653,
    "lng": 138.4401852,
    "isClosed": ""
  },
  {
    "id": "nagano-art-34",
    "type": "art",
    "name": "京都造形芸術大学附属康耀堂美術館",
    "prefecture": "長野県",
    "postCode": "391-0213",
    "address": "長野県茅野市豊平4734-215",
    "city": "ちの",
    "image": "",
    "url": "http://www.koyodo-museum.com/",
    "latlng": "[36.0091692, 138.2313169]",
    "lat": 36.0091692,
    "lng": 138.2313169,
    "isClosed": ""
  }
]