[
  {
    "id": "nagano-museum-1",
    "type": "museum",
    "name": "TRIAD　IIDA・KAN",
    "prefecture": "長野県",
    "postCode": "399-8305",
    "address": "長野県安曇野市穂高牧1856−1",
    "city": "あづみの",
    "image": "",
    "url": "https://www.harmonicito-f.or.jp/iida_kan/",
    "latlng": "[36.3281813, 137.8351228]",
    "lat": 36.3281813,
    "lng": 137.8351228,
    "isClosed": ""
  },
  {
    "id": "nagano-museum-2",
    "type": "museum",
    "name": "安曇野市豊科郷土博物館",
    "prefecture": "長野県",
    "postCode": "399-8205",
    "address": "長野県安曇野市豊科4289−8",
    "city": "あづみの",
    "image": "",
    "url": "https://www.city.azumino.nagano.jp/site/museum/",
    "latlng": "[36.2996566, 137.9082294]",
    "lat": 36.2996566,
    "lng": 137.9082294,
    "isClosed": ""
  },
  {
    "id": "nagano-museum-3",
    "type": "museum",
    "name": "田淵行男記念館",
    "prefecture": "長野県",
    "postCode": "399-8201",
    "address": "長野県安曇野市豊科南穂高5078−2",
    "city": "あづみの",
    "image": "",
    "url": "http://azumino-bunka.com/facility/tabuchi-museum/",
    "latlng": "[36.3256111, 137.9039491]",
    "lat": 36.3256111,
    "lng": 137.9039491,
    "isClosed": ""
  },
  {
    "id": "nagano-museum-4",
    "type": "museum",
    "name": "飯田市上郷考古博物館",
    "prefecture": "長野県",
    "postCode": "395-0003",
    "address": "長野県飯田市上郷別府2428−1",
    "city": "いいだ",
    "image": "",
    "url": "https://www.city.iida.lg.jp/site/yuiturn/page-eid563.html",
    "latlng": "[35.5164425, 137.8371285]",
    "lat": 35.5164425,
    "lng": 137.8371285,
    "isClosed": ""
  },
  {
    "id": "nagano-museum-5",
    "type": "museum",
    "name": "上田市立信濃国分寺資料館",
    "prefecture": "長野県",
    "postCode": "386-0016",
    "address": "長野県上田市国分1125",
    "city": "うえだ",
    "image": "",
    "url": "https://museum.umic.jp/kokubunji/",
    "latlng": "[36.3812324, 138.2697928]",
    "lat": 36.3812324,
    "lng": 138.2697928,
    "isClosed": ""
  },
  {
    "id": "nagano-museum-6",
    "type": "museum",
    "name": "上田市立博物館",
    "prefecture": "長野県",
    "postCode": "386-0026",
    "address": "長野県上田市二の丸3−3",
    "city": "うえだ",
    "image": "",
    "url": "https://museum.umic.jp/hakubutsukan/",
    "latlng": "[36.403727, 138.2464985]",
    "lat": 36.403727,
    "lng": 138.2464985,
    "isClosed": ""
  },
  {
    "id": "nagano-museum-7",
    "type": "museum",
    "name": "上田市立丸子郷土博物館",
    "prefecture": "長野県",
    "postCode": "386-0413",
    "address": "長野県上田市東内2564−1",
    "city": "うえだ",
    "image": "",
    "url": "https://www.city.ueda.nagano.jp/soshiki/u-hakubutukan/1253.html",
    "latlng": "[36.3126387, 138.2335097]",
    "lat": 36.3126387,
    "lng": 138.2335097,
    "isClosed": ""
  },
  {
    "id": "nagano-museum-8",
    "type": "museum",
    "name": "松山記念館",
    "prefecture": "長野県",
    "postCode": "386-0401",
    "address": "長野県上田市塩川2874−1",
    "city": "うえだ",
    "image": "",
    "url": "http://www.matsuyama-museum.or.jp/",
    "latlng": "[36.3655762, 138.2929007]",
    "lat": 36.3655762,
    "lng": 138.2929007,
    "isClosed": ""
  },
  {
    "id": "nagano-museum-9",
    "type": "museum",
    "name": "大町エネルギー博物館",
    "prefecture": "長野県",
    "postCode": "398-0001",
    "address": "長野県大町市平2112−38",
    "city": "おおまち",
    "image": "",
    "url": "https://www.city.omachi.nagano.jp/00025000/00025100/00025102.html",
    "latlng": "[36.5152179, 137.7933686]",
    "lat": 36.5152179,
    "lng": 137.7933686,
    "isClosed": ""
  },
  {
    "id": "nagano-museum-10",
    "type": "museum",
    "name": "市立大町山岳博物館",
    "prefecture": "長野県",
    "postCode": "398-0002",
    "address": "長野県大町市大町8056−1",
    "city": "おおまち",
    "image": "",
    "url": "http://www.omachi-sanpaku.com/",
    "latlng": "[36.5055178, 137.8698371]",
    "lat": 36.5055178,
    "lng": 137.8698371,
    "isClosed": ""
  },
  {
    "id": "nagano-museum-11",
    "type": "museum",
    "name": "箕輪町郷土博物館",
    "prefecture": "長野県",
    "postCode": "399-4601",
    "address": "長野県上伊那郡箕輪町松島10286",
    "city": "みのわ",
    "image": "",
    "url": "https://www.town.minowa.lg.jp/list/kyoudo.html",
    "latlng": "[35.9170381, 137.9919074]",
    "lat": 35.9170381,
    "lng": 137.9919074,
    "isClosed": ""
  },
  {
    "id": "nagano-museum-12",
    "type": "museum",
    "name": "おぶせミュージアム・中島千波館",
    "prefecture": "長野県",
    "postCode": "381-0201",
    "address": "長野県上高井郡小布施町小布施595",
    "city": "おぶせ",
    "image": "",
    "url": "https://www.town.obuse.nagano.jp/site/obusemuseum/",
    "latlng": "[36.6988492, 138.3187356]",
    "lat": 36.6988492,
    "lng": 138.3187356,
    "isClosed": ""
  },
  {
    "id": "nagano-museum-13",
    "type": "museum",
    "name": "日本のあかり博物館",
    "prefecture": "長野県",
    "postCode": "381-0201",
    "address": "長野県上高井郡小布施町小布施 上町973",
    "city": "おぶせ",
    "image": "",
    "url": "https://nihonnoakari.or.jp/",
    "latlng": "[36.693098, 138.315659]",
    "lat": 36.693098,
    "lng": 138.315659,
    "isClosed": ""
  },
  {
    "id": "nagano-museum-14",
    "type": "museum",
    "name": "北斎館",
    "prefecture": "長野県",
    "postCode": "381-0201",
    "address": "長野県上高井郡小布施町小布施485",
    "city": "おぶせ",
    "image": "",
    "url": "https://hokusai-kan.com/",
    "latlng": "[36.6942608, 138.3171978]",
    "lat": 36.6942608,
    "lng": 138.3171978,
    "isClosed": ""
  },
  {
    "id": "nagano-museum-15",
    "type": "museum",
    "name": "歴史公園信州高山一茶ゆかりの里一茶館",
    "prefecture": "長野県",
    "postCode": "382-0800",
    "address": "長野県上高井郡高山村高井5161−1",
    "city": "たかやま",
    "image": "",
    "url": "https://www.kobayashi-issa.jp/",
    "latlng": "[36.680544, 138.3594038]",
    "lat": 36.680544,
    "lng": 138.3594038,
    "isClosed": ""
  },
  {
    "id": "nagano-museum-16",
    "type": "museum",
    "name": "野尻湖ナウマンゾウ博物館",
    "prefecture": "長野県",
    "postCode": "389-1303",
    "address": "長野県上水内郡信濃町野尻287−5",
    "city": "しなの",
    "image": "",
    "url": "http://nojiriko-museum.com/",
    "latlng": "[36.8322185, 138.2062609]",
    "lat": 36.8322185,
    "lng": 138.2062609,
    "isClosed": ""
  },
  {
    "id": "nagano-museum-17",
    "type": "museum",
    "name": "南木曽町博物館",
    "prefecture": "長野県",
    "postCode": "",
    "address": "長野県木曽郡南木曽町",
    "city": "なぎそ",
    "image": "",
    "url": "http://nagiso-museum.jp/",
    "latlng": "[35.6038071, 137.6089611]",
    "lat": 35.6038071,
    "lng": 137.6089611,
    "isClosed": ""
  },
  {
    "id": "nagano-museum-18",
    "type": "museum",
    "name": "軽井沢町追分宿郷土館",
    "prefecture": "長野県",
    "postCode": "389-0115",
    "address": "長野県北佐久郡軽井沢町追分1155−8",
    "city": "かるいざわ",
    "image": "",
    "url": "https://www.town.karuizawa.lg.jp/www/contents/1001000000936/index.html",
    "latlng": "[36.3414247, 138.5474877]",
    "lat": 36.3414247,
    "lng": 138.5474877,
    "isClosed": ""
  },
  {
    "id": "nagano-museum-19",
    "type": "museum",
    "name": "軽井沢町歴史民俗資料館",
    "prefecture": "長野県",
    "postCode": "389-0111",
    "address": "長野県北佐久郡軽井沢町長倉2112−101",
    "city": "かるいざわ",
    "image": "",
    "url": "https://www.town.karuizawa.lg.jp/www/genre/1000100000047/index.html",
    "latlng": "[36.3450364, 138.6065336]",
    "lat": 36.3450364,
    "lng": 138.6065336,
    "isClosed": ""
  },
  {
    "id": "nagano-museum-20",
    "type": "museum",
    "name": "浅間縄文ミュージアム",
    "prefecture": "長野県",
    "postCode": "389-0207",
    "address": "長野県北佐久郡御代田町馬瀬口1901−1",
    "city": "みよた",
    "image": "",
    "url": "http://w2.avis.ne.jp/~jomon/",
    "latlng": "[36.3215611, 138.5061426]",
    "lat": 36.3215611,
    "lng": 138.5061426,
    "isClosed": ""
  },
  {
    "id": "nagano-museum-21",
    "type": "museum",
    "name": "佐久市立天来記念館",
    "prefecture": "長野県",
    "postCode": "384-2202",
    "address": "長野県佐久市望月305−2",
    "city": "さく",
    "image": "",
    "url": "https://www.city.saku.nagano.jp/shisetsu/sakubun/tenraikinenkan/index.html",
    "latlng": "[36.2651799, 138.3614022]",
    "lat": 36.2651799,
    "lng": 138.3614022,
    "isClosed": ""
  },
  {
    "id": "nagano-museum-22",
    "type": "museum",
    "name": "大鹿村中央構造線博物館",
    "prefecture": "長野県",
    "postCode": "399-3502",
    "address": "長野県下伊那郡大鹿村大河原988",
    "city": "おおしか",
    "image": "",
    "url": "https://mtl-muse.com/",
    "latlng": "[35.5566212, 138.03812]",
    "lat": 35.5566212,
    "lng": 138.03812,
    "isClosed": ""
  },
  {
    "id": "nagano-museum-23",
    "type": "museum",
    "name": "田中本家博物館",
    "prefecture": "長野県",
    "postCode": "382-0085",
    "address": "長野県須坂市小山穀町476",
    "city": "すざか",
    "image": "",
    "url": "https://tanakahonke.org/",
    "latlng": "[36.6500975, 138.316241]",
    "lat": 36.6500975,
    "lng": 138.316241,
    "isClosed": ""
  },
  {
    "id": "nagano-museum-24",
    "type": "museum",
    "name": "下諏訪町立諏訪湖博物館・赤彦記念館",
    "prefecture": "長野県",
    "postCode": "393-0033",
    "address": "長野県諏訪郡下諏訪町西高木10616−111",
    "city": "しもすわ",
    "image": "",
    "url": "http://www.town.shimosuwa.lg.jp/www/genre/1474269863762/index.html",
    "latlng": "[36.0668098, 138.1018601]",
    "lat": 36.0668098,
    "lng": 138.1018601,
    "isClosed": ""
  },
  {
    "id": "nagano-museum-25",
    "type": "museum",
    "name": "富士見町高原のミュージアム",
    "prefecture": "長野県",
    "postCode": "399-0211",
    "address": "長野県諏訪郡富士見町富士見3597−1",
    "city": "ふじみ",
    "image": "",
    "url": "https://www.nagano-museum.com/info/detail.php?fno=123",
    "latlng": "[35.9131589, 138.2367871]",
    "lat": 35.9131589,
    "lng": 138.2367871,
    "isClosed": ""
  },
  {
    "id": "nagano-museum-26",
    "type": "museum",
    "name": "諏訪教育博物館",
    "prefecture": "長野県",
    "postCode": "392-0004",
    "address": "長野県諏訪市諏訪1丁目23−10",
    "city": "すわ",
    "image": "",
    "url": "http://www.suwa-k.or.jp/?page_id=161",
    "latlng": "[36.0461867, 138.1185464]",
    "lat": 36.0461867,
    "lng": 138.1185464,
    "isClosed": ""
  },
  {
    "id": "nagano-museum-27",
    "type": "museum",
    "name": "諏訪市博物館",
    "prefecture": "長野県",
    "postCode": "392-0015",
    "address": "長野県諏訪市中洲171−2",
    "city": "すわ",
    "image": "",
    "url": "https://suwacitymuseum.jp/",
    "latlng": "[36.0002863, 138.1214001]",
    "lat": 36.0002863,
    "lng": 138.1214001,
    "isClosed": ""
  },
  {
    "id": "nagano-museum-28",
    "type": "museum",
    "name": "黒曜石展示・体験館（星くずの里たかやま　黒耀石体験ミュージアム）",
    "prefecture": "長野県",
    "postCode": "386-0601",
    "address": "長野県小県郡長和町大門3670−3",
    "city": "ながわ",
    "image": "",
    "url": "http://www.hoshikuso.jp/",
    "latlng": "[36.1493887, 138.2034662]",
    "lat": 36.1493887,
    "lng": 138.2034662,
    "isClosed": ""
  },
  {
    "id": "nagano-museum-29",
    "type": "museum",
    "name": "千曲市さらしなの里歴史資料館",
    "prefecture": "長野県",
    "postCode": "389-0812",
    "address": "長野県千曲市羽尾247−1",
    "city": "ちくま",
    "image": "",
    "url": "https://www.city.chikuma.lg.jp/soshiki/rekishibunkazaicenter/sarashinanosato_rekishi/2270.html",
    "latlng": "[36.5003223, 138.1137368]",
    "lat": 36.5003223,
    "lng": 138.1137368,
    "isClosed": ""
  },
  {
    "id": "nagano-museum-30",
    "type": "museum",
    "name": "千曲市森将軍塚古墳館",
    "prefecture": "長野県",
    "postCode": "387-0007",
    "address": "長野県千曲市屋代29−1",
    "city": "ちくま",
    "image": "",
    "url": "https://www.city.chikuma.lg.jp/soshiki/rekishibunkazaicenter/mori_shogunzuka/index.html",
    "latlng": "[36.5343803, 138.1375562]",
    "lat": 36.5343803,
    "lng": 138.1375562,
    "isClosed": ""
  },
  {
    "id": "nagano-museum-31",
    "type": "museum",
    "name": "長野県立歴史館",
    "prefecture": "長野県",
    "postCode": "387-0007",
    "address": "長野県千曲市屋代260−6",
    "city": "ちくま",
    "image": "",
    "url": "https://www.npmh.net/",
    "latlng": "[36.5339619, 138.1352328]",
    "lat": 36.5339619,
    "lng": 138.1352328,
    "isClosed": ""
  },
  {
    "id": "nagano-museum-32",
    "type": "museum",
    "name": "茅野市神長官守矢史料館",
    "prefecture": "長野県",
    "postCode": "391-0013",
    "address": "長野県茅野市宮川389−1",
    "city": "ちの",
    "image": "",
    "url": "https://www.city.chino.lg.jp/soshiki/bunkazai/1639.html",
    "latlng": "[35.99553909999999, 138.1279923]",
    "lat": 35.99553909999999,
    "lng": 138.1279923,
    "isClosed": ""
  },
  {
    "id": "nagano-museum-33",
    "type": "museum",
    "name": "茅野市尖石縄文考古館",
    "prefecture": "長野県",
    "postCode": "391-0213",
    "address": "長野県茅野市豊平4734−132",
    "city": "ちの",
    "image": "",
    "url": "https://www.city.chino.lg.jp/site/togariishi/",
    "latlng": "[36.0136762, 138.2338067]",
    "lat": 36.0136762,
    "lng": 138.2338067,
    "isClosed": ""
  },
  {
    "id": "nagano-museum-34",
    "type": "museum",
    "name": "茅野市八ヶ岳総合博物館",
    "prefecture": "長野県",
    "postCode": "391-0213",
    "address": "長野県茅野市豊平6983",
    "city": "ちの",
    "image": "",
    "url": "https://www.city.chino.lg.jp/site/y-hakubutsukan/",
    "latlng": "[36.0172269, 138.2072766]",
    "lat": 36.0172269,
    "lng": 138.2072766,
    "isClosed": ""
  },
  {
    "id": "nagano-museum-35",
    "type": "museum",
    "name": "中野市立博物館",
    "prefecture": "長野県",
    "postCode": "383-0046",
    "address": "長野県中野市片塩1221",
    "city": "なかの",
    "image": "",
    "url": "https://www.city.nakano.nagano.jp/categories/hakubutukan/",
    "latlng": "[36.7510815, 138.3407657]",
    "lat": 36.7510815,
    "lng": 138.3407657,
    "isClosed": ""
  },
  {
    "id": "nagano-museum-36",
    "type": "museum",
    "name": "信濃教育博物館",
    "prefecture": "長野県",
    "postCode": "380-0846",
    "address": "長野県長野市長野旭町1098",
    "city": "ながの",
    "image": "",
    "url": "https://shinkyo.or.jp/museum/guide",
    "latlng": "[36.6551028, 138.183809]",
    "lat": 36.6551028,
    "lng": 138.183809,
    "isClosed": ""
  },
  {
    "id": "nagano-museum-37",
    "type": "museum",
    "name": "長野市立博物館",
    "prefecture": "長野県",
    "postCode": "381-2212",
    "address": "長野県長野市小島田町1414 市立博物館",
    "city": "ながの",
    "image": "",
    "url": "https://www.city.nagano.nagano.jp/museum/",
    "latlng": "[36.5917103, 138.1884722]",
    "lat": 36.5917103,
    "lng": 138.1884722,
    "isClosed": ""
  },
  {
    "id": "nagano-museum-38",
    "type": "museum",
    "name": "長野市立博物館分館戸隠地質化石博物館",
    "prefecture": "長野県",
    "postCode": "381-4104",
    "address": "長野県長野市戸隠栃原3400",
    "city": "ながの",
    "image": "",
    "url": "http://www.tgk.janis.or.jp/~togakushi-museum/index.html",
    "latlng": "[36.6785417, 138.0681357]",
    "lat": 36.6785417,
    "lng": 138.0681357,
    "isClosed": ""
  },
  {
    "id": "nagano-museum-39",
    "type": "museum",
    "name": "日本浮世絵博物館",
    "prefecture": "長野県",
    "postCode": "390-0852",
    "address": "長野県松本市島立2206−1",
    "city": "まつもと",
    "image": "",
    "url": "http://www.japan-ukiyoe-museum.com/",
    "latlng": "[36.2318219, 137.9346141]",
    "lat": 36.2318219,
    "lng": 137.9346141,
    "isClosed": ""
  },
  {
    "id": "nagano-museum-40",
    "type": "museum",
    "name": "松本市立博物館分館　旧制高等学校記念館",
    "prefecture": "長野県",
    "postCode": "390-0812",
    "address": "長野県松本市県3丁目1−1",
    "city": "まつもと",
    "image": "",
    "url": "https://matsu-haku.com/koutougakkou/",
    "latlng": "[36.2308253, 137.9822018]",
    "lat": 36.2308253,
    "lng": 137.9822018,
    "isClosed": ""
  },
  {
    "id": "nagano-museum-41",
    "type": "museum",
    "name": "松本市立博物館分館　松本市立考古博物館",
    "prefecture": "長野県",
    "postCode": "390-0823",
    "address": "長野県松本市中山3738−1",
    "city": "まつもと",
    "image": "",
    "url": "https://matsu-haku.com/kouko/",
    "latlng": "[36.1931619, 138.0013765]",
    "lat": 36.1931619,
    "lng": 138.0013765,
    "isClosed": ""
  },
  {
    "id": "nagano-museum-42",
    "type": "museum",
    "name": "松本市立博物館分館松本市歴史の里",
    "prefecture": "長野県",
    "postCode": "390-0874",
    "address": "長野県松本市大手3丁目2−21",
    "city": "まつもと",
    "image": "",
    "url": "https://matsu-haku.com/rekishinosato/",
    "latlng": "[36.2352245, 137.9694186]",
    "lat": 36.2352245,
    "lng": 137.9694186,
    "isClosed": ""
  },
  {
    "id": "nagano-museum-43",
    "type": "museum",
    "name": "文化学園北竜湖資料館",
    "prefecture": "長野県",
    "postCode": "389-2322",
    "address": "長野県飯山市瑞穂7791−1",
    "city": "いいやま",
    "image": "",
    "url": "http://bunkahokuryukan.com/",
    "latlng": "[36.9041557, 138.4234056]",
    "lat": 36.9041557,
    "lng": 138.4234056,
    "isClosed": ""
  },
  {
    "id": "nagano-museum-44",
    "type": "museum",
    "name": "岡谷蚕糸博物館",
    "prefecture": "長野県",
    "postCode": "394-0021",
    "address": "長野県岡谷市郷田1丁目4−8",
    "city": "おかや",
    "image": "",
    "url": "https://silkfact.jp/",
    "latlng": "[36.06993, 138.0493246]",
    "lat": 36.06993,
    "lng": 138.0493246,
    "isClosed": ""
  },
  {
    "id": "nagano-museum-45",
    "type": "museum",
    "name": "一茶記念館",
    "prefecture": "長野県",
    "postCode": "389-1305",
    "address": "長野県上水内郡信濃町柏原2437−2",
    "city": "しなの",
    "image": "",
    "url": "http://www.issakinenkan.com/",
    "latlng": "[36.808999, 138.2006517]",
    "lat": 36.808999,
    "lng": 138.2006517,
    "isClosed": ""
  },
  {
    "id": "nagano-museum-46",
    "type": "museum",
    "name": "塩尻市立平出博物館",
    "prefecture": "長野県",
    "postCode": "399-6461",
    "address": "長野県塩尻市宗賀1011−3",
    "city": "しおじり",
    "image": "",
    "url": "https://hiraide.shiojiri.com/",
    "latlng": "[36.0991573, 137.9394077]",
    "lat": 36.0991573,
    "lng": 137.9394077,
    "isClosed": ""
  },
  {
    "id": "nagano-museum-47",
    "type": "museum",
    "name": "信州大学教育学部附属志賀自然教育研究施設",
    "prefecture": "長野県",
    "postCode": "390-8621",
    "address": "長野県松本市旭3丁目1−1",
    "city": "まつもと",
    "image": "",
    "url": "https://www.shinshu-u.ac.jp/faculty/education/shiga/index.html",
    "latlng": "[36.2511449, 137.9801691]",
    "lat": 36.2511449,
    "lng": 137.9801691,
    "isClosed": ""
  },
  {
    "id": "nagano-museum-48",
    "type": "museum",
    "name": "古代遺跡徳間博物館",
    "prefecture": "長野県",
    "postCode": "381-0041",
    "address": "長野県長野市徳間 本堂原1067−2",
    "city": "ながの",
    "image": "",
    "url": "",
    "latlng": "[36.6793038, 138.2318893]",
    "lat": 36.6793038,
    "lng": 138.2318893,
    "isClosed": ""
  },
  {
    "id": "nagano-museum-49",
    "type": "museum",
    "name": "善光寺大勧進宝物館",
    "prefecture": "長野県",
    "postCode": "380-0851",
    "address": "長野県長野市長野元善町492 善光寺大勧進宝物館",
    "city": "ながの",
    "image": "",
    "url": "https://daikanjin.jp/houbutsu/",
    "latlng": "[36.6605575, 138.1863916]",
    "lat": 36.6605575,
    "lng": 138.1863916,
    "isClosed": ""
  },
  {
    "id": "nagano-museum-50",
    "type": "museum",
    "name": "坂城町鉄の展示館",
    "prefecture": "長野県",
    "postCode": "389-0601",
    "address": "長野県埴科郡坂城町坂城6313−2",
    "city": "さかき",
    "image": "",
    "url": "https://www.tetsu-museum.info/",
    "latlng": "[36.463377, 138.1830712]",
    "lat": 36.463377,
    "lng": 138.1830712,
    "isClosed": ""
  }
]