[
  {
    "id": "fukui-museum-1",
    "type": "museum",
    "name": "吉崎御坊蓮如上人記念館",
    "prefecture": "福井県",
    "postCode": "922-0679",
    "address": "福井県あわら市吉崎1丁目901",
    "city": "あわら",
    "image": "",
    "url": "https://honganjifoundation.org/rennyo/",
    "latlng": "[36.28978439999999, 136.2516937]",
    "lat": 36.28978439999999,
    "lng": 136.2516937,
    "isClosed": ""
  },
  {
    "id": "fukui-museum-2",
    "type": "museum",
    "name": "越前市武生公会堂記念館",
    "prefecture": "福井県",
    "postCode": "915-0074",
    "address": "福井県越前市蓬莱町8−8",
    "city": "えちぜん",
    "image": "",
    "url": "https://www.city.echizen.lg.jp/office/090/030/bunkasisetu/kokaido-top.html",
    "latlng": "[35.9017418, 136.1683019]",
    "lat": 35.9017418,
    "lng": 136.1683019,
    "isClosed": ""
  },
  {
    "id": "fukui-museum-3",
    "type": "museum",
    "name": "大野市歴史博物館",
    "prefecture": "福井県",
    "postCode": "912-0084",
    "address": "福井県大野市天神町2−4",
    "city": "おおの",
    "image": "",
    "url": "https://www.city.ono.fukui.jp/kosodate/bunka-rekishi/hakubutsukan/shisetsu/hakubutsukan/index.html",
    "latlng": "[35.9809348, 136.4888334]",
    "lat": 35.9809348,
    "lng": 136.4888334,
    "isClosed": ""
  },
  {
    "id": "fukui-museum-4",
    "type": "museum",
    "name": "福井県立若狭歴史博物館",
    "prefecture": "福井県",
    "postCode": "917-0241",
    "address": "福井県小浜市遠敷2丁目104",
    "city": "おばま",
    "image": "",
    "url": "https://wakahaku.pref.fukui.lg.jp/",
    "latlng": "[35.4841241, 135.7849587]",
    "lat": 35.4841241,
    "lng": 135.7849587,
    "isClosed": ""
  },
  {
    "id": "fukui-museum-5",
    "type": "museum",
    "name": "勝山城博物館",
    "prefecture": "福井県",
    "postCode": "911-0822",
    "address": "福井県勝山市平泉寺町85−26−1",
    "city": "かつやま",
    "image": "",
    "url": "http://www.katsuyamajyou.com/",
    "latlng": "[36.0427493, 136.5205153]",
    "lat": 36.0427493,
    "lng": 136.5205153,
    "isClosed": ""
  },
  {
    "id": "fukui-museum-6",
    "type": "museum",
    "name": "福井県立恐竜博物館",
    "prefecture": "福井県",
    "postCode": "911-8601",
    "address": "福井県勝山市村岡町寺尾51−11",
    "city": "かつやま",
    "image": "",
    "url": "https://www.dinosaur.pref.fukui.jp/",
    "latlng": "[36.0846849, 136.5068357]",
    "lat": 36.0846849,
    "lng": 136.5068357,
    "isClosed": ""
  },
  {
    "id": "fukui-museum-7",
    "type": "museum",
    "name": "坂井市龍翔博物館",
    "prefecture": "福井県",
    "postCode": "913-0048",
    "address": "福井県坂井市三国町緑ケ丘4丁目2−1",
    "city": "さかい",
    "image": "",
    "url": "https://www.ryusyokan.jp/",
    "latlng": "[36.2199992, 136.1515112]",
    "lat": 36.2199992,
    "lng": 136.1515112,
    "isClosed": ""
  },
  {
    "id": "fukui-museum-8",
    "type": "museum",
    "name": "鯖江市まなべの館",
    "prefecture": "福井県",
    "postCode": "916-0024",
    "address": "福井県鯖江市長泉寺町1丁目9−20",
    "city": "さばえ",
    "image": "",
    "url": "https://www.city.sabae.fukui.jp/kosodate_kyoiku/manabenoyakata/manabenoyakata.html",
    "latlng": "[35.9536031, 136.1844068]",
    "lat": 35.9536031,
    "lng": 136.1844068,
    "isClosed": ""
  },
  {
    "id": "fukui-museum-9",
    "type": "museum",
    "name": "敦賀郷土博物館",
    "prefecture": "福井県",
    "postCode": "914-0058",
    "address": "福井県敦賀市三島町1丁目3−3",
    "city": "つるが",
    "image": "",
    "url": "https://www.pref.fukui.lg.jp/muse/Cul-Hist/fmc/detail/turukyou.html",
    "latlng": "[35.6517083, 136.0666398]",
    "lat": 35.6517083,
    "lng": 136.0666398,
    "isClosed": ""
  },
  {
    "id": "fukui-museum-10",
    "type": "museum",
    "name": "敦賀市立博物館",
    "prefecture": "福井県",
    "postCode": "914-0062",
    "address": "福井県敦賀市相生町7−8",
    "city": "つるが",
    "image": "",
    "url": "https://tsuruga-municipal-museum.jp/",
    "latlng": "[35.6565426, 136.0688283]",
    "lat": 35.6565426,
    "lng": 136.0688283,
    "isClosed": ""
  },
  {
    "id": "fukui-museum-11",
    "type": "museum",
    "name": "福井県立こども歴史文化館",
    "prefecture": "福井県",
    "postCode": "910-0853",
    "address": "福井県福井市城東1丁目18−21",
    "city": "ふくい",
    "image": "",
    "url": "http://info.pref.fukui.jp/koreki/",
    "latlng": "[36.0616464, 136.2342064]",
    "lat": 36.0616464,
    "lng": 136.2342064,
    "isClosed": ""
  },
  {
    "id": "fukui-museum-12",
    "type": "museum",
    "name": "福井県立歴史博物館",
    "prefecture": "福井県",
    "postCode": "910-0016",
    "address": "福井県福井市大宮2丁目19−15",
    "city": "ふくい",
    "image": "",
    "url": "https://www.pref.fukui.lg.jp/muse/Cul-Hist/",
    "latlng": "[36.0830513, 136.2223881]",
    "lat": 36.0830513,
    "lng": 136.2223881,
    "isClosed": ""
  },
  {
    "id": "fukui-museum-13",
    "type": "museum",
    "name": "福井市自然史博物館",
    "prefecture": "福井県",
    "postCode": "918-8006",
    "address": "福井県福井市足羽上町147",
    "city": "ふくい",
    "image": "",
    "url": "http://www.nature.museum.city.fukui.fukui.jp/",
    "latlng": "[36.05439000000001, 136.2059411]",
    "lat": 36.05439000000001,
    "lng": 136.2059411,
    "isClosed": ""
  },
  {
    "id": "fukui-museum-14",
    "type": "museum",
    "name": "福井市立郷土歴史博物館",
    "prefecture": "福井県",
    "postCode": "910-0004",
    "address": "福井県福井市宝永3丁目12−1",
    "city": "ふくい",
    "image": "",
    "url": "http://www.history.museum.city.fukui.fukui.jp/",
    "latlng": "[36.0683396, 136.2228775]",
    "lat": 36.0683396,
    "lng": 136.2228775,
    "isClosed": ""
  },
  {
    "id": "fukui-museum-15",
    "type": "museum",
    "name": "若狭三方縄文博物館",
    "prefecture": "福井県",
    "postCode": "919-1331",
    "address": "福井県三方上中郡若狭町鳥浜122−12−1",
    "city": "わかさ",
    "image": "",
    "url": "https://www.town.fukui-wakasa.lg.jp/soshiki/wakasamikatajomonhakubutsukan/gyomuannai/955.html",
    "latlng": "[35.55946369999999, 135.8932805]",
    "lat": 35.55946369999999,
    "lng": 135.8932805,
    "isClosed": ""
  },
  {
    "id": "fukui-museum-16",
    "type": "museum",
    "name": "伊藤柏翠俳句記念館",
    "prefecture": "福井県",
    "postCode": "916-0041",
    "address": "福井県鯖江市東鯖江3丁目5−3",
    "city": "さばえ",
    "image": "",
    "url": "https://www.pref.fukui.lg.jp/muse/Cul-Hist/fmc/detail/itou.html",
    "latlng": "[35.946434, 136.1987214]",
    "lat": 35.946434,
    "lng": 136.1987214,
    "isClosed": ""
  },
  {
    "id": "fukui-museum-17",
    "type": "museum",
    "name": "福井県年縞博物館",
    "prefecture": "福井県",
    "postCode": "919-1331",
    "address": "福井県三方上中郡若狭町鳥浜122−12−1 縄文ロマンパーク内",
    "city": "わかさ",
    "image": "",
    "url": "http://varve-museum.pref.fukui.lg.jp/",
    "latlng": "[35.559894, 135.8963283]",
    "lat": 35.559894,
    "lng": 135.8963283,
    "isClosed": ""
  },
  {
    "id": "fukui-museum-18",
    "type": "museum",
    "name": "若狭町歴史文化館",
    "prefecture": "福井県",
    "postCode": "919-1541",
    "address": "福井県三方上中郡若狭町市場20−17",
    "city": "わかさ",
    "image": "",
    "url": "https://www.pref.fukui.lg.jp/muse/Cul-Hist/fmc/detail/wakareki.html",
    "latlng": "[35.4620884, 135.8566205]",
    "lat": 35.4620884,
    "lng": 135.8566205,
    "isClosed": ""
  }
]