[
  {
    "id": "kanagawa-art-1",
    "type": "art",
    "name": "彫刻の森美術館",
    "prefecture": "神奈川県",
    "postCode": "250-0493",
    "address": "神奈川県足柄下郡箱根町二ノ平1121",
    "city": "はこね",
    "image": "",
    "url": "https://www.hakone-oam.or.jp/",
    "latlng": "[35.244406, 139.0504005]",
    "lat": 35.244406,
    "lng": 139.0504005,
    "isClosed": ""
  },
  {
    "id": "kanagawa-art-2",
    "type": "art",
    "name": "箱根美術館",
    "prefecture": "神奈川県",
    "postCode": "250-0408",
    "address": "神奈川県足柄下郡箱根町強羅1300",
    "city": "はこね",
    "image": "",
    "url": "https://www.moaart.or.jp/hakone/",
    "latlng": "[35.2481257, 139.0436199]",
    "lat": 35.2481257,
    "lng": 139.0436199,
    "isClosed": ""
  },
  {
    "id": "kanagawa-art-3",
    "type": "art",
    "name": "ポーラ美術館",
    "prefecture": "神奈川県",
    "postCode": "250-0631",
    "address": "神奈川県足柄下郡箱根町仙石原 小塚山1285",
    "city": "はこね",
    "image": "",
    "url": "https://www.polamuseum.or.jp/",
    "latlng": "[35.2597427, 139.0225781]",
    "lat": 35.2597427,
    "lng": 139.0225781,
    "isClosed": ""
  },
  {
    "id": "kanagawa-art-4",
    "type": "art",
    "name": "木村美術館",
    "prefecture": "神奈川県",
    "postCode": "259-0313",
    "address": "神奈川県足柄下郡湯河原町鍛冶屋651",
    "city": "ゆがわら",
    "image": "",
    "url": "https://www.town.yugawara.kanagawa.jp/soshiki/8/1271.html",
    "latlng": "[35.1587912, 139.1093783]",
    "lat": 35.1587912,
    "lng": 139.1093783,
    "isClosed": ""
  },
  {
    "id": "kanagawa-art-5",
    "type": "art",
    "name": "町立湯河原美術館",
    "prefecture": "神奈川県",
    "postCode": "259-0314",
    "address": "神奈川県足柄下郡湯河原町宮上623−1",
    "city": "ゆがわら",
    "image": "",
    "url": "https://www.town.yugawara.kanagawa.jp/site/museum/",
    "latlng": "[35.1481195, 139.0710966]",
    "lat": 35.1481195,
    "lng": 139.0710966,
    "isClosed": ""
  },
  {
    "id": "kanagawa-art-6",
    "type": "art",
    "name": "神奈川県立近代美術館",
    "prefecture": "神奈川県",
    "postCode": "240-0111",
    "address": "神奈川県三浦郡葉山町一色2208−1",
    "city": "はやま",
    "image": "",
    "url": "http://www.moma.pref.kanagawa.jp/",
    "latlng": "[35.2650618, 139.5767008]",
    "lat": 35.2650618,
    "lng": 139.5767008,
    "isClosed": ""
  },
  {
    "id": "kanagawa-art-7",
    "type": "art",
    "name": "平塚市美術館",
    "prefecture": "神奈川県",
    "postCode": "254-0073",
    "address": "神奈川県平塚市西八幡1丁目3−3 1F",
    "city": "ひらつか",
    "image": "",
    "url": "https://www.city.hiratsuka.kanagawa.jp/art-muse/index.html",
    "latlng": "[35.3383376, 139.3476247]",
    "lat": 35.3383376,
    "lng": 139.3476247,
    "isClosed": ""
  },
  {
    "id": "kanagawa-art-8",
    "type": "art",
    "name": "横須賀美術館",
    "prefecture": "神奈川県",
    "postCode": "239-0813",
    "address": "神奈川県横須賀市鴨居4丁目1",
    "city": "よこすか",
    "image": "",
    "url": "https://www.yokosuka-moa.jp/",
    "latlng": "[35.2596883, 139.738373]",
    "lat": 35.2596883,
    "lng": 139.738373,
    "isClosed": ""
  },
  {
    "id": "kanagawa-art-9",
    "type": "art",
    "name": "そごう美術館",
    "prefecture": "神奈川県",
    "postCode": "220-8510",
    "address": "神奈川県横浜市西区高島2丁目18−1 そごう横浜店 6F",
    "city": "よこはま",
    "image": "",
    "url": "https://www.sogo-seibu.jp/common/museum/",
    "latlng": "[35.4654536, 139.6250523]",
    "lat": 35.4654536,
    "lng": 139.6250523,
    "isClosed": ""
  },
  {
    "id": "kanagawa-art-10",
    "type": "art",
    "name": "日吉の森庭園美術館",
    "prefecture": "神奈川県",
    "postCode": "223-0064",
    "address": "神奈川県横浜市港北区下田町3丁目10−34",
    "city": "よこはま",
    "image": "",
    "url": "http://hiyoshinomori.com/",
    "latlng": "[35.5594688, 139.6347317]",
    "lat": 35.5594688,
    "lng": 139.6347317,
    "isClosed": ""
  },
  {
    "id": "kanagawa-art-11",
    "type": "art",
    "name": "箱根・芦ノ湖成川美術館",
    "prefecture": "神奈川県",
    "postCode": "250-0522",
    "address": "神奈川県足柄下郡箱根町元箱根570",
    "city": "はこね",
    "image": "",
    "url": "http://www.narukawamuseum.co.jp/",
    "latlng": "[35.200006, 139.0311836]",
    "lat": 35.200006,
    "lng": 139.0311836,
    "isClosed": ""
  },
  {
    "id": "kanagawa-art-12",
    "type": "art",
    "name": "箱根ラリック美術館",
    "prefecture": "神奈川県",
    "postCode": "250-0631",
    "address": "神奈川県足柄下郡箱根町仙石原186−1",
    "city": "はこね",
    "image": "",
    "url": "http://www.lalique-museum.com/",
    "latlng": "[35.2703143, 139.0098053]",
    "lat": 35.2703143,
    "lng": 139.0098053,
    "isClosed": ""
  },
  {
    "id": "kanagawa-art-13",
    "type": "art",
    "name": "女子美術館大学美術館　女子美アートミュージアム",
    "prefecture": "神奈川県",
    "postCode": "252-0328",
    "address": "神奈川県相模原市南区麻溝台1900 10号館",
    "city": "さがみはら",
    "image": "",
    "url": "http://www.joshibi.net/museum/jam/",
    "latlng": "[35.5269819, 139.3901092]",
    "lat": 35.5269819,
    "lng": 139.3901092,
    "isClosed": ""
  },
  {
    "id": "kanagawa-art-14",
    "type": "art",
    "name": "茅ケ崎市美術館",
    "prefecture": "神奈川県",
    "postCode": "253-0053",
    "address": "神奈川県茅ヶ崎市東海岸北1丁目4−45",
    "city": "ちがさき",
    "image": "",
    "url": "https://www.chigasaki-museum.jp/",
    "latlng": "[35.3261583, 139.4063153]",
    "lat": 35.3261583,
    "lng": 139.4063153,
    "isClosed": ""
  },
  {
    "id": "kanagawa-art-15",
    "type": "art",
    "name": "横浜美術館",
    "prefecture": "神奈川県",
    "postCode": "220-0012",
    "address": "神奈川県横浜市西区みなとみらい3丁目4−1",
    "city": "よこはま",
    "image": "",
    "url": "https://yokohama.art.museum/",
    "latlng": "[35.4570592, 139.6305754]",
    "lat": 35.4570592,
    "lng": 139.6305754,
    "isClosed": ""
  }
]