[
  {
    "id": "kanagawa-museum-1",
    "type": "museum",
    "name": "愛川町郷土資料館",
    "prefecture": "神奈川県",
    "postCode": "243-0307",
    "address": "神奈川県愛甲郡愛川町半原5287",
    "city": "あいかわ",
    "image": "",
    "url": "https://www.town.aikawa.kanagawa.jp/shisetsu/bunka/1427771495906.html",
    "latlng": "[35.5399669, 139.2553587]",
    "lat": 35.5399669,
    "lng": 139.2553587,
    "isClosed": ""
  },
  {
    "id": "kanagawa-museum-2",
    "type": "museum",
    "name": "箱根町立郷土資料館",
    "prefecture": "神奈川県",
    "postCode": "250-0311",
    "address": "神奈川県足柄下郡箱根町湯本266",
    "city": "はこね",
    "image": "",
    "url": "https://www.town.hakone.kanagawa.jp/index.cfm/6,420,14,99,html",
    "latlng": "[35.2325011, 139.1076981]",
    "lat": 35.2325011,
    "lng": 139.1076981,
    "isClosed": ""
  },
  {
    "id": "kanagawa-museum-3",
    "type": "museum",
    "name": "あつぎ郷土博物館",
    "prefecture": "神奈川県",
    "postCode": "243-0206",
    "address": "神奈川県厚木市下川入1366−4",
    "city": "あつぎ",
    "image": "",
    "url": "https://www.city.atsugi.kanagawa.jp/atsugicitymuseum/index.html",
    "latlng": "[35.4953035, 139.3497962]",
    "lat": 35.4953035,
    "lng": 139.3497962,
    "isClosed": ""
  },
  {
    "id": "kanagawa-museum-4",
    "type": "museum",
    "name": "小田原文化財団　江之浦測候所",
    "prefecture": "神奈川県",
    "postCode": "250-0025",
    "address": "神奈川県小田原市江之浦362−1 小田原文化財団 江之浦測候所",
    "city": "おだわら",
    "image": "",
    "url": "https://www.odawara-af.com/ja/enoura/",
    "latlng": "[35.1881636, 139.1349591]",
    "lat": 35.1881636,
    "lng": 139.1349591,
    "isClosed": ""
  },
  {
    "id": "kanagawa-museum-5",
    "type": "museum",
    "name": "神奈川県立生命の星・地球博物館",
    "prefecture": "神奈川県",
    "postCode": "250-0031",
    "address": "神奈川県小田原市入生田499",
    "city": "おだわら",
    "image": "",
    "url": "https://nh.kanagawa-museum.jp/",
    "latlng": "[35.2392356, 139.1213997]",
    "lat": 35.2392356,
    "lng": 139.1213997,
    "isClosed": ""
  },
  {
    "id": "kanagawa-museum-6",
    "type": "museum",
    "name": "報徳博物館",
    "prefecture": "神奈川県",
    "postCode": "250-0013",
    "address": "神奈川県小田原市南町1丁目5−72",
    "city": "おだわら",
    "image": "",
    "url": "https://www.hotoku.or.jp/",
    "latlng": "[35.2490015, 139.1534895]",
    "lat": 35.2490015,
    "lng": 139.1534895,
    "isClosed": ""
  },
  {
    "id": "kanagawa-museum-7",
    "type": "museum",
    "name": "鎌倉国宝館",
    "prefecture": "神奈川県",
    "postCode": "248-0005",
    "address": "神奈川県鎌倉市雪ノ下2丁目1−1",
    "city": "かまくら",
    "image": "",
    "url": "https://www.city.kamakura.kanagawa.jp/kokuhoukan/",
    "latlng": "[35.3246219, 139.5569999]",
    "lat": 35.3246219,
    "lng": 139.5569999,
    "isClosed": ""
  },
  {
    "id": "kanagawa-museum-8",
    "type": "museum",
    "name": "川崎市立日本民家園",
    "prefecture": "神奈川県",
    "postCode": "214-0032",
    "address": "神奈川県川崎市多摩区枡形7丁目1−1−1",
    "city": "かわさき",
    "image": "",
    "url": "https://www.nihonminkaen.jp/",
    "latlng": "[35.604503, 139.551217]",
    "lat": 35.604503,
    "lng": 139.551217,
    "isClosed": ""
  },
  {
    "id": "kanagawa-museum-9",
    "type": "museum",
    "name": "かわさき宙と緑の科学館（川崎市青少年科学館）",
    "prefecture": "神奈川県",
    "postCode": "214-0032",
    "address": "神奈川県川崎市多摩区枡形7丁目1−2",
    "city": "かわさき",
    "image": "",
    "url": "https://www.nature-kawasaki.jp/",
    "latlng": "[35.6081331, 139.5613844]",
    "lat": 35.6081331,
    "lng": 139.5613844,
    "isClosed": ""
  },
  {
    "id": "kanagawa-museum-10",
    "type": "museum",
    "name": "相模原市立博物館",
    "prefecture": "神奈川県",
    "postCode": "252-0221",
    "address": "神奈川県相模原市中央区高根3丁目1−15",
    "city": "さがみはら",
    "image": "",
    "url": "https://sagamiharacitymuseum.jp/",
    "latlng": "[35.55934450000001, 139.3931154]",
    "lat": 35.55934450000001,
    "lng": 139.3931154,
    "isClosed": ""
  },
  {
    "id": "kanagawa-museum-11",
    "type": "museum",
    "name": "茅ヶ崎市文化資料館",
    "prefecture": "神奈川県",
    "postCode": "253-0055",
    "address": "神奈川県茅ヶ崎市中海岸2丁目2−18",
    "city": "ちがさき",
    "image": "",
    "url": "https://www.city.chigasaki.kanagawa.jp/bunka_rekishi/1023599/index.html",
    "latlng": "[35.32233069999999, 139.4044248]",
    "lat": 35.32233069999999,
    "lng": 139.4044248,
    "isClosed": ""
  },
  {
    "id": "kanagawa-museum-12",
    "type": "museum",
    "name": "大磯町郷土資料館",
    "prefecture": "神奈川県",
    "postCode": "255-0005",
    "address": "神奈川県中郡大磯町西小磯446−1",
    "city": "おおいそ",
    "image": "",
    "url": "http://www.town.oiso.kanagawa.jp/oisomuseum/index.html",
    "latlng": "[35.3054941, 139.2909162]",
    "lat": 35.3054941,
    "lng": 139.2909162,
    "isClosed": ""
  },
  {
    "id": "kanagawa-museum-13",
    "type": "museum",
    "name": "徳富蘇峰記念館",
    "prefecture": "神奈川県",
    "postCode": "259-0123",
    "address": "神奈川県中郡二宮町二宮605",
    "city": "にのみや",
    "image": "",
    "url": "http://www.soho-tokutomi.or.jp/",
    "latlng": "[35.3030167, 139.2636098]",
    "lat": 35.3030167,
    "lng": 139.2636098,
    "isClosed": ""
  },
  {
    "id": "kanagawa-museum-14",
    "type": "museum",
    "name": "はだの歴史博物館",
    "prefecture": "神奈川県",
    "postCode": "259-1304",
    "address": "神奈川県秦野市堀山下380−3",
    "city": "はだの",
    "image": "",
    "url": "https://www.city.hadano.kanagawa.jp/www/contents/1001000004542/index.html",
    "latlng": "[35.3865211, 139.1890461]",
    "lat": 35.3865211,
    "lng": 139.1890461,
    "isClosed": ""
  },
  {
    "id": "kanagawa-museum-15",
    "type": "museum",
    "name": "平塚市博物館",
    "prefecture": "神奈川県",
    "postCode": "254-0041",
    "address": "神奈川県平塚市浅間町12−41",
    "city": "ひらつか",
    "image": "",
    "url": "https://hirahaku.jp/",
    "latlng": "[35.3369685, 139.3496021]",
    "lat": 35.3369685,
    "lng": 139.3496021,
    "isClosed": ""
  },
  {
    "id": "kanagawa-museum-16",
    "type": "museum",
    "name": "葉山しおさい博物館",
    "prefecture": "神奈川県",
    "postCode": "240-0111",
    "address": "神奈川県三浦郡葉山町一色2123−1",
    "city": "はやま",
    "image": "",
    "url": "https://www.town.hayama.lg.jp/soshiki/shougaigakushuu/2/1701.html",
    "latlng": "[35.2641232, 139.5779659]",
    "lat": 35.2641232,
    "lng": 139.5779659,
    "isClosed": ""
  },
  {
    "id": "kanagawa-museum-17",
    "type": "museum",
    "name": "山口蓬春記念館",
    "prefecture": "神奈川県",
    "postCode": "240-0111",
    "address": "神奈川県三浦郡葉山町一色2320",
    "city": "はやま",
    "image": "",
    "url": "https://www.hoshun.jp/",
    "latlng": "[35.2664763, 139.5759161]",
    "lat": 35.2664763,
    "lng": 139.5759161,
    "isClosed": ""
  },
  {
    "id": "kanagawa-museum-18",
    "type": "museum",
    "name": "横須賀市自然博物館",
    "prefecture": "神奈川県",
    "postCode": "238-0016",
    "address": "神奈川県横須賀市深田台95",
    "city": "よこすか",
    "image": "",
    "url": "https://www.museum.yokosuka.kanagawa.jp/",
    "latlng": "[35.2742396, 139.6726343]",
    "lat": 35.2742396,
    "lng": 139.6726343,
    "isClosed": ""
  },
  {
    "id": "kanagawa-museum-19",
    "type": "museum",
    "name": "横須賀市人文博物館",
    "prefecture": "神奈川県",
    "postCode": "238-0016",
    "address": "神奈川県横須賀市深田台95",
    "city": "よこすか",
    "image": "",
    "url": "https://www.museum.yokosuka.kanagawa.jp/",
    "latlng": "[35.2742396, 139.6726343]",
    "lat": 35.2742396,
    "lng": 139.6726343,
    "isClosed": ""
  },
  {
    "id": "kanagawa-museum-20",
    "type": "museum",
    "name": "馬の博物館",
    "prefecture": "神奈川県",
    "postCode": "231-0853",
    "address": "神奈川県横浜市中区根岸台1−3",
    "city": "よこはま",
    "image": "",
    "url": "https://www.bajibunka.jrao.ne.jp/uma/index.php",
    "latlng": "[35.4229214, 139.6395947]",
    "lat": 35.4229214,
    "lng": 139.6395947,
    "isClosed": ""
  },
  {
    "id": "kanagawa-museum-21",
    "type": "museum",
    "name": "神奈川県立金沢文庫",
    "prefecture": "神奈川県",
    "postCode": "236-0015",
    "address": "神奈川県横浜市金沢区金沢町142",
    "city": "よこはま",
    "image": "",
    "url": "https://www.pen-kanagawa.ed.jp/kanazawabunko/kanazawa.htm",
    "latlng": "[35.3438633, 139.6284934]",
    "lat": 35.3438633,
    "lng": 139.6284934,
    "isClosed": ""
  },
  {
    "id": "kanagawa-museum-22",
    "type": "museum",
    "name": "神奈川県立歴史博物館",
    "prefecture": "神奈川県",
    "postCode": "231-0006",
    "address": "神奈川県横浜市中区南仲通5丁目60",
    "city": "よこはま",
    "image": "",
    "url": "https://ch.kanagawa-museum.jp/",
    "latlng": "[35.4491138, 139.6362993]",
    "lat": 35.4491138,
    "lng": 139.6362993,
    "isClosed": ""
  },
  {
    "id": "kanagawa-museum-23",
    "type": "museum",
    "name": "シルク博物館",
    "prefecture": "神奈川県",
    "postCode": "231-0023",
    "address": "神奈川県横浜市中区山下町1 シルクセンタ 2階",
    "city": "よこはま",
    "image": "",
    "url": "https://www.silkcenter-kbkk.jp/museum/",
    "latlng": "[35.44747, 139.6454682]",
    "lat": 35.44747,
    "lng": 139.6454682,
    "isClosed": ""
  },
  {
    "id": "kanagawa-museum-24",
    "type": "museum",
    "name": "日本新聞博物館（ニュースパーク）",
    "prefecture": "神奈川県",
    "postCode": "231-0021",
    "address": "神奈川県横浜市中区日本大通11",
    "city": "よこはま",
    "image": "",
    "url": "https://newspark.jp/",
    "latlng": "[35.4462405, 139.6428978]",
    "lat": 35.4462405,
    "lng": 139.6428978,
    "isClosed": ""
  },
  {
    "id": "kanagawa-museum-25",
    "type": "museum",
    "name": "ロマンスカーミュージアム",
    "prefecture": "神奈川県",
    "postCode": "243-0438",
    "address": "神奈川県海老名市めぐみ町1−3",
    "city": "えびな",
    "image": "",
    "url": "https://www.odakyu.jp/romancecarmuseum/",
    "latlng": "[35.4529414, 139.3900173]",
    "lat": 35.4529414,
    "lng": 139.3900173,
    "isClosed": ""
  },
  {
    "id": "kanagawa-museum-26",
    "type": "museum",
    "name": "箱根神社宝物殿",
    "prefecture": "神奈川県",
    "postCode": "250-0522",
    "address": "神奈川県足柄下郡箱根町元箱根",
    "city": "はこね",
    "image": "",
    "url": "https://hakonejinja.or.jp/hakone/houmotsuden.html",
    "latlng": "[35.2029896, 139.0315924]",
    "lat": 35.2029896,
    "lng": 139.0315924,
    "isClosed": ""
  },
  {
    "id": "kanagawa-museum-27",
    "type": "museum",
    "name": "松蔭大学資料館",
    "prefecture": "神奈川県",
    "postCode": "243-0124",
    "address": "神奈川県厚木市森の里若宮9−1",
    "city": "あつぎ",
    "image": "",
    "url": "http://www.shoin-u.ac.jp/univ/research/museum/",
    "latlng": "[35.4426796, 139.3158349]",
    "lat": 35.4426796,
    "lng": 139.3158349,
    "isClosed": ""
  },
  {
    "id": "kanagawa-museum-28",
    "type": "museum",
    "name": "東京農業大学農学部植物園",
    "prefecture": "神奈川県",
    "postCode": "243-0034",
    "address": "神奈川県厚木市船子1737 東京農業大学農学部植物園",
    "city": "あつぎ",
    "image": "",
    "url": "https://www.nodai.ac.jp/academics/agri/garden/",
    "latlng": "[35.4293296, 139.3496453]",
    "lat": 35.4293296,
    "lng": 139.3496453,
    "isClosed": ""
  },
  {
    "id": "kanagawa-museum-29",
    "type": "museum",
    "name": "小田原市郷土文化館",
    "prefecture": "神奈川県",
    "postCode": "250-0014",
    "address": "神奈川県小田原市城内7−8",
    "city": "おだわら",
    "image": "",
    "url": "https://www.city.odawara.kanagawa.jp/public-i/facilities/kyodo/",
    "latlng": "[35.249676, 139.1549655]",
    "lat": 35.249676,
    "lng": 139.1549655,
    "isClosed": ""
  },
  {
    "id": "kanagawa-museum-30",
    "type": "museum",
    "name": "鎌倉彫資料館",
    "prefecture": "神奈川県",
    "postCode": "248-0006",
    "address": "神奈川県鎌倉市小町2丁目15−13 3階",
    "city": "かまくら",
    "image": "",
    "url": "http://kamakuraborikaikan.jp/museum/",
    "latlng": "[35.3204076, 139.5532628]",
    "lat": 35.3204076,
    "lng": 139.5532628,
    "isClosed": ""
  },
  {
    "id": "kanagawa-museum-31",
    "type": "museum",
    "name": "東海大学松前記念館（歴史と未来の博物館）",
    "prefecture": "神奈川県",
    "postCode": "151-8677",
    "address": "東京都渋谷区富ケ谷2丁目28−4",
    "city": "しぶや",
    "image": "",
    "url": "http://www.kinenkan.u-tokai.ac.jp/",
    "latlng": "[35.6644908, 139.6845362]",
    "lat": 35.6644908,
    "lng": 139.6845362,
    "isClosed": ""
  },
  {
    "id": "kanagawa-museum-32",
    "type": "museum",
    "name": "日本大学生物資源科学部博物館",
    "prefecture": "神奈川県",
    "postCode": "252-0813",
    "address": "神奈川県藤沢市亀井野1866 博物館",
    "city": "ふじさわ",
    "image": "",
    "url": "https://hp.brs.nihon-u.ac.jp/~NUBSmuseum/index.html",
    "latlng": "[35.3786864, 139.4692838]",
    "lat": 35.3786864,
    "lng": 139.4692838,
    "isClosed": ""
  },
  {
    "id": "kanagawa-museum-33",
    "type": "museum",
    "name": "観音崎自然博物館",
    "prefecture": "神奈川県",
    "postCode": "239-0813",
    "address": "神奈川県横須賀市鴨居4丁目1120",
    "city": "よこすか",
    "image": "",
    "url": "https://kannonzaki-nature-museum.jimdofree.com/",
    "latlng": "[35.2518501, 139.7423271]",
    "lat": 35.2518501,
    "lng": 139.7423271,
    "isClosed": ""
  }
]