[
  {
    "id": "saitama-art-1",
    "type": "art",
    "name": "山崎美術館",
    "prefecture": "埼玉県",
    "postCode": "350-0065",
    "address": "埼玉県川越市仲町4−4−13",
    "city": "かわごえ",
    "image": "",
    "url": "https://www.koedo-kameya.com/sp.html",
    "latlng": "[35.8595856, 139.6463749]",
    "lat": 35.8595856,
    "lng": 139.6463749,
    "isClosed": ""
  },
  {
    "id": "saitama-art-2",
    "type": "art",
    "name": "埼玉県立近代美術館",
    "prefecture": "埼玉県",
    "postCode": "330-0061",
    "address": "埼玉県さいたま市浦和区常盤9丁目30−1",
    "city": "さいたま",
    "image": "",
    "url": "https://pref.spec.ed.jp/momas/",
    "latlng": "[35.8696259, 139.6430572]",
    "lat": 35.8696259,
    "lng": 139.6430572,
    "isClosed": ""
  },
  {
    "id": "saitama-art-3",
    "type": "art",
    "name": "公益財団法人 河鍋暁斎記念美術館",
    "prefecture": "埼玉県",
    "postCode": "335-0003",
    "address": "埼玉県蕨市南町4丁目36−4",
    "city": "わらび",
    "image": "",
    "url": "http://kyosai-museum.jp/",
    "latlng": "[35.8158035, 139.6934522]",
    "lat": 35.8158035,
    "lng": 139.6934522,
    "isClosed": ""
  },
  {
    "id": "saitama-art-4",
    "type": "art",
    "name": "川越市立美術館",
    "prefecture": "埼玉県",
    "postCode": "350-0053",
    "address": "埼玉県川越市郭町2丁目30−1",
    "city": "かわごえ",
    "image": "",
    "url": "https://www.city.kawagoe.saitama.jp/artmuseum/",
    "latlng": "[35.9258678, 139.4915322]",
    "lat": 35.9258678,
    "lng": 139.4915322,
    "isClosed": ""
  },
  {
    "id": "saitama-art-5",
    "type": "art",
    "name": "うらわ美術館",
    "prefecture": "埼玉県",
    "postCode": "330-0062",
    "address": "埼玉県さいたま市浦和区仲町2-5-1 浦和センチュリーシティ3階",
    "city": "さいたま",
    "image": "",
    "url": "http://www.city.saitama.jp/urawa-art-museum/",
    "latlng": "[35.86072800000001, 139.6526146]",
    "lat": 35.86072800000001,
    "lng": 139.6526146,
    "isClosed": ""
  },
  {
    "id": "saitama-art-6",
    "type": "art",
    "name": "さいたま市大宮盆栽美術館",
    "prefecture": "埼玉県",
    "postCode": "331-0804",
    "address": "埼玉県さいたま市北区土呂町2-24-3",
    "city": "さいたま",
    "image": "",
    "url": "https://www.bonsai-art-museum.jp/",
    "latlng": "[35.9287901, 139.6328806]",
    "lat": 35.9287901,
    "lng": 139.6328806,
    "isClosed": ""
  },
  {
    "id": "saitama-art-7",
    "type": "art",
    "name": "しのぎ刀剣美術館",
    "prefecture": "埼玉県",
    "postCode": "355-0343",
    "address": "埼玉県ときがわ町五明267-5",
    "city": "ときがわ",
    "image": "",
    "url": "http://www3.ocn.ne.jp/~sinogi/",
    "latlng": "[36.0146326, 139.276242]",
    "lat": 36.0146326,
    "lng": 139.276242,
    "isClosed": ""
  },
  {
    "id": "saitama-art-8",
    "type": "art",
    "name": "ヤオコー川越美術館（三栖右嗣（みすゆうじ）記念館）",
    "prefecture": "埼玉県",
    "postCode": "350-0851",
    "address": "埼玉県川越市氷川町109-1",
    "city": "かわごえ",
    "image": "",
    "url": "http://www.yaoko-net.com/museum/",
    "latlng": "[35.9285509, 139.4890744]",
    "lat": 35.9285509,
    "lng": 139.4890744,
    "isClosed": ""
  },
  {
    "id": "saitama-art-9",
    "type": "art",
    "name": "原爆の図丸木美術館",
    "prefecture": "埼玉県",
    "postCode": "355-0076",
    "address": "埼玉県東松山市下唐子1401",
    "city": "ひがしまつやま",
    "image": "",
    "url": "https://marukigallery.jp/",
    "latlng": "[36.0282654, 139.3521408]",
    "lat": 36.0282654,
    "lng": 139.3521408,
    "isClosed": ""
  },
  {
    "id": "saitama-art-10",
    "type": "art",
    "name": "城西大学水田美術館",
    "prefecture": "埼玉県",
    "postCode": "350-0295",
    "address": "埼玉県坂戸市けやき台1-1",
    "city": "さかど",
    "image": "",
    "url": "http://www.josai.ac.jp/~museum/index.html",
    "latlng": "[35.9326382, 139.3416412]",
    "lat": 35.9326382,
    "lng": 139.3416412,
    "isClosed": ""
  },
  {
    "id": "saitama-art-11",
    "type": "art",
    "name": "武者小路実篤記念新しき村美術館",
    "prefecture": "埼玉県",
    "postCode": "350-0445",
    "address": "埼玉県毛呂山町葛貫423",
    "city": "もろやま",
    "image": "",
    "url": "",
    "latlng": "[35.9307886, 139.3258981]",
    "lat": 35.9307886,
    "lng": 139.3258981,
    "isClosed": ""
  },
  {
    "id": "saitama-art-12",
    "type": "art",
    "name": "熊谷市立図書館　美術・郷土資料展示室",
    "prefecture": "埼玉県",
    "postCode": "360-0036",
    "address": "埼玉県熊谷市桜木町2－33－2",
    "city": "くまがや",
    "image": "",
    "url": "",
    "latlng": "[36.1370443, 139.386839]",
    "lat": 36.1370443,
    "lng": 139.386839,
    "isClosed": ""
  },
  {
    "id": "saitama-art-13",
    "type": "art",
    "name": "熊谷市立熊谷図書館　美術・郷土資料展示室",
    "prefecture": "埼玉県",
    "postCode": "360-0036",
    "address": "埼玉県熊谷市桜木町2-33-2",
    "city": "くまがや",
    "image": "",
    "url": "https://www.kumagayalib.jp/TOSHOW/asp/index.aspx",
    "latlng": "[36.1370443, 139.386839]",
    "lat": 36.1370443,
    "lng": 139.386839,
    "isClosed": ""
  },
  {
    "id": "saitama-art-14",
    "type": "art",
    "name": "狭山市山王中学校　学校美術館",
    "prefecture": "埼玉県",
    "postCode": "350-1300",
    "address": "埼玉県狭山市南入蘇157",
    "city": "さやま",
    "image": "",
    "url": "",
    "latlng": "[35.8528389, 139.412183]",
    "lat": 35.8528389,
    "lng": 139.412183,
    "isClosed": ""
  },
  {
    "id": "saitama-art-15",
    "type": "art",
    "name": "田中屋付属駄菓子の資料館・田中美術館",
    "prefecture": "埼玉県",
    "postCode": "350-0062",
    "address": "埼玉県川越市元町2－7－7",
    "city": "かわごえ",
    "image": "",
    "url": "",
    "latlng": "[35.9245683, 139.4813193]",
    "lat": 35.9245683,
    "lng": 139.4813193,
    "isClosed": ""
  },
  {
    "id": "saitama-art-16",
    "type": "art",
    "name": "田中屋美術館",
    "prefecture": "埼玉県",
    "postCode": "350-0065",
    "address": "埼玉県川越市仲町6－4",
    "city": "かわごえ",
    "image": "",
    "url": "",
    "latlng": "[35.9207427, 139.4818807]",
    "lat": 35.9207427,
    "lng": 139.4818807,
    "isClosed": ""
  },
  {
    "id": "saitama-art-17",
    "type": "art",
    "name": "秩父美術館",
    "prefecture": "埼玉県",
    "postCode": "368-0013",
    "address": "埼玉県秩父市永田町7-1",
    "city": "ちちぶ",
    "image": "",
    "url": "http://www.chichibu.ne.jp/~antique/",
    "latlng": "[36.0088561, 139.0836167]",
    "lat": 36.0088561,
    "lng": 139.0836167,
    "isClosed": ""
  },
  {
    "id": "saitama-art-18",
    "type": "art",
    "name": "蓑虫美術館",
    "prefecture": "埼玉県",
    "postCode": "349-0101",
    "address": "埼玉県蓮田市黒浜1717 付近 縄文うるしパーク 内",
    "city": "はすだ",
    "image": "",
    "url": "https://mnmsm.wordpress.com/",
    "latlng": "[35.9887831, 139.6678071]",
    "lat": 35.9887831,
    "lng": 139.6678071,
    "isClosed": ""
  },
  {
    "id": "saitama-art-19",
    "type": "art",
    "name": "蘭山記念美術館",
    "prefecture": "埼玉県",
    "postCode": "350-0062",
    "address": "埼玉県川越市元町2丁目2-1",
    "city": "かわごえ",
    "image": "",
    "url": "http://www.ranzan-mus.jp/",
    "latlng": "[35.9246345, 139.4827571]",
    "lat": 35.9246345,
    "lng": 139.4827571,
    "isClosed": ""
  },
  {
    "id": "saitama-art-20",
    "type": "art",
    "name": "長屋門　能面美術館",
    "prefecture": "埼玉県",
    "postCode": "359-0004",
    "address": "埼玉県所沢市西新井7-11",
    "city": "ところざわ",
    "image": "",
    "url": "",
    "latlng": "[35.7941901, 139.4753504]",
    "lat": 35.7941901,
    "lng": 139.4753504,
    "isClosed": ""
  },
  {
    "id": "saitama-art-21",
    "type": "art",
    "name": "川口市立アートギャラリー・アトリア",
    "prefecture": "埼玉県",
    "postCode": "332-0033",
    "address": "埼玉県川口市並木元町1-76",
    "city": "かわぐち",
    "image": "",
    "url": "http://www.atlia.jp/",
    "latlng": "[35.8070836, 139.7157528]",
    "lat": 35.8070836,
    "lng": 139.7157528,
    "isClosed": ""
  }
]