[
  {
    "id": "saitama-museum-1",
    "type": "museum",
    "name": "朝霞市博物館",
    "prefecture": "埼玉県",
    "postCode": "351-0007",
    "address": "埼玉県朝霞市岡2丁目7−22",
    "city": "あさか",
    "image": "",
    "url": "https://www.city.asaka.lg.jp/soshiki/42/museum.html",
    "latlng": "[35.8125786, 139.5971519]",
    "lat": 35.8125786,
    "lng": 139.5971519,
    "isClosed": ""
  },
  {
    "id": "saitama-museum-2",
    "type": "museum",
    "name": "入間市博物館（ALIT）",
    "prefecture": "埼玉県",
    "postCode": "358-0015",
    "address": "埼玉県入間市二本木100",
    "city": "いるま",
    "image": "",
    "url": "https://www.alit.city.iruma.saitama.jp/",
    "latlng": "[35.8014595, 139.3668468]",
    "lat": 35.8014595,
    "lng": 139.3668468,
    "isClosed": ""
  },
  {
    "id": "saitama-museum-3",
    "type": "museum",
    "name": "埼玉県立川の博物館",
    "prefecture": "埼玉県",
    "postCode": "369-1217",
    "address": "埼玉県大里郡寄居町小園39",
    "city": "よりい",
    "image": "",
    "url": "https://www.river-museum.jp/",
    "latlng": "[36.1157227, 139.2196823]",
    "lat": 36.1157227,
    "lng": 139.2196823,
    "isClosed": ""
  },
  {
    "id": "saitama-museum-4",
    "type": "museum",
    "name": "川越市立博物館",
    "prefecture": "埼玉県",
    "postCode": "350-0053",
    "address": "埼玉県川越市郭町2丁目30−1",
    "city": "かわごえ",
    "image": "",
    "url": "https://www.city.kawagoe.saitama.jp/welcome/kankospot/hommarugotenzone/hakubutsukan/index.html",
    "latlng": "[35.9258678, 139.4915322]",
    "lat": 35.9258678,
    "lng": 139.4915322,
    "isClosed": ""
  },
  {
    "id": "saitama-museum-5",
    "type": "museum",
    "name": "行田市郷土博物館",
    "prefecture": "埼玉県",
    "postCode": "361-0052",
    "address": "埼玉県行田市本丸17−23",
    "city": "ぎょうだ",
    "image": "",
    "url": "https://www.city.gyoda.lg.jp/soshiki/kyouikubu/kyodohakubutsukan/index.html",
    "latlng": "[36.137794, 139.4540522]",
    "lat": 36.137794,
    "lng": 139.4540522,
    "isClosed": ""
  },
  {
    "id": "saitama-museum-6",
    "type": "museum",
    "name": "埼玉県立さきたま史跡の博物館",
    "prefecture": "埼玉県",
    "postCode": "361-0025",
    "address": "埼玉県行田市埼玉4834",
    "city": "ぎょうだ",
    "image": "",
    "url": "https://sakitama-muse.spec.ed.jp/",
    "latlng": "[36.1249207, 139.4756074]",
    "lat": 36.1249207,
    "lng": 139.4756074,
    "isClosed": ""
  },
  {
    "id": "saitama-museum-7",
    "type": "museum",
    "name": "浦和くらしの博物館民家園",
    "prefecture": "埼玉県",
    "postCode": "336-0925",
    "address": "埼玉県さいたま市緑区下山口新田1179−1",
    "city": "さいたま",
    "image": "",
    "url": "https://www.city.saitama.jp/004/005/004/005/003/index.html",
    "latlng": "[35.87835099999999, 139.7106239]",
    "lat": 35.87835099999999,
    "lng": 139.7106239,
    "isClosed": ""
  },
  {
    "id": "saitama-museum-8",
    "type": "museum",
    "name": "埼玉県立歴史と民俗の博物館",
    "prefecture": "埼玉県",
    "postCode": "330-0803",
    "address": "埼玉県さいたま市大宮区高鼻町4丁目219",
    "city": "さいたま",
    "image": "",
    "url": "https://saitama-rekimin.spec.ed.jp/",
    "latlng": "[35.9212827, 139.6298852]",
    "lat": 35.9212827,
    "lng": 139.6298852,
    "isClosed": ""
  },
  {
    "id": "saitama-museum-9",
    "type": "museum",
    "name": "さいたま市立浦和博物館",
    "prefecture": "埼玉県",
    "postCode": "336-0911",
    "address": "埼玉県さいたま市緑区三室2458番地",
    "city": "さいたま",
    "image": "",
    "url": "https://www.city.saitama.jp/004/005/004/005/002/index.html",
    "latlng": "[35.890039, 139.6775504]",
    "lat": 35.890039,
    "lng": 139.6775504,
    "isClosed": ""
  },
  {
    "id": "saitama-museum-10",
    "type": "museum",
    "name": "さいたま市立博物館",
    "prefecture": "埼玉県",
    "postCode": "330-0803",
    "address": "埼玉県さいたま市大宮区高鼻町2丁目1−2",
    "city": "さいたま",
    "image": "",
    "url": "https://www.city.saitama.jp/004/005/004/005/008/index.html",
    "latlng": "[35.9113182, 139.6316464]",
    "lat": 35.9113182,
    "lng": 139.6316464,
    "isClosed": ""
  },
  {
    "id": "saitama-museum-11",
    "type": "museum",
    "name": "鉄道博物館",
    "prefecture": "埼玉県",
    "postCode": "330-0852",
    "address": "埼玉県さいたま市大宮区大成町3丁目47",
    "city": "さいたま",
    "image": "",
    "url": "https://www.railway-museum.jp/",
    "latlng": "[35.9209951, 139.6180973]",
    "lat": 35.9209951,
    "lng": 139.6180973,
    "isClosed": ""
  },
  {
    "id": "saitama-museum-12",
    "type": "museum",
    "name": "埼玉県立自然の博物館",
    "prefecture": "埼玉県",
    "postCode": "369-1305",
    "address": "埼玉県秩父郡長瀞町長瀞1417−1",
    "city": "ながとろ",
    "image": "",
    "url": "https://shizen.spec.ed.jp/",
    "latlng": "[36.0874564, 139.1161108]",
    "lat": 36.0874564,
    "lng": 139.1161108,
    "isClosed": ""
  },
  {
    "id": "saitama-museum-13",
    "type": "museum",
    "name": "秩父宮記念三峯山博物館",
    "prefecture": "埼玉県",
    "postCode": "369-1902",
    "address": "埼玉県秩父市三峰298-1",
    "city": "ちちぶ",
    "image": "",
    "url": "https://www.mitsuminejinja.or.jp/hakubutsukan/",
    "latlng": "[35.9226345, 138.9330547]",
    "lat": 35.9226345,
    "lng": 138.9330547,
    "isClosed": ""
  },
  {
    "id": "saitama-museum-14",
    "type": "museum",
    "name": "やまとーあーとみゅーじあむ",
    "prefecture": "埼玉県",
    "postCode": "368-0023",
    "address": "埼玉県秩父市大宮6175−1",
    "city": "ちちぶ",
    "image": "",
    "url": "http://www.chichibu.ne.jp/~yamato-a-t/",
    "latlng": "[35.9909062, 139.0920179]",
    "lat": 35.9909062,
    "lng": 139.0920179,
    "isClosed": ""
  },
  {
    "id": "saitama-museum-15",
    "type": "museum",
    "name": "戸田市立郷土博物館",
    "prefecture": "埼玉県",
    "postCode": "335-0021",
    "address": "埼玉県戸田市新曽1707",
    "city": "とだ",
    "image": "",
    "url": "https://www.city.toda.saitama.jp/soshiki/377/",
    "latlng": "[35.8191624, 139.6631506]",
    "lat": 35.8191624,
    "lng": 139.6631506,
    "isClosed": ""
  },
  {
    "id": "saitama-museum-16",
    "type": "museum",
    "name": "飯能市立博物館",
    "prefecture": "埼玉県",
    "postCode": "357-0063",
    "address": "埼玉県飯能市飯能258−1",
    "city": "はんのう",
    "image": "",
    "url": "https://www.city.hanno.lg.jp/kanko_bunka_sports/museum/index.html",
    "latlng": "[35.8572322, 139.310743]",
    "lat": 35.8572322,
    "lng": 139.310743,
    "isClosed": ""
  },
  {
    "id": "saitama-museum-17",
    "type": "museum",
    "name": "遠山記念館",
    "prefecture": "埼玉県",
    "postCode": "350-0128",
    "address": "埼玉県比企郡川島町白井沼675",
    "city": "かわしま",
    "image": "",
    "url": "https://www.e-kinenkan.com/",
    "latlng": "[35.9878068, 139.4934317]",
    "lat": 35.9878068,
    "lng": 139.4934317,
    "isClosed": ""
  },
  {
    "id": "saitama-museum-18",
    "type": "museum",
    "name": "埼玉県立嵐山史跡の博物館",
    "prefecture": "埼玉県",
    "postCode": "355-0221",
    "address": "埼玉県比企郡嵐山町菅谷757",
    "city": "らんざん",
    "image": "",
    "url": "https://ranzan-shiseki.spec.ed.jp/",
    "latlng": "[36.0368558, 139.3230055]",
    "lat": 36.0368558,
    "lng": 139.3230055,
    "isClosed": ""
  },
  {
    "id": "saitama-museum-19",
    "type": "museum",
    "name": "角川武蔵野ミュージアム",
    "prefecture": "埼玉県",
    "postCode": "359-0023",
    "address": "埼玉県所沢市東所沢和田3丁目31−3 ところざわサクラタウン",
    "city": "ところざわ",
    "image": "",
    "url": "https://kadcul.com/",
    "latlng": "[35.7972508, 139.5077259]",
    "lat": 35.7972508,
    "lng": 139.5077259,
    "isClosed": ""
  },
  {
    "id": "saitama-museum-20",
    "type": "museum",
    "name": "立正大学博物館",
    "prefecture": "埼玉県",
    "postCode": "360-0161",
    "address": "埼玉県熊谷市万吉1700",
    "city": "くまがや",
    "image": "",
    "url": "https://www.ris.ac.jp/museum/",
    "latlng": "[36.1096966, 139.3651373]",
    "lat": 36.1096966,
    "lng": 139.3651373,
    "isClosed": ""
  },
  {
    "id": "saitama-museum-21",
    "type": "museum",
    "name": "白岡市生涯学習センター歴史資料展示室（こもれびの森）",
    "prefecture": "埼玉県",
    "postCode": "349-0215",
    "address": "埼玉県白岡市千駄野432",
    "city": "しらおか",
    "image": "",
    "url": "http://www.city.shiraoka.lg.jp/11876.htm",
    "latlng": "[36.0190367, 139.6765119]",
    "lat": 36.0190367,
    "lng": 139.6765119,
    "isClosed": ""
  },
  {
    "id": "saitama-museum-22",
    "type": "museum",
    "name": "跡見学園女子大学花蹊記念資料館",
    "prefecture": "埼玉県",
    "postCode": "352-0005",
    "address": "埼玉県新座市中野1丁目9−6",
    "city": "にいざ",
    "image": "",
    "url": "https://www.atomi.ac.jp/univ/museum/",
    "latlng": "[35.8172777, 139.542991]",
    "lat": 35.8172777,
    "lng": 139.542991,
    "isClosed": ""
  },
  {
    "id": "saitama-museum-23",
    "type": "museum",
    "name": "日本工業大学工業技術博物館",
    "prefecture": "埼玉県",
    "postCode": "345-0826",
    "address": "埼玉県南埼玉郡宮代町学園台4丁目1 駐車場",
    "city": "みやしろ",
    "image": "",
    "url": "https://www.nit.ac.jp/campus/center/museum",
    "latlng": "[36.0286667, 139.7126586]",
    "lat": 36.0286667,
    "lng": 139.7126586,
    "isClosed": ""
  },
  {
    "id": "saitama-museum-24",
    "type": "museum",
    "name": "SKIPシティ　映像ミュージアム",
    "prefecture": "埼玉県",
    "postCode": "333-0844",
    "address": "埼玉県川口市上青木3-12-63",
    "city": "かわぐち",
    "image": "",
    "url": "http://www.skipcity.jp/",
    "latlng": "[35.8278614, 139.7208193]",
    "lat": 35.8278614,
    "lng": 139.7208193,
    "isClosed": ""
  },
  {
    "id": "saitama-museum-25",
    "type": "museum",
    "name": "アリタキ・アーボレータム",
    "prefecture": "埼玉県",
    "postCode": "343-0024",
    "address": "埼玉県越谷市越ヶ谷2566",
    "city": "こしがや",
    "image": "",
    "url": "",
    "latlng": "[35.8986425, 139.7893927]",
    "lat": 35.8986425,
    "lng": 139.7893927,
    "isClosed": ""
  },
  {
    "id": "saitama-museum-26",
    "type": "museum",
    "name": "おがの化石館",
    "prefecture": "埼玉県",
    "postCode": "368-0101",
    "address": "埼玉県小鹿野町下小鹿野453",
    "city": "おがの",
    "image": "",
    "url": "",
    "latlng": "[36.0191162, 139.0440479]",
    "lat": 36.0191162,
    "lng": 139.0440479,
    "isClosed": ""
  },
  {
    "id": "saitama-museum-27",
    "type": "museum",
    "name": "さいたまスーパーアリーナ・TOIRO",
    "prefecture": "埼玉県",
    "postCode": "330-9111",
    "address": "埼玉県さいたま市中央区新都心8番地",
    "city": "さいたま",
    "image": "",
    "url": "",
    "latlng": "[35.8949557, 139.6307672]",
    "lat": 35.8949557,
    "lng": 139.6307672,
    "isClosed": ""
  },
  {
    "id": "saitama-museum-28",
    "type": "museum",
    "name": "さいたま市園芸植物園",
    "prefecture": "埼玉県",
    "postCode": "336-0974",
    "address": "埼玉県さいたま市緑区大崎3156-1",
    "city": "さいたま",
    "image": "",
    "url": "",
    "latlng": "[35.8839906, 139.7130377]",
    "lat": 35.8839906,
    "lng": 139.7130377,
    "isClosed": ""
  },
  {
    "id": "saitama-museum-29",
    "type": "museum",
    "name": "さいたま市岩槻人形博物館",
    "prefecture": "埼玉県",
    "postCode": "339-0057",
    "address": "埼玉県さいたま市岩槻区本町6丁目1－1",
    "city": "さいたま",
    "image": "",
    "url": "https://ningyo-muse.jp/",
    "latlng": "[35.9508257, 139.700124]",
    "lat": 35.9508257,
    "lng": 139.700124,
    "isClosed": ""
  },
  {
    "id": "saitama-museum-30",
    "type": "museum",
    "name": "さいたま市社会福祉事業団　岩槻児童センター",
    "prefecture": "埼玉県",
    "postCode": "339-0057",
    "address": "埼玉県さいたま市岩槻区本町1-11-11",
    "city": "さいたま",
    "image": "",
    "url": "",
    "latlng": "[35.9467094, 139.6918778]",
    "lat": 35.9467094,
    "lng": 139.6918778,
    "isClosed": ""
  },
  {
    "id": "saitama-museum-31",
    "type": "museum",
    "name": "さいたま市立漫画会館",
    "prefecture": "埼玉県",
    "postCode": "331-0805",
    "address": "埼玉県さいたま市北区盆栽町150",
    "city": "さいたま",
    "image": "",
    "url": "http://www.city.saitama.jp/004/005/002/003/001/",
    "latlng": "[35.9256251, 139.6318316]",
    "lat": 35.9256251,
    "lng": 139.6318316,
    "isClosed": ""
  },
  {
    "id": "saitama-museum-32",
    "type": "museum",
    "name": "さいたま市青少年宇宙科学館",
    "prefecture": "埼玉県",
    "postCode": "330-0051",
    "address": "埼玉県さいたま市浦和区駒場2-3-45",
    "city": "さいたま",
    "image": "",
    "url": "http://www.kagakukan.urawa.saitama.jp/",
    "latlng": "[35.872405, 139.6644175]",
    "lat": 35.872405,
    "lng": 139.6644175,
    "isClosed": ""
  },
  {
    "id": "saitama-museum-33",
    "type": "museum",
    "name": "さいたま文学館",
    "prefecture": "埼玉県",
    "postCode": "363-0022",
    "address": "埼玉県桶川市若宮1－5－9",
    "city": "おけがわ",
    "image": "",
    "url": "http://www.saitama-bungakukan.org/",
    "latlng": "[35.9961381, 139.5606114]",
    "lat": 35.9961381,
    "lng": 139.5606114,
    "isClosed": ""
  },
  {
    "id": "saitama-museum-34",
    "type": "museum",
    "name": "さいたま緑の森博物館",
    "prefecture": "埼玉県",
    "postCode": "358-0014",
    "address": "埼玉県入間市宮寺889－1",
    "city": "いるま",
    "image": "",
    "url": "",
    "latlng": "[35.7862433, 139.384076]",
    "lat": 35.7862433,
    "lng": 139.384076,
    "isClosed": ""
  },
  {
    "id": "saitama-museum-35",
    "type": "museum",
    "name": "サツマイモ資料館「いも倶楽部」",
    "prefecture": "埼玉県",
    "postCode": "350-1106",
    "address": "埼玉県川越市小室18－5",
    "city": "かわごえ",
    "image": "",
    "url": "",
    "latlng": "[35.9154062, 139.467915]",
    "lat": 35.9154062,
    "lng": 139.467915,
    "isClosed": ""
  },
  {
    "id": "saitama-museum-36",
    "type": "museum",
    "name": "シラサギ記念自然史博物館",
    "prefecture": "埼玉県",
    "postCode": "336-0975",
    "address": "埼玉県さいたま市緑区代山172",
    "city": "さいたま",
    "image": "",
    "url": "",
    "latlng": "[35.900764, 139.7069535]",
    "lat": 35.900764,
    "lng": 139.7069535,
    "isClosed": ""
  },
  {
    "id": "saitama-museum-37",
    "type": "museum",
    "name": "タナゴ館",
    "prefecture": "埼玉県",
    "postCode": "355-0803",
    "address": "埼玉県滑川町福田755 滑川町役場内",
    "city": "なめがわ",
    "image": "",
    "url": "",
    "latlng": "[36.0660545, 139.3619089]",
    "lat": 36.0660545,
    "lng": 139.3619089,
    "isClosed": ""
  },
  {
    "id": "saitama-museum-38",
    "type": "museum",
    "name": "ちちぶ巡礼と民話のやかた 秩父ふるさと館",
    "prefecture": "埼玉県",
    "postCode": "368-0044",
    "address": "埼玉県秩父市本町3-1",
    "city": "ちちぶ",
    "image": "",
    "url": "http://www.furusatokan.info/",
    "latlng": "[35.9970073, 139.0824442]",
    "lat": 35.9970073,
    "lng": 139.0824442,
    "isClosed": ""
  },
  {
    "id": "saitama-museum-39",
    "type": "museum",
    "name": "ワンズプレイス",
    "prefecture": "埼玉県",
    "postCode": "341-0003",
    "address": "埼玉県三郷市彦成5－56 三郷市立早稲田中学校内",
    "city": "みさと",
    "image": "",
    "url": "",
    "latlng": "[35.857516, 139.8755966]",
    "lat": 35.857516,
    "lng": 139.8755966,
    "isClosed": ""
  },
  {
    "id": "saitama-museum-40",
    "type": "museum",
    "name": "三ヶ島葭子資料室",
    "prefecture": "埼玉県",
    "postCode": "359-1164",
    "address": "埼玉県所沢市三ヶ島5－1639－1 所沢市立三ヶ島公民館内",
    "city": "ところざわ",
    "image": "",
    "url": "",
    "latlng": "[35.7975976, 139.4040112]",
    "lat": 35.7975976,
    "lng": 139.4040112,
    "isClosed": ""
  },
  {
    "id": "saitama-museum-41",
    "type": "museum",
    "name": "三芳町立歴史民俗資料館",
    "prefecture": "埼玉県",
    "postCode": "354-0043",
    "address": "埼玉県三芳町竹間沢877",
    "city": "みよし",
    "image": "",
    "url": "http://www.jade.dti.ne.jp/miyoshir/",
    "latlng": "[35.8230896, 139.5473525]",
    "lat": 35.8230896,
    "lng": 139.5473525,
    "isClosed": ""
  },
  {
    "id": "saitama-museum-42",
    "type": "museum",
    "name": "三郷市郷土資料館",
    "prefecture": "埼玉県",
    "postCode": "341-0052",
    "address": "埼玉県三郷市彦野1－133",
    "city": "みさと",
    "image": "",
    "url": "",
    "latlng": "[35.8408561, 139.8476882]",
    "lat": 35.8408561,
    "lng": 139.8476882,
    "isClosed": ""
  },
  {
    "id": "saitama-museum-43",
    "type": "museum",
    "name": "上尾市自然学習館",
    "prefecture": "埼玉県",
    "postCode": "362-0065",
    "address": "埼玉県上尾市畔吉178",
    "city": "あげお",
    "image": "",
    "url": "",
    "latlng": "[35.9599196, 139.5490832]",
    "lat": 35.9599196,
    "lng": 139.5490832,
    "isClosed": ""
  },
  {
    "id": "saitama-museum-44",
    "type": "museum",
    "name": "上福岡市立歴史民俗資料館",
    "prefecture": "埼玉県",
    "postCode": "356-0022",
    "address": "埼玉県ふじみ野市長宮1-2-11",
    "city": "ふじみの",
    "image": "",
    "url": "",
    "latlng": "[35.8757063, 139.528278]",
    "lat": 35.8757063,
    "lng": 139.528278,
    "isClosed": ""
  },
  {
    "id": "saitama-museum-45",
    "type": "museum",
    "name": "上福岡市立福岡河岸記念館",
    "prefecture": "埼玉県",
    "postCode": "356-0011",
    "address": "埼玉県ふじみ野市福岡3-4-2",
    "city": "ふじみの",
    "image": "",
    "url": "",
    "latlng": "[35.8852593, 139.5228058]",
    "lat": 35.8852593,
    "lng": 139.5228058,
    "isClosed": ""
  },
  {
    "id": "saitama-museum-46",
    "type": "museum",
    "name": "上里町立図書館・郷土資料館",
    "prefecture": "埼玉県",
    "postCode": "369-0306",
    "address": "埼玉県上里町七本木67",
    "city": "かみさと",
    "image": "",
    "url": "",
    "latlng": "[36.2523352, 139.1411813]",
    "lat": 36.2523352,
    "lng": 139.1411813,
    "isClosed": ""
  },
  {
    "id": "saitama-museum-47",
    "type": "museum",
    "name": "久喜市郷土資料館",
    "prefecture": "埼玉県",
    "postCode": "340-0217",
    "address": "埼玉県久喜市鷲宮5-33-1",
    "city": "くき",
    "image": "",
    "url": "http://www.city.kuki.lg.jp/kanko/rekishi/kyodoshiryokan/kyodoshiryokan.html",
    "latlng": "[36.0994687, 139.6656656]",
    "lat": 36.0994687,
    "lng": 139.6656656,
    "isClosed": ""
  },
  {
    "id": "saitama-museum-48",
    "type": "museum",
    "name": "人形歴史館 東久",
    "prefecture": "埼玉県",
    "postCode": "339-0056",
    "address": "埼玉県さいたま市岩槻区加倉1-7-1",
    "city": "さいたま",
    "image": "",
    "url": "http://www.saitama-dentousangyou.com/18/",
    "latlng": "[35.9444696, 139.6917257]",
    "lat": 35.9444696,
    "lng": 139.6917257,
    "isClosed": ""
  },
  {
    "id": "saitama-museum-49",
    "type": "museum",
    "name": "八潮市立資料館",
    "prefecture": "埼玉県",
    "postCode": "340-0831",
    "address": "埼玉県八潮市南後谷763－50",
    "city": "やしお",
    "image": "",
    "url": "https://www.city.yashio.lg.jp/kurashi/shisetsuguide/shiryokan/",
    "latlng": "[35.826428, 139.820944]",
    "lat": 35.826428,
    "lng": 139.820944,
    "isClosed": ""
  },
  {
    "id": "saitama-museum-50",
    "type": "museum",
    "name": "利根川資料館",
    "prefecture": "埼玉県",
    "postCode": "349-1198",
    "address": "埼玉県久喜市栗橋北2-19-1",
    "city": "くき",
    "image": "",
    "url": "http://www.ktr.mlit.go.jp/tonejo/tonejo00133.html",
    "latlng": "[36.1433906, 139.6991721]",
    "lat": 36.1433906,
    "lng": 139.6991721,
    "isClosed": ""
  },
  {
    "id": "saitama-museum-51",
    "type": "museum",
    "name": "北本市文化センター",
    "prefecture": "埼玉県",
    "postCode": "364-0033",
    "address": "埼玉県北本市本町1－2－1",
    "city": "きたもと",
    "image": "",
    "url": "",
    "latlng": "[36.0275596, 139.5295071]",
    "lat": 36.0275596,
    "lng": 139.5295071,
    "isClosed": ""
  },
  {
    "id": "saitama-museum-52",
    "type": "museum",
    "name": "印刷史料館",
    "prefecture": "埼玉県",
    "postCode": "345-0046",
    "address": "埼玉県杉戸町高野台南4－2－3 凸版印刷総合研究所内",
    "city": "すぎと",
    "image": "",
    "url": "",
    "latlng": "[36.0440521, 139.7132779]",
    "lat": 36.0440521,
    "lng": 139.7132779,
    "isClosed": ""
  },
  {
    "id": "saitama-museum-53",
    "type": "museum",
    "name": "古代蓮の里　古代蓮会館",
    "prefecture": "埼玉県",
    "postCode": "361-0024",
    "address": "埼玉県行田市小針沼通2375",
    "city": "ぎょうだ",
    "image": "",
    "url": "http://www.ikiiki-zaidan.or.jp/kodaihasu/index.html",
    "latlng": "[36.1317307, 139.5050946]",
    "lat": 36.1317307,
    "lng": 139.5050946,
    "isClosed": ""
  },
  {
    "id": "saitama-museum-54",
    "type": "museum",
    "name": "吉田町立歴史民俗資料館",
    "prefecture": "埼玉県",
    "postCode": "369-1503",
    "address": "埼玉県秩父市下吉田3871-1",
    "city": "ちちぶ",
    "image": "",
    "url": "",
    "latlng": "[36.0420599, 139.0361655]",
    "lat": 36.0420599,
    "lng": 139.0361655,
    "isClosed": ""
  },
  {
    "id": "saitama-museum-55",
    "type": "museum",
    "name": "吉見町埋蔵文化財センター",
    "prefecture": "埼玉県",
    "postCode": "355-0155",
    "address": "埼玉県比企郡吉見町北吉見321",
    "city": "よしみ",
    "image": "",
    "url": "http://www.town.yoshimi.saitama.jp/shisetsu_maizoubunka.html",
    "latlng": "[36.0389893, 139.4213056]",
    "lat": 36.0389893,
    "lng": 139.4213056,
    "isClosed": ""
  },
  {
    "id": "saitama-museum-56",
    "type": "museum",
    "name": "国営武蔵丘陵森林公園　都市緑化植物園",
    "prefecture": "埼玉県",
    "postCode": "355-0802",
    "address": "埼玉県滑川町山田1920",
    "city": "なめがわ",
    "image": "",
    "url": "",
    "latlng": "[36.09038960000001, 139.3727906]",
    "lat": 36.09038960000001,
    "lng": 139.3727906,
    "isClosed": ""
  },
  {
    "id": "saitama-museum-57",
    "type": "museum",
    "name": "土合小学校郷土資料室",
    "prefecture": "埼玉県",
    "postCode": "338-0832",
    "address": "埼玉県さいたま市桜区西堀7-21-1",
    "city": "さいたま",
    "image": "",
    "url": "",
    "latlng": "[35.8579864, 139.6272384]",
    "lat": 35.8579864,
    "lng": 139.6272384,
    "isClosed": ""
  },
  {
    "id": "saitama-museum-58",
    "type": "museum",
    "name": "土器の館",
    "prefecture": "埼玉県",
    "postCode": "330-0803",
    "address": "埼玉県さいたま市大宮区高鼻町2-305-4",
    "city": "さいたま",
    "image": "",
    "url": "",
    "latlng": "[35.9156687, 139.6324035]",
    "lat": 35.9156687,
    "lng": 139.6324035,
    "isClosed": ""
  },
  {
    "id": "saitama-museum-59",
    "type": "museum",
    "name": "地球観測センター　地球観測展示室",
    "prefecture": "埼玉県",
    "postCode": "350-0393",
    "address": "埼玉県鳩山町大橋沼ノ上1401",
    "city": "はとやま",
    "image": "",
    "url": "",
    "latlng": "[35.9950402, 139.3373992]",
    "lat": 35.9950402,
    "lng": 139.3373992,
    "isClosed": ""
  },
  {
    "id": "saitama-museum-60",
    "type": "museum",
    "name": "坂戸市立歴史民俗資料館",
    "prefecture": "埼玉県",
    "postCode": "350-0212",
    "address": "埼玉県坂戸市石井1800",
    "city": "さかど",
    "image": "",
    "url": "",
    "latlng": "[35.977465, 139.4183687]",
    "lat": 35.977465,
    "lng": 139.4183687,
    "isClosed": ""
  },
  {
    "id": "saitama-museum-61",
    "type": "museum",
    "name": "城西大学薬学部附属薬用植物園",
    "prefecture": "埼玉県",
    "postCode": "350-0295",
    "address": "埼玉県坂戸市けやき台1－1",
    "city": "さかど",
    "image": "",
    "url": "",
    "latlng": "[35.9326382, 139.3416412]",
    "lat": 35.9326382,
    "lng": 139.3416412,
    "isClosed": ""
  },
  {
    "id": "saitama-museum-62",
    "type": "museum",
    "name": "埼玉ピースミュージアム（埼玉県平和資料館）",
    "prefecture": "埼玉県",
    "postCode": "355-0065",
    "address": "埼玉県東松山市 岩殿241-113",
    "city": "ひがしまつやま",
    "image": "",
    "url": "https://www.saitama-peacemuseum.com/",
    "latlng": "[35.9985986, 139.3656917]",
    "lat": 35.9985986,
    "lng": 139.3656917,
    "isClosed": ""
  },
  {
    "id": "saitama-museum-63",
    "type": "museum",
    "name": "埼玉伝統工芸会館",
    "prefecture": "埼玉県",
    "postCode": "355-0321",
    "address": "埼玉県小川町小川1220",
    "city": "おがわ",
    "image": "",
    "url": "",
    "latlng": "[36.0524329, 139.2812144]",
    "lat": 36.0524329,
    "lng": 139.2812144,
    "isClosed": ""
  },
  {
    "id": "saitama-museum-64",
    "type": "museum",
    "name": "埼玉県あらかわビジターセンター",
    "prefecture": "埼玉県",
    "postCode": "369-1803",
    "address": "埼玉県秩父市荒川日野536-1",
    "city": "ちちぶ",
    "image": "",
    "url": "",
    "latlng": "[35.9542166, 139.0125692]",
    "lat": 35.9542166,
    "lng": 139.0125692,
    "isClosed": ""
  },
  {
    "id": "saitama-museum-65",
    "type": "museum",
    "name": "埼玉県三峰ビジターセンター",
    "prefecture": "埼玉県",
    "postCode": "369-1902",
    "address": "埼玉県秩父市三峰356",
    "city": "ちちぶ",
    "image": "",
    "url": "",
    "latlng": "[35.921629, 138.9337046]",
    "lat": 35.921629,
    "lng": 138.9337046,
    "isClosed": ""
  },
  {
    "id": "saitama-museum-66",
    "type": "museum",
    "name": "埼玉県山西省友好記念館 神怡舘",
    "prefecture": "埼玉県",
    "postCode": "368-0201",
    "address": "埼玉県小鹿野町両神薄2245",
    "city": "おがの",
    "image": "",
    "url": "http://www.shenyi.jp/",
    "latlng": "[36.0073282, 138.9739127]",
    "lat": 36.0073282,
    "lng": 138.9739127,
    "isClosed": ""
  },
  {
    "id": "saitama-museum-67",
    "type": "museum",
    "name": "埼玉県文化財収蔵施設",
    "prefecture": "埼玉県",
    "postCode": "369-0108",
    "address": "埼玉県熊谷市船木台4-4-1",
    "city": "くまがや",
    "image": "",
    "url": "https://www.saimaibun.or.jp/odekake/riyou/",
    "latlng": "[36.0787059, 139.4223388]",
    "lat": 36.0787059,
    "lng": 139.4223388,
    "isClosed": ""
  },
  {
    "id": "saitama-museum-68",
    "type": "museum",
    "name": "埼玉県植物振興センター",
    "prefecture": "埼玉県",
    "postCode": "334-0059",
    "address": "埼玉県川口市安行1015",
    "city": "かわぐち",
    "image": "",
    "url": "",
    "latlng": "[35.848939, 139.7560739]",
    "lat": 35.848939,
    "lng": 139.7560739,
    "isClosed": ""
  },
  {
    "id": "saitama-museum-69",
    "type": "museum",
    "name": "埼玉県環境科学国際センター",
    "prefecture": "埼玉県",
    "postCode": "347-0115",
    "address": "埼玉県騎西町上種足914",
    "city": "きさい",
    "image": "",
    "url": "",
    "latlng": "[36.0852092, 139.5600752]",
    "lat": 36.0852092,
    "lng": 139.5600752,
    "isClosed": ""
  },
  {
    "id": "saitama-museum-70",
    "type": "museum",
    "name": "埼玉県県民の森　森林学習展示館",
    "prefecture": "埼玉県",
    "postCode": "368-0071",
    "address": "埼玉県横瀬町芦ヶ久保丸山北平896",
    "city": "よこぜ",
    "image": "",
    "url": "",
    "latlng": "[35.9886578, 139.1596057]",
    "lat": 35.9886578,
    "lng": 139.1596057,
    "isClosed": ""
  },
  {
    "id": "saitama-museum-71",
    "type": "museum",
    "name": "埼玉県立名栗げんきプラザ",
    "prefecture": "埼玉県",
    "postCode": "357-0111",
    "address": "埼玉県飯能市上名栗1289-2",
    "city": "はんのう",
    "image": "",
    "url": "http://www.naguri-genki.com/",
    "latlng": "[35.9373312, 139.1539407]",
    "lat": 35.9373312,
    "lng": 139.1539407,
    "isClosed": ""
  },
  {
    "id": "saitama-museum-72",
    "type": "museum",
    "name": "埼玉県立小川げんきプラザ",
    "prefecture": "埼玉県",
    "postCode": "355-0337",
    "address": "埼玉県小川町木呂子561",
    "city": "おがわ",
    "image": "",
    "url": "http://ogawagenki.com/",
    "latlng": "[36.0832051, 139.2257524]",
    "lat": 36.0832051,
    "lng": 139.2257524,
    "isClosed": ""
  },
  {
    "id": "saitama-museum-73",
    "type": "museum",
    "name": "埼玉県立文書館",
    "prefecture": "埼玉県",
    "postCode": "330-0063",
    "address": "埼玉県さいたま市浦和区高砂4-3-18",
    "city": "さいたま",
    "image": "",
    "url": "https://monjo.spec.ed.jp/",
    "latlng": "[35.8573063, 139.6469781]",
    "lat": 35.8573063,
    "lng": 139.6469781,
    "isClosed": ""
  },
  {
    "id": "saitama-museum-74",
    "type": "museum",
    "name": "埼玉県立松山高校記念館",
    "prefecture": "埼玉県",
    "postCode": "355-0018",
    "address": "埼玉県東松山市松山町1－6－10",
    "city": "ひがしまつやま",
    "image": "",
    "url": "",
    "latlng": "[36.0454207, 139.3964406]",
    "lat": 36.0454207,
    "lng": 139.3964406,
    "isClosed": ""
  },
  {
    "id": "saitama-museum-75",
    "type": "museum",
    "name": "埼玉県自然学習センター",
    "prefecture": "埼玉県",
    "postCode": "364-0026",
    "address": "埼玉県北本市荒井5-200 北本自然観察公園内",
    "city": "きたもと",
    "image": "",
    "url": "http://www.saitama-shizen.info/index.html",
    "latlng": "[36.0113203, 139.5091906]",
    "lat": 36.0113203,
    "lng": 139.5091906,
    "isClosed": ""
  },
  {
    "id": "saitama-museum-76",
    "type": "museum",
    "name": "埼玉県農林公園・木材文化館",
    "prefecture": "埼玉県",
    "postCode": "369-1105",
    "address": "埼玉県深谷市本田5768-1",
    "city": "ふかや",
    "image": "",
    "url": "",
    "latlng": "[36.111902, 139.2878455]",
    "lat": 36.111902,
    "lng": 139.2878455,
    "isClosed": ""
  },
  {
    "id": "saitama-museum-77",
    "type": "museum",
    "name": "埼玉県農林総合研究センター森林支所資料室",
    "prefecture": "埼玉県",
    "postCode": "369-1224",
    "address": "埼玉県寄居町鉢形2609",
    "city": "よりい",
    "image": "",
    "url": "",
    "latlng": "[36.1087672, 139.1962722]",
    "lat": 36.1087672,
    "lng": 139.1962722,
    "isClosed": ""
  },
  {
    "id": "saitama-museum-78",
    "type": "museum",
    "name": "埼玉県農林総合研究センター植木支所",
    "prefecture": "埼玉県",
    "postCode": "366-0815",
    "address": "埼玉県深谷市櫛引24",
    "city": "ふかや",
    "image": "",
    "url": "",
    "latlng": "[36.1579349, 139.2354713]",
    "lat": 36.1579349,
    "lng": 139.2354713,
    "isClosed": ""
  },
  {
    "id": "saitama-museum-79",
    "type": "museum",
    "name": "埼玉県防災学習センター",
    "prefecture": "埼玉県",
    "postCode": "369-0131",
    "address": "埼玉県鴻巣市袋30番地",
    "city": "こうのす",
    "image": "",
    "url": "http://bousai-gakusyu-saitama-ht.jp/",
    "latlng": "[36.0928537, 139.4675613]",
    "lat": 36.0928537,
    "lng": 139.4675613,
    "isClosed": ""
  },
  {
    "id": "saitama-museum-80",
    "type": "museum",
    "name": "大井町立郷土資料館",
    "prefecture": "埼玉県",
    "postCode": "356-0051",
    "address": "埼玉県ふじみ野市亀久保1196-5",
    "city": "ふじみの",
    "image": "",
    "url": "",
    "latlng": "[35.85624749999999, 139.5023928]",
    "lat": 35.85624749999999,
    "lng": 139.5023928,
    "isClosed": ""
  },
  {
    "id": "saitama-museum-81",
    "type": "museum",
    "name": "大凧会館",
    "prefecture": "埼玉県",
    "postCode": "344-0102",
    "address": "埼玉県春日部市西宝珠花637",
    "city": "かすかべ",
    "image": "",
    "url": "",
    "latlng": "[36.0329096, 139.8125132]",
    "lat": 36.0329096,
    "lng": 139.8125132,
    "isClosed": ""
  },
  {
    "id": "saitama-museum-82",
    "type": "museum",
    "name": "大宅壮一文庫越生分館",
    "prefecture": "埼玉県",
    "postCode": "350-0415",
    "address": "埼玉県越生町上野2845-2",
    "city": "おごせ",
    "image": "",
    "url": "http://www.oya-bunko.or.jp/",
    "latlng": "[35.9497237, 139.2974133]",
    "lat": 35.9497237,
    "lng": 139.2974133,
    "isClosed": ""
  },
  {
    "id": "saitama-museum-83",
    "type": "museum",
    "name": "大滝村立歴史民俗資料館",
    "prefecture": "埼玉県",
    "postCode": "369-1901",
    "address": "埼玉県秩父市大滝4277-4",
    "city": "ちちぶ",
    "image": "",
    "url": "",
    "latlng": "[35.9501179, 138.9378555]",
    "lat": 35.9501179,
    "lng": 138.9378555,
    "isClosed": ""
  },
  {
    "id": "saitama-museum-84",
    "type": "museum",
    "name": "妻沼町立展示館",
    "prefecture": "埼玉県",
    "postCode": "360-0202",
    "address": "埼玉県熊谷市妻沼東1-1",
    "city": "くまがや",
    "image": "",
    "url": "",
    "latlng": "[36.2230167, 139.3821425]",
    "lat": 36.2230167,
    "lng": 139.3821425,
    "isClosed": ""
  },
  {
    "id": "saitama-museum-85",
    "type": "museum",
    "name": "宮代町郷土資料館",
    "prefecture": "埼玉県",
    "postCode": "345-0817",
    "address": "埼玉県宮代町西原289",
    "city": "みやしろ",
    "image": "",
    "url": "",
    "latlng": "[36.0097311, 139.7252364]",
    "lat": 36.0097311,
    "lng": 139.7252364,
    "isClosed": ""
  },
  {
    "id": "saitama-museum-86",
    "type": "museum",
    "name": "富士見市立難波田城資料館",
    "prefecture": "埼玉県",
    "postCode": "354-0004",
    "address": "埼玉県富士見市下南畑568-1 富士見市立難波田城公園内",
    "city": "ふじみ",
    "image": "",
    "url": "http://www.city.fujimi.saitama.jp/",
    "latlng": "[35.8576746, 139.5670302]",
    "lat": 35.8576746,
    "lng": 139.5670302,
    "isClosed": ""
  },
  {
    "id": "saitama-museum-87",
    "type": "museum",
    "name": "小川和紙資料館",
    "prefecture": "埼玉県",
    "postCode": "355-0324",
    "address": "埼玉県小川町青山大沢475",
    "city": "おがわ",
    "image": "",
    "url": "",
    "latlng": "[36.0508992, 139.2627182]",
    "lat": 36.0508992,
    "lng": 139.2627182,
    "isClosed": ""
  },
  {
    "id": "saitama-museum-88",
    "type": "museum",
    "name": "岩槻郷土資料館",
    "prefecture": "埼玉県",
    "postCode": "339-0057",
    "address": "埼玉県さいたま市岩槻区本町2-2-34",
    "city": "さいたま",
    "image": "",
    "url": "https://www.city.saitama.jp/004/005/004/005/009/p009074.html",
    "latlng": "[35.9454878, 139.6933939]",
    "lat": 35.9454878,
    "lng": 139.6933939,
    "isClosed": ""
  },
  {
    "id": "saitama-museum-89",
    "type": "museum",
    "name": "川口市立グリーンセンター",
    "prefecture": "埼玉県",
    "postCode": "333-0826",
    "address": "埼玉県川口市新井宿700",
    "city": "かわぐち",
    "image": "",
    "url": "",
    "latlng": "[35.843871, 139.7291289]",
    "lat": 35.843871,
    "lng": 139.7291289,
    "isClosed": ""
  },
  {
    "id": "saitama-museum-90",
    "type": "museum",
    "name": "川口市立文化財センター分館 郷土資料館",
    "prefecture": "埼玉県",
    "postCode": "334-0002",
    "address": "埼玉県川口市鳩ヶ谷本町2－1－22",
    "city": "かわぐち",
    "image": "",
    "url": "",
    "latlng": "[35.83354, 139.7404523]",
    "lat": 35.83354,
    "lng": 139.7404523,
    "isClosed": ""
  },
  {
    "id": "saitama-museum-91",
    "type": "museum",
    "name": "川口市立科学館（サイエンスワールド）",
    "prefecture": "埼玉県",
    "postCode": "333-0844",
    "address": "埼玉県川口市上青木3-12-18",
    "city": "かわぐち",
    "image": "",
    "url": "http://www.kawaguchi.science.museum/",
    "latlng": "[35.8277293, 139.7197873]",
    "lat": 35.8277293,
    "lng": 139.7197873,
    "isClosed": ""
  },
  {
    "id": "saitama-museum-92",
    "type": "museum",
    "name": "川本町出土文化財管理センター",
    "prefecture": "埼玉県",
    "postCode": "369-1104",
    "address": "埼玉県深谷市菅沼1019",
    "city": "ふかや",
    "image": "",
    "url": "",
    "latlng": "[36.137206, 139.2862096]",
    "lat": 36.137206,
    "lng": 139.2862096,
    "isClosed": ""
  },
  {
    "id": "saitama-museum-93",
    "type": "museum",
    "name": "川越城本丸御殿",
    "prefecture": "埼玉県",
    "postCode": "350-0053",
    "address": "埼玉県川越市郭町2-13-1",
    "city": "かわごえ",
    "image": "",
    "url": "http://museum.city.kawagoe.saitama.jp/hommaru/",
    "latlng": "[35.9252081, 139.4909575]",
    "lat": 35.9252081,
    "lng": 139.4909575,
    "isClosed": ""
  },
  {
    "id": "saitama-museum-94",
    "type": "museum",
    "name": "川越市児童センター",
    "prefecture": "埼玉県",
    "postCode": "350-0824",
    "address": "埼玉県川越市石原町1－41－2",
    "city": "かわごえ",
    "image": "",
    "url": "",
    "latlng": "[35.9238568, 139.4760757]",
    "lat": 35.9238568,
    "lng": 139.4760757,
    "isClosed": ""
  },
  {
    "id": "saitama-museum-95",
    "type": "museum",
    "name": "川越市蔵造り資料館",
    "prefecture": "埼玉県",
    "postCode": "350-0063",
    "address": "埼玉県川越市幸町7-9",
    "city": "かわごえ",
    "image": "",
    "url": "http://www.kawagoe.com/kzs/",
    "latlng": "[35.9237706, 139.4828379]",
    "lat": 35.9237706,
    "lng": 139.4828379,
    "isClosed": ""
  },
  {
    "id": "saitama-museum-96",
    "type": "museum",
    "name": "川越歴史博物館",
    "prefecture": "埼玉県",
    "postCode": "350-0055",
    "address": "埼玉県川越市久保町11-8 喜多院北参道入口",
    "city": "かわごえ",
    "image": "",
    "url": "http://www.kawagoe-rekishi.com/",
    "latlng": "[35.9192814, 139.4895229]",
    "lat": 35.9192814,
    "lng": 139.4895229,
    "isClosed": ""
  },
  {
    "id": "saitama-museum-97",
    "type": "museum",
    "name": "川里郷土資料館",
    "prefecture": "埼玉県",
    "postCode": "365-0004",
    "address": "埼玉県鴻巣市関新田1281-1",
    "city": "こうのす",
    "image": "",
    "url": "",
    "latlng": "[36.0987044, 139.525842]",
    "lat": 36.0987044,
    "lng": 139.525842,
    "isClosed": ""
  },
  {
    "id": "saitama-museum-98",
    "type": "museum",
    "name": "彩の国くらしプラザ",
    "prefecture": "埼玉県",
    "postCode": "333-0844",
    "address": "埼玉県川口市上青木3-12-18　 SKIPシティA1街区",
    "city": "かわぐち",
    "image": "",
    "url": "http://www.kurashi-plaza.jp/",
    "latlng": "[35.8277203, 139.720417]",
    "lat": 35.8277203,
    "lng": 139.720417,
    "isClosed": ""
  },
  {
    "id": "saitama-museum-99",
    "type": "museum",
    "name": "彩の国ふれあい牧場",
    "prefecture": "埼玉県",
    "postCode": "355-0372",
    "address": "埼玉県東秩父村坂本2949－1",
    "city": "ひがしちちぶ",
    "image": "",
    "url": "",
    "latlng": "[36.0540394, 139.1581205]",
    "lat": 36.0540394,
    "lng": 139.1581205,
    "isClosed": ""
  },
  {
    "id": "saitama-museum-100",
    "type": "museum",
    "name": "彩湖・道満グリーンパーク",
    "prefecture": "埼玉県",
    "postCode": "335-0031",
    "address": "埼玉県戸田市美女木８－１５－４",
    "city": "とだ",
    "image": "",
    "url": "http://www.toda-greenpark.or.jp/",
    "latlng": "[35.8265715, 139.6337925]",
    "lat": 35.8265715,
    "lng": 139.6337925,
    "isClosed": ""
  },
  {
    "id": "saitama-museum-101",
    "type": "museum",
    "name": "彩湖自然学習センター みどりパル",
    "prefecture": "埼玉県",
    "postCode": "335-0031",
    "address": "埼玉県戸田市内谷2887",
    "city": "とだ",
    "image": "",
    "url": "http://www.city.toda.saitama.jp/433/432448.html",
    "latlng": "[35.8179647, 139.6342453]",
    "lat": 35.8179647,
    "lng": 139.6342453,
    "isClosed": ""
  },
  {
    "id": "saitama-museum-102",
    "type": "museum",
    "name": "志木市立郷土資料館",
    "prefecture": "埼玉県",
    "postCode": "353-0002",
    "address": "埼玉県志木市中宗岡3－1－2",
    "city": "しき",
    "image": "",
    "url": "",
    "latlng": "[35.8392064, 139.5891054]",
    "lat": 35.8392064,
    "lng": 139.5891054,
    "isClosed": ""
  },
  {
    "id": "saitama-museum-103",
    "type": "museum",
    "name": "慈光寺宝物殿",
    "prefecture": "埼玉県",
    "postCode": "355-0364",
    "address": "埼玉県ときがわ町西平386",
    "city": "ときがわ",
    "image": "",
    "url": "",
    "latlng": "[36.0115126, 139.2321211]",
    "lat": 36.0115126,
    "lng": 139.2321211,
    "isClosed": ""
  },
  {
    "id": "saitama-museum-104",
    "type": "museum",
    "name": "所沢航空発祥記念館",
    "prefecture": "埼玉県",
    "postCode": "359-0042",
    "address": "埼玉県所沢市並木1-13 県営所沢航空記念公園内",
    "city": "ところざわ",
    "image": "",
    "url": "https://tam-web.jsf.or.jp/",
    "latlng": "[35.7979631, 139.4733987]",
    "lat": 35.7979631,
    "lng": 139.4733987,
    "isClosed": ""
  },
  {
    "id": "saitama-museum-105",
    "type": "museum",
    "name": "文化センター　アリラン",
    "prefecture": "埼玉県",
    "postCode": "332-0022",
    "address": "埼玉県川口市仲町10－31",
    "city": "かわぐち",
    "image": "",
    "url": "",
    "latlng": "[35.80778129999999, 139.7059988]",
    "lat": 35.80778129999999,
    "lng": 139.7059988,
    "isClosed": ""
  },
  {
    "id": "saitama-museum-106",
    "type": "museum",
    "name": "新座市立歴史民俗資料館",
    "prefecture": "埼玉県",
    "postCode": "352-0025",
    "address": "埼玉県新座市片山1－21－25",
    "city": "にいざ",
    "image": "",
    "url": "",
    "latlng": "[35.7692052, 139.5623253]",
    "lat": 35.7692052,
    "lng": 139.5623253,
    "isClosed": ""
  },
  {
    "id": "saitama-museum-107",
    "type": "museum",
    "name": "日本煉瓦史料館",
    "prefecture": "埼玉県",
    "postCode": "366-0029",
    "address": "埼玉県深谷市上敷免89",
    "city": "ふかや",
    "image": "",
    "url": "",
    "latlng": "[36.2198563, 139.2989248]",
    "lat": 36.2198563,
    "lng": 139.2989248,
    "isClosed": ""
  },
  {
    "id": "saitama-museum-108",
    "type": "museum",
    "name": "旧坂東家住宅見沼くらしっく館",
    "prefecture": "埼玉県",
    "postCode": "337-0024",
    "address": "埼玉県さいたま市見沼区片柳1266-2",
    "city": "さいたま",
    "image": "",
    "url": "",
    "latlng": "[35.9062392, 139.690814]",
    "lat": 35.9062392,
    "lng": 139.690814,
    "isClosed": ""
  },
  {
    "id": "saitama-museum-109",
    "type": "museum",
    "name": "昌國利器工匠具（刃物）博物館",
    "prefecture": "埼玉県",
    "postCode": "332-0001",
    "address": "埼玉県川口市朝日1－5－26",
    "city": "かわぐち",
    "image": "",
    "url": "",
    "latlng": "[35.8068943, 139.7328107]",
    "lat": 35.8068943,
    "lng": 139.7328107,
    "isClosed": ""
  },
  {
    "id": "saitama-museum-110",
    "type": "museum",
    "name": "春日部市郷土資料館",
    "prefecture": "埼玉県",
    "postCode": "344-0062",
    "address": "埼玉県春日部市粕壁東3-2-15",
    "city": "かすかべ",
    "image": "",
    "url": "",
    "latlng": "[35.979378, 139.7590282]",
    "lat": 35.979378,
    "lng": 139.7590282,
    "isClosed": ""
  },
  {
    "id": "saitama-museum-111",
    "type": "museum",
    "name": "服部民俗資料館",
    "prefecture": "埼玉県",
    "postCode": "350-0063",
    "address": "埼玉県川越市幸町6－8",
    "city": "かわごえ",
    "image": "",
    "url": "",
    "latlng": "[35.92324079999999, 139.4830393]",
    "lat": 35.92324079999999,
    "lng": 139.4830393,
    "isClosed": ""
  },
  {
    "id": "saitama-museum-112",
    "type": "museum",
    "name": "本多静六記念館",
    "prefecture": "埼玉県",
    "postCode": "346-0192",
    "address": "埼玉県久喜市菖蒲町新堀38 菖蒲総合支所5階",
    "city": "くき",
    "image": "",
    "url": "https://www.city.kuki.lg.jp/miryoku/rekishi_bunkazai/honda_00/honda_05.html",
    "latlng": "[36.0594518, 139.6013284]",
    "lat": 36.0594518,
    "lng": 139.6013284,
    "isClosed": ""
  },
  {
    "id": "saitama-museum-113",
    "type": "museum",
    "name": "本庄市塙保己一記念館",
    "prefecture": "埼玉県",
    "postCode": "367-0217",
    "address": "埼玉県本庄市児玉町八幡山446",
    "city": "ほんじょう",
    "image": "",
    "url": "",
    "latlng": "[36.1968465, 139.128461]",
    "lat": 36.1968465,
    "lng": 139.128461,
    "isClosed": ""
  },
  {
    "id": "saitama-museum-114",
    "type": "museum",
    "name": "本庄市立歴史民俗資料館",
    "prefecture": "埼玉県",
    "postCode": "367-0053",
    "address": "埼玉県本庄市中央1－2－3",
    "city": "ほんじょう",
    "image": "",
    "url": "",
    "latlng": "[36.2419424, 139.1847762]",
    "lat": 36.2419424,
    "lng": 139.1847762,
    "isClosed": ""
  },
  {
    "id": "saitama-museum-115",
    "type": "museum",
    "name": "東松山市化石と自然の体験館",
    "prefecture": "埼玉県",
    "postCode": "355-0067",
    "address": "埼玉県東松山市坂東山１３",
    "city": "ひがしまつやま",
    "image": "",
    "url": "http://www.city.higashimatsuyama.lg.jp/soshiki/toshiseibibu/toshi/menu/kasekitoshizen/index.html",
    "latlng": "[36.0159667, 139.3761041]",
    "lat": 36.0159667,
    "lng": 139.3761041,
    "isClosed": ""
  },
  {
    "id": "saitama-museum-116",
    "type": "museum",
    "name": "東松山市埋蔵文化財センター",
    "prefecture": "埼玉県",
    "postCode": "355-0036",
    "address": "埼玉県東松山市下野本528－1",
    "city": "ひがしまつやま",
    "image": "",
    "url": "",
    "latlng": "[36.0163415, 139.4195588]",
    "lat": 36.0163415,
    "lng": 139.4195588,
    "isClosed": ""
  },
  {
    "id": "saitama-museum-117",
    "type": "museum",
    "name": "東玉　人形の博物館",
    "prefecture": "埼玉県",
    "postCode": "339-0057",
    "address": "埼玉県さいたま市岩槻区本町3-2",
    "city": "さいたま",
    "image": "",
    "url": "",
    "latlng": "[35.9499303, 139.6941687]",
    "lat": 35.9499303,
    "lng": 139.6941687,
    "isClosed": ""
  },
  {
    "id": "saitama-museum-118",
    "type": "museum",
    "name": "桶川市歴史民俗資料館",
    "prefecture": "埼玉県",
    "postCode": "363-0027",
    "address": "埼玉県桶川市川田谷4405－4 川田谷生涯学習センター内",
    "city": "おけがわ",
    "image": "",
    "url": "",
    "latlng": "[35.9938686, 139.5267014]",
    "lat": 35.9938686,
    "lng": 139.5267014,
    "isClosed": ""
  },
  {
    "id": "saitama-museum-119",
    "type": "museum",
    "name": "横瀬町歴史民俗資料館",
    "prefecture": "埼玉県",
    "postCode": "368-0072",
    "address": "埼玉県横瀬町横瀬2000",
    "city": "よこぜ",
    "image": "",
    "url": "",
    "latlng": "[35.9866818, 139.1029381]",
    "lat": 35.9866818,
    "lng": 139.1029381,
    "isClosed": ""
  },
  {
    "id": "saitama-museum-120",
    "type": "museum",
    "name": "武甲山資料館",
    "prefecture": "埼玉県",
    "postCode": "368-0023",
    "address": "埼玉県秩父市大宮6176 羊山公園内",
    "city": "ちちぶ",
    "image": "",
    "url": "",
    "latlng": "[35.986768, 139.0894589]",
    "lat": 35.986768,
    "lng": 139.0894589,
    "isClosed": ""
  },
  {
    "id": "saitama-museum-121",
    "type": "museum",
    "name": "武蔵野音楽大学楽器博物館（入間校地）",
    "prefecture": "埼玉県",
    "postCode": "358-0035",
    "address": "埼玉県入間市中神728",
    "city": "いるま",
    "image": "",
    "url": "",
    "latlng": "[35.8298568, 139.3547934]",
    "lat": 35.8298568,
    "lng": 139.3547934,
    "isClosed": ""
  },
  {
    "id": "saitama-museum-122",
    "type": "museum",
    "name": "毛呂山町歴史民俗資料館",
    "prefecture": "埼玉県",
    "postCode": "350-0432",
    "address": "埼玉県毛呂山町大類535",
    "city": "もろやま",
    "image": "",
    "url": "",
    "latlng": "[35.9556748, 139.3464123]",
    "lat": 35.9556748,
    "lng": 139.3464123,
    "isClosed": ""
  },
  {
    "id": "saitama-museum-123",
    "type": "museum",
    "name": "浦山ダム資料館うららぴあ",
    "prefecture": "埼玉県",
    "postCode": "369-1801",
    "address": "埼玉県秩父市荒川久那後台道上4041",
    "city": "ちちぶ",
    "image": "",
    "url": "http://www.chichibu.ne.jp/~urarapia/index.html",
    "latlng": "[35.9536092, 139.0589836]",
    "lat": 35.9536092,
    "lng": 139.0589836,
    "isClosed": ""
  },
  {
    "id": "saitama-museum-124",
    "type": "museum",
    "name": "渋沢栄一記念館",
    "prefecture": "埼玉県",
    "postCode": "366-0002",
    "address": "埼玉県深谷市下手計1204",
    "city": "ふかや",
    "image": "",
    "url": "http://www.city.fukaya.saitama.jp/shibusawa_eiichi/index.html",
    "latlng": "[36.2342399, 139.2638822]",
    "lat": 36.2342399,
    "lng": 139.2638822,
    "isClosed": ""
  },
  {
    "id": "saitama-museum-125",
    "type": "museum",
    "name": "片倉シルク記念館",
    "prefecture": "埼玉県",
    "postCode": "360-0815",
    "address": "埼玉県熊谷市本石2-135",
    "city": "くまがや",
    "image": "",
    "url": "http://www.katakura.co.jp/",
    "latlng": "[36.1464007, 139.3785389]",
    "lat": 36.1464007,
    "lng": 139.3785389,
    "isClosed": ""
  },
  {
    "id": "saitama-museum-126",
    "type": "museum",
    "name": "狭山市立博物館",
    "prefecture": "埼玉県",
    "postCode": "350-1324",
    "address": "埼玉県狭山市稲荷山1-23-1",
    "city": "さやま",
    "image": "",
    "url": "http://www.city.sayama.saitama.jp/manabu/museum/",
    "latlng": "[35.8453351, 139.395109]",
    "lat": 35.8453351,
    "lng": 139.395109,
    "isClosed": ""
  },
  {
    "id": "saitama-museum-127",
    "type": "museum",
    "name": "白雲山鳥居文庫",
    "prefecture": "埼玉県",
    "postCode": "357-0111",
    "address": "埼玉県飯能市上名栗3198",
    "city": "はんのう",
    "image": "",
    "url": "",
    "latlng": "[35.8798765, 139.1825274]",
    "lat": 35.8798765,
    "lng": 139.1825274,
    "isClosed": ""
  },
  {
    "id": "saitama-museum-128",
    "type": "museum",
    "name": "秩父まつり会館",
    "prefecture": "埼玉県",
    "postCode": "368-0041",
    "address": "埼玉県秩父市番場町2-8",
    "city": "ちちぶ",
    "image": "",
    "url": "",
    "latlng": "[35.9973297, 139.0852029]",
    "lat": 35.9973297,
    "lng": 139.0852029,
    "isClosed": ""
  },
  {
    "id": "saitama-museum-129",
    "type": "museum",
    "name": "秩父宮記念三峰山博物館",
    "prefecture": "埼玉県",
    "postCode": "369-1902",
    "address": "埼玉県秩父市三峰298",
    "city": "ちちぶ",
    "image": "",
    "url": "",
    "latlng": "[35.923403, 138.9317947]",
    "lat": 35.923403,
    "lng": 138.9317947,
    "isClosed": ""
  },
  {
    "id": "saitama-museum-130",
    "type": "museum",
    "name": "秩父市浦山民俗資料館",
    "prefecture": "埼玉県",
    "postCode": "369-1801",
    "address": "埼玉県秩父市荒川久那3805-7",
    "city": "ちちぶ",
    "image": "",
    "url": "",
    "latlng": "[35.9643799, 139.0600086]",
    "lat": 35.9643799,
    "lng": 139.0600086,
    "isClosed": ""
  },
  {
    "id": "saitama-museum-131",
    "type": "museum",
    "name": "秩父市立荒川歴史民俗資料館",
    "prefecture": "埼玉県",
    "postCode": "369-1803",
    "address": "埼玉県秩父市荒川日野76",
    "city": "ちちぶ",
    "image": "",
    "url": "",
    "latlng": "[35.9549977, 139.0238131]",
    "lat": 35.9549977,
    "lng": 139.0238131,
    "isClosed": ""
  },
  {
    "id": "saitama-museum-132",
    "type": "museum",
    "name": "秩父珍石館",
    "prefecture": "埼玉県",
    "postCode": "369-1872",
    "address": "埼玉県秩父市上影森764-6",
    "city": "ちちぶ",
    "image": "",
    "url": "",
    "latlng": "[35.9813675, 139.0669246]",
    "lat": 35.9813675,
    "lng": 139.0669246,
    "isClosed": ""
  },
  {
    "id": "saitama-museum-133",
    "type": "museum",
    "name": "税務大学校　租税史料館",
    "prefecture": "埼玉県",
    "postCode": "351-0195",
    "address": "埼玉県和光市南2‐3‐7 税務大学校和光校舎内",
    "city": "わこう",
    "image": "",
    "url": "https://www.nta.go.jp/about/organization/ntc/sozei/index.htm",
    "latlng": "[35.7751875, 139.607202]",
    "lat": 35.7751875,
    "lng": 139.607202,
    "isClosed": ""
  },
  {
    "id": "saitama-museum-134",
    "type": "museum",
    "name": "立正大学熊谷校舎考古学陳列室",
    "prefecture": "埼玉県",
    "postCode": "360-0161",
    "address": "埼玉県熊谷市万吉1700",
    "city": "くまがや",
    "image": "",
    "url": "",
    "latlng": "[36.1096966, 139.3651373]",
    "lat": 36.1096966,
    "lng": 139.3651373,
    "isClosed": ""
  },
  {
    "id": "saitama-museum-135",
    "type": "museum",
    "name": "縄文ふれあい広場　水子貝塚公園",
    "prefecture": "埼玉県",
    "postCode": "354-0011",
    "address": "埼玉県富士見市水子2003－1",
    "city": "ふじみ",
    "image": "",
    "url": "",
    "latlng": "[35.8455625, 139.5621748]",
    "lat": 35.8455625,
    "lng": 139.5621748,
    "isClosed": ""
  },
  {
    "id": "saitama-museum-136",
    "type": "museum",
    "name": "美里町遺跡の森館",
    "prefecture": "埼玉県",
    "postCode": "367-0112",
    "address": "埼玉県美里町木部574",
    "city": "みさと",
    "image": "",
    "url": "",
    "latlng": "[36.1676134, 139.1738253]",
    "lat": 36.1676134,
    "lng": 139.1738253,
    "isClosed": ""
  },
  {
    "id": "saitama-museum-137",
    "type": "museum",
    "name": "羽生市立図書館・郷土資料室",
    "prefecture": "埼玉県",
    "postCode": "348-0026",
    "address": "埼玉県羽生市下羽生948",
    "city": "はにゅう",
    "image": "",
    "url": "",
    "latlng": "[36.1650189, 139.5482875]",
    "lat": 36.1650189,
    "lng": 139.5482875,
    "isClosed": ""
  },
  {
    "id": "saitama-museum-138",
    "type": "museum",
    "name": "芦ケ久保総合資料館",
    "prefecture": "埼玉県",
    "postCode": "368-0071",
    "address": "埼玉県横瀬町芦ケ久保日向山418",
    "city": "よこぜ",
    "image": "",
    "url": "",
    "latlng": "[35.9893137, 139.1328907]",
    "lat": 35.9893137,
    "lng": 139.1328907,
    "isClosed": ""
  },
  {
    "id": "saitama-museum-139",
    "type": "museum",
    "name": "草創庵博物館",
    "prefecture": "埼玉県",
    "postCode": "340-0002",
    "address": "埼玉県草加市青柳2－16－18",
    "city": "そうか",
    "image": "",
    "url": "",
    "latlng": "[35.8478901, 139.8234026]",
    "lat": 35.8478901,
    "lng": 139.8234026,
    "isClosed": ""
  },
  {
    "id": "saitama-museum-140",
    "type": "museum",
    "name": "菖蒲文化会館「本多静六記念室」",
    "prefecture": "埼玉県",
    "postCode": "346-0106",
    "address": "埼玉県久喜市菖蒲町菖蒲85-1",
    "city": "くき",
    "image": "",
    "url": "http://www.city.kuki.lg.jp/kanko/rekishi/honda/honda_05.html",
    "latlng": "[36.06160759999999, 139.6032194]",
    "lat": 36.06160759999999,
    "lng": 139.6032194,
    "isClosed": ""
  },
  {
    "id": "saitama-museum-141",
    "type": "museum",
    "name": "蓮田市郷土資料館",
    "prefecture": "埼玉県",
    "postCode": "349-0131",
    "address": "埼玉県蓮田市根金1489－1",
    "city": "はすだ",
    "image": "",
    "url": "",
    "latlng": "[36.0218052, 139.6311805]",
    "lat": 36.0218052,
    "lng": 139.6311805,
    "isClosed": ""
  },
  {
    "id": "saitama-museum-142",
    "type": "museum",
    "name": "蔵　浜田",
    "prefecture": "埼玉県",
    "postCode": "332-0012",
    "address": "埼玉県川口市本町1-11-24",
    "city": "かわぐち",
    "image": "",
    "url": "http://www.kura-hamada.jp/kura.html",
    "latlng": "[35.7953673, 139.7250683]",
    "lat": 35.7953673,
    "lng": 139.7250683,
    "isClosed": ""
  },
  {
    "id": "saitama-museum-143",
    "type": "museum",
    "name": "蕨市立歴史民俗資料館",
    "prefecture": "埼玉県",
    "postCode": "335-0004",
    "address": "埼玉県蕨市中央5-17-22",
    "city": "わらび",
    "image": "",
    "url": "https://www.city.warabi.saitama.jp/shogaigakushu/bunka/shiryokan/index.html",
    "latlng": "[35.8247585, 139.67857]",
    "lat": 35.8247585,
    "lng": 139.67857,
    "isClosed": ""
  },
  {
    "id": "saitama-museum-144",
    "type": "museum",
    "name": "藍染ふる里資料館",
    "prefecture": "埼玉県",
    "postCode": "348-0037",
    "address": "埼玉県羽生市小松223 武州中島紺屋",
    "city": "はにゅう",
    "image": "",
    "url": "http://www.h6.dion.ne.jp/~ko-ya/",
    "latlng": "[36.1534777, 139.5266094]",
    "lat": 36.1534777,
    "lng": 139.5266094,
    "isClosed": ""
  },
  {
    "id": "saitama-museum-145",
    "type": "museum",
    "name": "行田市史料館",
    "prefecture": "埼玉県",
    "postCode": "361-0032",
    "address": "埼玉県行田市佐間3－8－9",
    "city": "ぎょうだ",
    "image": "",
    "url": "",
    "latlng": "[36.1276856, 139.4683099]",
    "lat": 36.1276856,
    "lng": 139.4683099,
    "isClosed": ""
  },
  {
    "id": "saitama-museum-146",
    "type": "museum",
    "name": "越谷市科学技術体験センター（ミラクル）",
    "prefecture": "埼玉県",
    "postCode": "343-0851",
    "address": "埼玉県越谷市七左町2-205-2",
    "city": "こしがや",
    "image": "",
    "url": "http://www2.city.koshigaya.saitama.jp/",
    "latlng": "[35.87212299999999, 139.7799054]",
    "lat": 35.87212299999999,
    "lng": 139.7799054,
    "isClosed": ""
  },
  {
    "id": "saitama-museum-147",
    "type": "museum",
    "name": "跡見学園女子大学 新座図書館",
    "prefecture": "埼玉県",
    "postCode": "352-8501",
    "address": "埼玉県新座市 中野1-9-6",
    "city": "にいざ",
    "image": "",
    "url": "http://www.atomi.ac.jp/lib/",
    "latlng": "[35.8172777, 139.542991]",
    "lat": 35.8172777,
    "lng": 139.542991,
    "isClosed": ""
  },
  {
    "id": "saitama-museum-148",
    "type": "museum",
    "name": "農業機械化研究所資料館",
    "prefecture": "埼玉県",
    "postCode": "331-0823",
    "address": "埼玉県さいたま市北区日進町1-40-2",
    "city": "さいたま",
    "image": "",
    "url": "",
    "latlng": "[35.9178702, 139.603247]",
    "lat": 35.9178702,
    "lng": 139.603247,
    "isClosed": ""
  },
  {
    "id": "saitama-museum-149",
    "type": "museum",
    "name": "造幣さいたま博物館",
    "prefecture": "埼玉県",
    "postCode": "330-0835",
    "address": "埼玉県さいたま市大宮区北袋町1-190-22",
    "city": "さいたま",
    "image": "",
    "url": "https://www.mint.go.jp/",
    "latlng": "[35.8937473, 139.6408256]",
    "lat": 35.8937473,
    "lng": 139.6408256,
    "isClosed": ""
  },
  {
    "id": "saitama-museum-150",
    "type": "museum",
    "name": "郷土人形資料室",
    "prefecture": "埼玉県",
    "postCode": "339-0057",
    "address": "埼玉県さいたま市岩槻区本町5-6-45",
    "city": "さいたま",
    "image": "",
    "url": "",
    "latlng": "[35.9530779, 139.6985862]",
    "lat": 35.9530779,
    "lng": 139.6985862,
    "isClosed": ""
  },
  {
    "id": "saitama-museum-151",
    "type": "museum",
    "name": "長島記念館",
    "prefecture": "埼玉県",
    "postCode": "369-0103",
    "address": "埼玉県熊谷市小八林1022",
    "city": "くまがや",
    "image": "",
    "url": "",
    "latlng": "[36.0794885, 139.4368725]",
    "lat": 36.0794885,
    "lng": 139.4368725,
    "isClosed": ""
  },
  {
    "id": "saitama-museum-152",
    "type": "museum",
    "name": "長瀞町郷土資料館",
    "prefecture": "埼玉県",
    "postCode": "369-1305",
    "address": "埼玉県長瀞町長瀞1164",
    "city": "ながとろ",
    "image": "",
    "url": "",
    "latlng": "[36.0926002, 139.1072231]",
    "lat": 36.0926002,
    "lng": 139.1072231,
    "isClosed": ""
  },
  {
    "id": "saitama-museum-153",
    "type": "museum",
    "name": "長瀞綜合博物館　＜臨時休館中＞",
    "prefecture": "埼玉県",
    "postCode": "369-1304",
    "address": "埼玉県長瀞町本野上424",
    "city": "ながとろ",
    "image": "",
    "url": "",
    "latlng": "[36.108344, 139.111401]",
    "lat": 36.108344,
    "lng": 139.111401,
    "isClosed": ""
  },
  {
    "id": "saitama-museum-154",
    "type": "museum",
    "name": "鴻巣市立鴻巣児童センター",
    "prefecture": "埼玉県",
    "postCode": "365-0038",
    "address": "埼玉県鴻巣市本町3－12－24",
    "city": "こうのす",
    "image": "",
    "url": "",
    "latlng": "[36.0599305, 139.5166939]",
    "lat": 36.0599305,
    "lng": 139.5166939,
    "isClosed": ""
  }
]