[
  {
    "id": "saitama-zoo-1",
    "type": "zoo",
    "name": "埼玉県こども動物自然公園",
    "prefecture": "埼玉県",
    "postCode": "355-0065",
    "address": "埼玉県東松山市岩殿554",
    "city": "ひがしまつやま",
    "image": "",
    "url": "http://www.aya.or.jp/~sczoo/",
    "latlng": "[35.9984368, 139.3690036]",
    "lat": 35.9984368,
    "lng": 139.3690036,
    "isClosed": ""
  },
  {
    "id": "saitama-zoo-2",
    "type": "zoo",
    "name": "埼玉県大宮公園小動物園",
    "prefecture": "埼玉県",
    "postCode": "330-0803",
    "address": "埼玉県さいたま市大宮区高鼻町4",
    "city": "さいたま",
    "image": "",
    "url": "",
    "latlng": "[35.9189126, 139.6318202]",
    "lat": 35.9189126,
    "lng": 139.6318202,
    "isClosed": ""
  },
  {
    "id": "saitama-zoo-3",
    "type": "zoo",
    "name": "大崎公園　子供動物園",
    "prefecture": "埼玉県",
    "postCode": "336-0974",
    "address": "埼玉県さいたま市緑区大崎3156-1",
    "city": "さいたま",
    "image": "",
    "url": "",
    "latlng": "[35.8839906, 139.7130377]",
    "lat": 35.8839906,
    "lng": 139.7130377,
    "isClosed": ""
  },
  {
    "id": "saitama-zoo-4",
    "type": "zoo",
    "name": "宝登山動物園",
    "prefecture": "埼玉県",
    "postCode": "369-1305",
    "address": "埼玉県長瀞町長瀞2209",
    "city": "ながとろ",
    "image": "",
    "url": "",
    "latlng": "[36.0945099, 139.092034]",
    "lat": 36.0945099,
    "lng": 139.092034,
    "isClosed": ""
  },
  {
    "id": "saitama-zoo-5",
    "type": "zoo",
    "name": "東武動物公園",
    "prefecture": "埼玉県",
    "postCode": "345-0831",
    "address": "埼玉県宮代町須賀110",
    "city": "みやしろ",
    "image": "",
    "url": "http://www.tobuzoo.com/",
    "latlng": "[36.0199153, 139.7176393]",
    "lat": 36.0199153,
    "lng": 139.7176393,
    "isClosed": ""
  },
  {
    "id": "saitama-zoo-6",
    "type": "zoo",
    "name": "狭山市立智光山公園こども動物園",
    "prefecture": "埼玉県",
    "postCode": "350-1335",
    "address": "埼玉県狭山市柏原864-1",
    "city": "さやま",
    "image": "",
    "url": "http://www.parks.or.jp/chikozan/zoo/",
    "latlng": "[35.8805383, 139.3935013]",
    "lat": 35.8805383,
    "lng": 139.3935013,
    "isClosed": ""
  }
]