[
  {
    "id": "hyogo-art-1",
    "type": "art",
    "name": "芦屋市立美術博物館",
    "prefecture": "兵庫県",
    "postCode": "659-0052",
    "address": "兵庫県芦屋市伊勢町12−25",
    "city": "あしや",
    "image": "",
    "url": "https://ashiya-museum.jp/",
    "latlng": "[34.7220468, 135.3111112]",
    "lat": 34.7220468,
    "lng": 135.3111112,
    "isClosed": ""
  },
  {
    "id": "hyogo-art-2",
    "type": "art",
    "name": "滴翠美術館",
    "prefecture": "兵庫県",
    "postCode": "659-0082",
    "address": "兵庫県芦屋市山芦屋町13−3",
    "city": "あしや",
    "image": "",
    "url": "http://tekisui-museum.biz-web.jp/",
    "latlng": "[34.7392945, 135.2966599]",
    "lat": 34.7392945,
    "lng": 135.2966599,
    "isClosed": ""
  },
  {
    "id": "hyogo-art-3",
    "type": "art",
    "name": "俵美術館",
    "prefecture": "兵庫県",
    "postCode": "659-0084",
    "address": "兵庫県芦屋市月若町6−1",
    "city": "あしや",
    "image": "",
    "url": "https://www.tawara-museum.or.jp/",
    "latlng": "[34.7349379, 135.3005696]",
    "lat": 34.7349379,
    "lng": 135.3005696,
    "isClosed": ""
  },
  {
    "id": "hyogo-art-4",
    "type": "art",
    "name": "香雪美術館",
    "prefecture": "兵庫県",
    "postCode": "658-0048",
    "address": "兵庫県神戸市東灘区御影郡家2丁目12−1",
    "city": "こうべ",
    "image": "",
    "url": "https://www.kosetsu-museum.or.jp/",
    "latlng": "[34.7235955, 135.2559127]",
    "lat": 34.7235955,
    "lng": 135.2559127,
    "isClosed": ""
  },
  {
    "id": "hyogo-art-5",
    "type": "art",
    "name": "神戸市立小磯記念美術館",
    "prefecture": "兵庫県",
    "postCode": "658-0032",
    "address": "兵庫県神戸市東灘区向洋町中5丁目7 六甲アイランド公園内",
    "city": "こうべ",
    "image": "",
    "url": "https://www.city.kobe.lg.jp/kanko/bunka/bunkashisetsu/koisogallery/index.html",
    "latlng": "[34.6925866, 135.2662679]",
    "lat": 34.6925866,
    "lng": 135.2662679,
    "isClosed": ""
  },
  {
    "id": "hyogo-art-6",
    "type": "art",
    "name": "白鶴美術館",
    "prefecture": "兵庫県",
    "postCode": "658-0063",
    "address": "兵庫県神戸市東灘区住吉山手6丁目1−1",
    "city": "こうべ",
    "image": "",
    "url": "https://www.hakutsuru-museum.org/",
    "latlng": "[34.730873, 135.2580467]",
    "lat": 34.730873,
    "lng": 135.2580467,
    "isClosed": ""
  },
  {
    "id": "hyogo-art-7",
    "type": "art",
    "name": "兵庫県立美術館",
    "prefecture": "兵庫県",
    "postCode": "651-0073",
    "address": "兵庫県神戸市中央区脇浜海岸通1丁目1−1",
    "city": "こうべ",
    "image": "",
    "url": "https://www.artm.pref.hyogo.jp/",
    "latlng": "[34.6992164, 135.2181289]",
    "lat": 34.6992164,
    "lng": 135.2181289,
    "isClosed": ""
  },
  {
    "id": "hyogo-art-8",
    "type": "art",
    "name": "鉄斎美術館",
    "prefecture": "兵庫県",
    "postCode": "665-0837",
    "address": "兵庫県宝塚市米谷清シ−1",
    "city": "たからづか",
    "image": "",
    "url": "http://www.kiyoshikojin.or.jp/tessai_museum/",
    "latlng": "[34.8217159, 135.3519993]",
    "lat": 34.8217159,
    "lng": 135.3519993,
    "isClosed": ""
  },
  {
    "id": "hyogo-art-9",
    "type": "art",
    "name": "西宮市大谷記念美術館",
    "prefecture": "兵庫県",
    "postCode": "662-0952",
    "address": "兵庫県西宮市中浜町4−38",
    "city": "にしのみや",
    "image": "",
    "url": "http://otanimuseum.jp/",
    "latlng": "[34.7320858, 135.3245455]",
    "lat": 34.7320858,
    "lng": 135.3245455,
    "isClosed": ""
  },
  {
    "id": "hyogo-art-10",
    "type": "art",
    "name": "姫路市立美術館",
    "prefecture": "兵庫県",
    "postCode": "670-0012",
    "address": "兵庫県姫路市本町68−25",
    "city": "ひめじ",
    "image": "",
    "url": "https://www.city.himeji.lg.jp/art/",
    "latlng": "[34.8396714, 134.6966547]",
    "lat": 34.8396714,
    "lng": 134.6966547,
    "isClosed": ""
  },
  {
    "id": "hyogo-art-11",
    "type": "art",
    "name": "南あわじ市滝川記念美術館　玉青館",
    "prefecture": "兵庫県",
    "postCode": "656-0314",
    "address": "兵庫県南あわじ市松帆西路1137−1",
    "city": "みなみあわじ",
    "image": "",
    "url": "https://www.city.minamiawaji.hyogo.jp/soshiki/gyokuseikan/main.html",
    "latlng": "[34.3162646, 134.7341498]",
    "lat": 34.3162646,
    "lng": 134.7341498,
    "isClosed": ""
  },
  {
    "id": "hyogo-art-12",
    "type": "art",
    "name": "兵庫陶芸美術館",
    "prefecture": "兵庫県",
    "postCode": "669-2135",
    "address": "兵庫県丹波篠山市今田町上立杭4",
    "city": "たんばささやま",
    "image": "",
    "url": "https://www.mcart.jp/",
    "latlng": "[34.9831338, 135.1309253]",
    "lat": 34.9831338,
    "lng": 135.1309253,
    "isClosed": ""
  }
]