[
  {
    "id": "hyogo-museum-1",
    "type": "museum",
    "name": "尼崎市立歴史博物館",
    "prefecture": "兵庫県",
    "postCode": "660-0825",
    "address": "兵庫県尼崎市南城内10−2 尼崎市立文化財収蔵庫",
    "city": "あまがさき",
    "image": "",
    "url": "http://www.archives.city.amagasaki.hyogo.jp/museum/",
    "latlng": "[34.7148243, 135.4209283]",
    "lat": 34.7148243,
    "lng": 135.4209283,
    "isClosed": ""
  },
  {
    "id": "hyogo-museum-2",
    "type": "museum",
    "name": "切手文化博物館",
    "prefecture": "兵庫県",
    "postCode": "651-1401",
    "address": "兵庫県神戸市北区有馬町663番3",
    "city": "こうべ",
    "image": "",
    "url": "https://www.kitte-museum-arima.jp/",
    "latlng": "[34.7987855, 135.2509536]",
    "lat": 34.7987855,
    "lng": 135.2509536,
    "isClosed": ""
  },
  {
    "id": "hyogo-museum-3",
    "type": "museum",
    "name": "神戸市立博物館",
    "prefecture": "兵庫県",
    "postCode": "650-0034",
    "address": "兵庫県神戸市中央区京町24",
    "city": "こうべ",
    "image": "",
    "url": "https://www.kobecitymuseum.jp/",
    "latlng": "[34.6872792, 135.192961]",
    "lat": 34.6872792,
    "lng": 135.192961,
    "isClosed": ""
  },
  {
    "id": "hyogo-museum-4",
    "type": "museum",
    "name": "竹中大工道具館",
    "prefecture": "兵庫県",
    "postCode": "651-0056",
    "address": "兵庫県神戸市中央区熊内町7丁目5−1",
    "city": "こうべ",
    "image": "",
    "url": "https://www.dougukan.jp/",
    "latlng": "[34.7068213, 135.1975347]",
    "lat": 34.7068213,
    "lng": 135.1975347,
    "isClosed": ""
  },
  {
    "id": "hyogo-museum-5",
    "type": "museum",
    "name": "たつの市立龍野歴史文化資料館",
    "prefecture": "兵庫県",
    "postCode": "679-4179",
    "address": "兵庫県たつの市龍野町上霞城128−3",
    "city": "たつの",
    "image": "",
    "url": "https://www.city.tatsuno.lg.jp/rekibun/top.html",
    "latlng": "[34.8685072, 134.5462519]",
    "lat": 34.8685072,
    "lng": 134.5462519,
    "isClosed": ""
  },
  {
    "id": "hyogo-museum-6",
    "type": "museum",
    "name": "玄武洞ミュージアム",
    "prefecture": "兵庫県",
    "postCode": "668-0801",
    "address": "兵庫県豊岡市赤石1362",
    "city": "とよおか",
    "image": "",
    "url": "https://genbudo-museum.jp/",
    "latlng": "[35.5893748, 134.8033556]",
    "lat": 35.5893748,
    "lng": 134.8033556,
    "isClosed": ""
  },
  {
    "id": "hyogo-museum-7",
    "type": "museum",
    "name": "但馬国府・国分寺館",
    "prefecture": "兵庫県",
    "postCode": "669-5305",
    "address": "兵庫県豊岡市日高町祢布808",
    "city": "とよおか",
    "image": "",
    "url": "https://www3.city.toyooka.lg.jp/kokubunjikan/",
    "latlng": "[35.4696155, 134.7675574]",
    "lat": 35.4696155,
    "lng": 134.7675574,
    "isClosed": ""
  },
  {
    "id": "hyogo-museum-8",
    "type": "museum",
    "name": "辰馬考古資料館",
    "prefecture": "兵庫県",
    "postCode": "662-0962",
    "address": "兵庫県西宮市松下町2−28",
    "city": "にしのみや",
    "image": "",
    "url": "https://hakutaka.jp/tatsuuma.html",
    "latlng": "[34.735196, 135.3286039]",
    "lat": 34.735196,
    "lng": 135.3286039,
    "isClosed": ""
  },
  {
    "id": "hyogo-museum-9",
    "type": "museum",
    "name": "西宮市立郷土資料館",
    "prefecture": "兵庫県",
    "postCode": "662-0944",
    "address": "兵庫県西宮市川添町15−26",
    "city": "にしのみや",
    "image": "",
    "url": "https://www.nishi.or.jp/bunka/rekishitobunkazai/ritsukyodoshiryokan/index.html",
    "latlng": "[34.7308859, 135.3298749]",
    "lat": 34.7308859,
    "lng": 135.3298749,
    "isClosed": ""
  },
  {
    "id": "hyogo-museum-10",
    "type": "museum",
    "name": "白鹿記念酒造博物館（酒ミュージアム）",
    "prefecture": "兵庫県",
    "postCode": "662-0926",
    "address": "兵庫県西宮市鞍掛町8−21",
    "city": "にしのみや",
    "image": "",
    "url": "https://sake-museum.jp/",
    "latlng": "[34.7278572, 135.3379863]",
    "lat": 34.7278572,
    "lng": 135.3379863,
    "isClosed": ""
  },
  {
    "id": "hyogo-museum-11",
    "type": "museum",
    "name": "堀江オルゴール博物館",
    "prefecture": "兵庫県",
    "postCode": "662-0088",
    "address": "兵庫県西宮市苦楽園四番町7−1",
    "city": "にしのみや",
    "image": "",
    "url": "http://www.orgel-horie.or.jp/main/",
    "latlng": "[34.7567824, 135.3094871]",
    "lat": 34.7567824,
    "lng": 135.3094871,
    "isClosed": ""
  },
  {
    "id": "hyogo-museum-12",
    "type": "museum",
    "name": "姫路文学館",
    "prefecture": "兵庫県",
    "postCode": "670-0021",
    "address": "兵庫県姫路市山野井町84",
    "city": "ひめじ",
    "image": "",
    "url": "http://www.himejibungakukan.jp/",
    "latlng": "[34.8415905, 134.6883743]",
    "lat": 34.8415905,
    "lng": 134.6883743,
    "isClosed": ""
  },
  {
    "id": "hyogo-museum-13",
    "type": "museum",
    "name": "兵庫県立歴史博物館",
    "prefecture": "兵庫県",
    "postCode": "670-0012",
    "address": "兵庫県姫路市本町68",
    "city": "ひめじ",
    "image": "",
    "url": "https://rekihaku.pref.hyogo.lg.jp/",
    "latlng": "[34.8376715, 134.6956965]",
    "lat": 34.8376715,
    "lng": 134.6956965,
    "isClosed": ""
  },
  {
    "id": "hyogo-museum-14",
    "type": "museum",
    "name": "兵庫県立考古博物館（分館の古代鏡展示館を含む）",
    "prefecture": "兵庫県",
    "postCode": "679-0106",
    "address": "兵庫県加西市豊倉町1282−1",
    "city": "かさい",
    "image": "",
    "url": "https://www.hyogo-koukohaku.jp/",
    "latlng": "[34.9053645, 134.8597217]",
    "lat": 34.9053645,
    "lng": 134.8597217,
    "isClosed": ""
  },
  {
    "id": "hyogo-museum-15",
    "type": "museum",
    "name": "兵庫県立人と自然の博物館",
    "prefecture": "兵庫県",
    "postCode": "669-1546",
    "address": "兵庫県三田市弥生が丘6丁目4−4",
    "city": "さんだ",
    "image": "",
    "url": "https://www.hitohaku.jp/",
    "latlng": "[34.88411, 135.195979]",
    "lat": 34.88411,
    "lng": 135.195979,
    "isClosed": ""
  },
  {
    "id": "hyogo-museum-16",
    "type": "museum",
    "name": "明石市立天文科学館",
    "prefecture": "兵庫県",
    "postCode": "673-0877",
    "address": "兵庫県明石市人丸町2−6",
    "city": "あかし",
    "image": "",
    "url": "https://www.am12.jp/",
    "latlng": "[34.6493578, 135.0015444]",
    "lat": 34.6493578,
    "lng": 135.0015444,
    "isClosed": ""
  },
  {
    "id": "hyogo-museum-17",
    "type": "museum",
    "name": "伊丹市昆虫館",
    "prefecture": "兵庫県",
    "postCode": "664-0015",
    "address": "兵庫県伊丹市昆陽池3丁目1",
    "city": "いたみ",
    "image": "",
    "url": "https://www.itakon.com/",
    "latlng": "[34.7913341, 135.3948515]",
    "lat": 34.7913341,
    "lng": 135.3948515,
    "isClosed": ""
  },
  {
    "id": "hyogo-museum-18",
    "type": "museum",
    "name": "太子町立歴史資料館",
    "prefecture": "兵庫県",
    "postCode": "671-1561",
    "address": "兵庫県揖保郡太子町鵤 1310番地1",
    "city": "たいし",
    "image": "",
    "url": "http://www.town.hyogo-taishi.lg.jp/soshikikarasagasu/rekisisiryo/index.html",
    "latlng": "[34.8343649, 134.5814451]",
    "lat": 34.8343649,
    "lng": 134.5814451,
    "isClosed": ""
  },
  {
    "id": "hyogo-museum-19",
    "type": "museum",
    "name": "小野市立好古館",
    "prefecture": "兵庫県",
    "postCode": "675-1375",
    "address": "兵庫県小野市西本町477",
    "city": "おの",
    "image": "",
    "url": "https://www.city.ono.hyogo.jp/soshikikarasagasu/kokokan/index.html",
    "latlng": "[34.84330420000001, 134.9320519]",
    "lat": 34.84330420000001,
    "lng": 134.9320519,
    "isClosed": ""
  },
  {
    "id": "hyogo-museum-20",
    "type": "museum",
    "name": "大阪青山歴史文学博物館",
    "prefecture": "兵庫県",
    "postCode": "666-0113",
    "address": "兵庫県川西市長尾町10−1",
    "city": "かわにし",
    "image": "",
    "url": "https://www.osaka-aoyama.ac.jp/facility/museum/",
    "latlng": "[34.8810375, 135.4202794]",
    "lat": 34.8810375,
    "lng": 135.4202794,
    "isClosed": ""
  },
  {
    "id": "hyogo-museum-21",
    "type": "museum",
    "name": "ROKKO森の音ミュージアム",
    "prefecture": "兵庫県",
    "postCode": "657-0101",
    "address": "兵庫県神戸市灘区六甲山町北六甲4512−145 六甲オルゴールミュージアム",
    "city": "こうべ",
    "image": "",
    "url": "https://www.rokkosan.com/museum/",
    "latlng": "[34.7616521, 135.2383437]",
    "lat": 34.7616521,
    "lng": 135.2383437,
    "isClosed": ""
  },
  {
    "id": "hyogo-museum-22",
    "type": "museum",
    "name": "神戸市立森林植物園",
    "prefecture": "兵庫県",
    "postCode": "651-1102",
    "address": "兵庫県神戸市北区山田町上谷上 字長尾1-2 神戸市立森林植物園",
    "city": "こうべ",
    "image": "",
    "url": "https://www.kobe-park.or.jp/shinrin/",
    "latlng": "[34.740879, 135.1780374]",
    "lat": 34.740879,
    "lng": 135.1780374,
    "isClosed": ""
  },
  {
    "id": "hyogo-museum-23",
    "type": "museum",
    "name": "六甲高山植物園",
    "prefecture": "兵庫県",
    "postCode": "657-0101",
    "address": "兵庫県神戸市灘区六甲山町北六甲4512−150",
    "city": "こうべ",
    "image": "",
    "url": "https://www.rokkosan.com/hana/",
    "latlng": "[34.7618342, 135.2401191]",
    "lat": 34.7618342,
    "lng": 135.2401191,
    "isClosed": ""
  },
  {
    "id": "hyogo-museum-24",
    "type": "museum",
    "name": "城崎マリンワールド",
    "prefecture": "兵庫県",
    "postCode": "669-6192",
    "address": "兵庫県豊岡市瀬戸1090番地",
    "city": "とよおか",
    "image": "",
    "url": "https://marineworld.hiyoriyama.co.jp/",
    "latlng": "[35.65597, 134.8235355]",
    "lat": 35.65597,
    "lng": 134.8235355,
    "isClosed": ""
  },
  {
    "id": "hyogo-museum-25",
    "type": "museum",
    "name": "関西学院大学博物館",
    "prefecture": "兵庫県",
    "postCode": "662-0891",
    "address": "兵庫県西宮市上ケ原一番町1−155",
    "city": "にしのみや",
    "image": "",
    "url": "https://www.kwansei.ac.jp/museum",
    "latlng": "[34.7686161, 135.3465092]",
    "lat": 34.7686161,
    "lng": 135.3465092,
    "isClosed": ""
  },
  {
    "id": "hyogo-museum-26",
    "type": "museum",
    "name": "西宮市貝類館",
    "prefecture": "兵庫県",
    "postCode": "662-0934",
    "address": "兵庫県西宮市西宮浜4丁目13−4",
    "city": "にしのみや",
    "image": "",
    "url": "https://www.nishi.or.jp/bunka/bunka/kairuikan/index.html",
    "latlng": "[34.7120194, 135.3279345]",
    "lat": 34.7120194,
    "lng": 135.3279345,
    "isClosed": ""
  },
  {
    "id": "hyogo-museum-27",
    "type": "museum",
    "name": "日本玩具博物館",
    "prefecture": "兵庫県",
    "postCode": "679-2143",
    "address": "兵庫県姫路市香寺町中仁野671−3",
    "city": "ひめじ",
    "image": "",
    "url": "https://japan-toy-museum.org/",
    "latlng": "[34.907402, 134.7454513]",
    "lat": 34.907402,
    "lng": 134.7454513,
    "isClosed": ""
  },
  {
    "id": "hyogo-museum-28",
    "type": "museum",
    "name": "姫路科学館",
    "prefecture": "兵庫県",
    "postCode": "671-2222",
    "address": "兵庫県姫路市青山1470−15",
    "city": "ひめじ",
    "image": "",
    "url": "https://www.city.himeji.lg.jp/atom/",
    "latlng": "[34.8517529, 134.6268596]",
    "lat": 34.8517529,
    "lng": 134.6268596,
    "isClosed": ""
  },
  {
    "id": "hyogo-museum-29",
    "type": "museum",
    "name": "但馬牛博物館",
    "prefecture": "兵庫県",
    "postCode": "669-6813",
    "address": "兵庫県美方郡新温泉町丹土1033",
    "city": "しんおんせん",
    "image": "",
    "url": "https://www.tajimabokujyo.jp/?page_id=3",
    "latlng": "[35.5186341, 134.4866798]",
    "lat": 35.5186341,
    "lng": 134.4866798,
    "isClosed": ""
  }
]