[
  {
    "id": "niigata-art-1",
    "type": "art",
    "name": "木村茶道美術館",
    "prefecture": "新潟県",
    "postCode": "945-0841",
    "address": "新潟県柏崎市緑町3−1",
    "city": "かしわざき",
    "image": "",
    "url": "http://sadoukan.jp/",
    "latlng": "[37.3597612, 138.544904]",
    "lat": 37.3597612,
    "lng": 138.544904,
    "isClosed": ""
  },
  {
    "id": "niigata-art-2",
    "type": "art",
    "name": "小林古径記念美術館",
    "prefecture": "新潟県",
    "postCode": "943-0835",
    "address": "新潟県上越市本城町7−1",
    "city": "じょうえつ",
    "image": "",
    "url": "https://www.city.joetsu.niigata.jp/site/kokei/",
    "latlng": "[37.1104873, 138.2547913]",
    "lat": 37.1104873,
    "lng": 138.2547913,
    "isClosed": ""
  },
  {
    "id": "niigata-art-3",
    "type": "art",
    "name": "大棟山美術博物館",
    "prefecture": "新潟県",
    "postCode": "942-1406",
    "address": "新潟県十日町市松之山1222",
    "city": "とおかまち",
    "image": "",
    "url": "https://daitozan.jimdofree.com/",
    "latlng": "[37.08717, 138.6051759]",
    "lat": 37.08717,
    "lng": 138.6051759,
    "isClosed": ""
  },
  {
    "id": "niigata-art-4",
    "type": "art",
    "name": "駒形十吉記念美術館",
    "prefecture": "新潟県",
    "postCode": "940-0033",
    "address": "新潟県長岡市今朝白2丁目1−4",
    "city": "ながおか",
    "image": "",
    "url": "https://www.komagata-museum.com/",
    "latlng": "[37.4493005, 138.8611448]",
    "lat": 37.4493005,
    "lng": 138.8611448,
    "isClosed": ""
  },
  {
    "id": "niigata-art-5",
    "type": "art",
    "name": "長岡市栃尾美術館",
    "prefecture": "新潟県",
    "postCode": "940-0237",
    "address": "新潟県長岡市上の原町1−13",
    "city": "ながおか",
    "image": "",
    "url": "https://www.lib.city.nagaoka.niigata.jp/?page_id=135",
    "latlng": "[37.471571, 138.9952043]",
    "lat": 37.471571,
    "lng": 138.9952043,
    "isClosed": ""
  },
  {
    "id": "niigata-art-6",
    "type": "art",
    "name": "新潟県立近代美術館",
    "prefecture": "新潟県",
    "postCode": "940-2108",
    "address": "新潟県長岡市千秋3丁目278−14 県立近代美術館",
    "city": "ながおか",
    "image": "",
    "url": "https://kinbi.pref.niigata.lg.jp/",
    "latlng": "[37.4643628, 138.8317029]",
    "lat": 37.4643628,
    "lng": 138.8317029,
    "isClosed": ""
  },
  {
    "id": "niigata-art-7",
    "type": "art",
    "name": "知足美術館",
    "prefecture": "新潟県",
    "postCode": "950-0965",
    "address": "新潟県新潟市中央区新光町10−2",
    "city": "にいがた",
    "image": "",
    "url": "https://chisoku.jp/",
    "latlng": "[37.8989407, 139.0201269]",
    "lat": 37.8989407,
    "lng": 139.0201269,
    "isClosed": ""
  },
  {
    "id": "niigata-art-8",
    "type": "art",
    "name": "敦井美術館",
    "prefecture": "新潟県",
    "postCode": "950-0087",
    "address": "新潟県新潟市中央区東大通1丁目2−23 北陸ビル 1F",
    "city": "にいがた",
    "image": "",
    "url": "https://www.tsurui.co.jp/museum/",
    "latlng": "[37.9144949, 139.05967]",
    "lat": 37.9144949,
    "lng": 139.05967,
    "isClosed": ""
  },
  {
    "id": "niigata-art-9",
    "type": "art",
    "name": "新潟県立万代島美術館",
    "prefecture": "新潟県",
    "postCode": "950-0078",
    "address": "新潟県新潟市中央区万代島5−1 万代島ビル 5階 朱鷺メッセ",
    "city": "にいがた",
    "image": "",
    "url": "https://banbi.pref.niigata.lg.jp/",
    "latlng": "[37.9252282, 139.0595498]",
    "lat": 37.9252282,
    "lng": 139.0595498,
    "isClosed": ""
  },
  {
    "id": "niigata-art-10",
    "type": "art",
    "name": "雪梁舎美術館",
    "prefecture": "新潟県",
    "postCode": "950-1101",
    "address": "新潟県新潟市西区山田451",
    "city": "にいがた",
    "image": "",
    "url": "https://www.komeri.bit.or.jp/setsuryosha/",
    "latlng": "[37.8635759, 139.0176967]",
    "lat": 37.8635759,
    "lng": 139.0176967,
    "isClosed": ""
  },
  {
    "id": "niigata-art-11",
    "type": "art",
    "name": "池田記念美術館",
    "prefecture": "新潟県",
    "postCode": "949-7302",
    "address": "新潟県南魚沼市浦佐5493−3",
    "city": "みなみうおぬま",
    "image": "",
    "url": "http://www.ikedaart.jp/",
    "latlng": "[37.1643135, 138.9350211]",
    "lat": 37.1643135,
    "lng": 138.9350211,
    "isClosed": ""
  },
  {
    "id": "niigata-art-12",
    "type": "art",
    "name": "新潟市新津美術館",
    "prefecture": "新潟県",
    "postCode": "956-0846",
    "address": "新潟県新潟市秋葉区蒲ケ沢109−1",
    "city": "にいがた",
    "image": "",
    "url": "https://www.city.niigata.lg.jp/nam/",
    "latlng": "[37.7629567, 139.1122611]",
    "lat": 37.7629567,
    "lng": 139.1122611,
    "isClosed": ""
  },
  {
    "id": "niigata-art-13",
    "type": "art",
    "name": "新潟市美術館",
    "prefecture": "新潟県",
    "postCode": "951-8104",
    "address": "新潟県新潟市中央区西大畑町5191−9",
    "city": "にいがた",
    "image": "",
    "url": "http://www.ncam.jp/sp/",
    "latlng": "[37.928149, 139.0420016]",
    "lat": 37.928149,
    "lng": 139.0420016,
    "isClosed": ""
  }
]