[
  {
    "id": "niigata-museum-1",
    "type": "museum",
    "name": "柏崎市立博物館",
    "prefecture": "新潟県",
    "postCode": "945-0841",
    "address": "新潟県柏崎市緑町8−35",
    "city": "かしわざき",
    "image": "",
    "url": "https://www.city.kashiwazaki.lg.jp/k_museum/index.html",
    "latlng": "[37.3589973, 138.5428549]",
    "lat": 37.3589973,
    "lng": 138.5428549,
    "isClosed": ""
  },
  {
    "id": "niigata-museum-2",
    "type": "museum",
    "name": "相川郷土博物館",
    "prefecture": "新潟県",
    "postCode": "952-1505",
    "address": "新潟県佐渡市相川坂下町20",
    "city": "さど",
    "image": "",
    "url": "https://www.city.sado.niigata.jp/site/museum/459.html",
    "latlng": "[38.03740370000001, 138.2401805]",
    "lat": 38.03740370000001,
    "lng": 138.2401805,
    "isClosed": ""
  },
  {
    "id": "niigata-museum-3",
    "type": "museum",
    "name": "佐渡国小木民俗博物館",
    "prefecture": "新潟県",
    "postCode": "952-0612",
    "address": "新潟県佐渡市宿根木270−2",
    "city": "さど",
    "image": "",
    "url": "https://www.city.sado.niigata.jp/site/museum/458.html",
    "latlng": "[37.8076906, 138.2449715]",
    "lat": 37.8076906,
    "lng": 138.2449715,
    "isClosed": ""
  },
  {
    "id": "niigata-museum-4",
    "type": "museum",
    "name": "佐渡植物園",
    "prefecture": "新潟県",
    "postCode": "952-0503",
    "address": "新潟県佐渡市羽茂飯岡550-6",
    "city": "さど",
    "image": "",
    "url": "https://www.city.sado.niigata.jp/site/museum/461.html",
    "latlng": "[37.8600074, 138.3304088]",
    "lat": 37.8600074,
    "lng": 138.3304088,
    "isClosed": ""
  },
  {
    "id": "niigata-museum-5",
    "type": "museum",
    "name": "佐渡博物館",
    "prefecture": "新潟県",
    "postCode": "952-1311",
    "address": "新潟県佐渡市八幡2041",
    "city": "さど",
    "image": "",
    "url": "https://www.city.sado.niigata.jp/site/museum/457.html",
    "latlng": "[37.9859282, 138.3450758]",
    "lat": 37.9859282,
    "lng": 138.3450758,
    "isClosed": ""
  },
  {
    "id": "niigata-museum-6",
    "type": "museum",
    "name": "両津郷土博物館",
    "prefecture": "新潟県",
    "postCode": "952-0021",
    "address": "新潟県佐渡市秋津1596",
    "city": "さど",
    "image": "",
    "url": "https://www.city.sado.niigata.jp/site/museum/460.html",
    "latlng": "[38.0611145, 138.424265]",
    "lat": 38.0611145,
    "lng": 138.424265,
    "isClosed": ""
  },
  {
    "id": "niigata-museum-7",
    "type": "museum",
    "name": "上越市立歴史博物館",
    "prefecture": "新潟県",
    "postCode": "943-0835",
    "address": "新潟県上越市本城町7−7",
    "city": "じょうえつ",
    "image": "",
    "url": "https://www.city.joetsu.niigata.jp/site/museum/",
    "latlng": "[37.1103815, 138.254509]",
    "lat": 37.1103815,
    "lng": 138.254509,
    "isClosed": ""
  },
  {
    "id": "niigata-museum-8",
    "type": "museum",
    "name": "十日町市博物館",
    "prefecture": "新潟県",
    "postCode": "948-0072",
    "address": "新潟県十日町市西本町1丁目448番地9",
    "city": "とおかまち",
    "image": "",
    "url": "https://www.tokamachi-museum.jp/",
    "latlng": "[37.1408878, 138.7569186]",
    "lat": 37.1408878,
    "lng": 138.7569186,
    "isClosed": ""
  },
  {
    "id": "niigata-museum-9",
    "type": "museum",
    "name": "長岡市立科学博物館",
    "prefecture": "新潟県",
    "postCode": "940-0084",
    "address": "新潟県長岡市幸町2丁目1−1 1階",
    "city": "ながおか",
    "image": "",
    "url": "https://www.museum.city.nagaoka.niigata.jp/",
    "latlng": "[37.4368036, 138.8388703]",
    "lat": 37.4368036,
    "lng": 138.8388703,
    "isClosed": ""
  },
  {
    "id": "niigata-museum-10",
    "type": "museum",
    "name": "新潟市北区郷土博物館",
    "prefecture": "新潟県",
    "postCode": "950-3322",
    "address": "新潟県新潟市北区嘉山3452",
    "city": "にいがた",
    "image": "",
    "url": "https://www.city.niigata.lg.jp/kita/shisetsu/yoka/bunka/kyodo/museum.html",
    "latlng": "[37.9161121, 139.2256569]",
    "lat": 37.9161121,
    "lng": 139.2256569,
    "isClosed": ""
  },
  {
    "id": "niigata-museum-11",
    "type": "museum",
    "name": "新津記念館",
    "prefecture": "新潟県",
    "postCode": "951-8122",
    "address": "新潟県新潟市中央区旭町通1番町754",
    "city": "にいがた",
    "image": "",
    "url": "https://www.marushin-group.co.jp/kinenkan/",
    "latlng": "[37.9191799, 139.0355452]",
    "lat": 37.9191799,
    "lng": 139.0355452,
    "isClosed": ""
  },
  {
    "id": "niigata-museum-12",
    "type": "museum",
    "name": "北方文化博物館",
    "prefecture": "新潟県",
    "postCode": "950-0205",
    "address": "新潟県新潟市江南区沢海2丁目15-25",
    "city": "にいがた",
    "image": "",
    "url": "https://hoppou-bunka.com/",
    "latlng": "[37.8304782, 139.1523162]",
    "lat": 37.8304782,
    "lng": 139.1523162,
    "isClosed": ""
  },
  {
    "id": "niigata-museum-13",
    "type": "museum",
    "name": "出雲崎町　良寛記念館",
    "prefecture": "新潟県",
    "postCode": "949-4342",
    "address": "新潟県三島郡出雲崎町米田1",
    "city": "いずもざき",
    "image": "",
    "url": "http://www.ryokan-kinenkan.jp/",
    "latlng": "[37.5424357, 138.6884188]",
    "lat": 37.5424357,
    "lng": 138.6884188,
    "isClosed": ""
  },
  {
    "id": "niigata-museum-14",
    "type": "museum",
    "name": "魚沼市宮柊二記念館",
    "prefecture": "新潟県",
    "postCode": "949-7413",
    "address": "新潟県魚沼市堀之内117−6",
    "city": "うおぬま",
    "image": "",
    "url": "https://www.city.uonuma.lg.jp/site/miyashuji/",
    "latlng": "[37.2445913, 138.9238336]",
    "lat": 37.2445913,
    "lng": 138.9238336,
    "isClosed": ""
  },
  {
    "id": "niigata-museum-15",
    "type": "museum",
    "name": "燕市産業史料館",
    "prefecture": "新潟県",
    "postCode": "959-1263",
    "address": "新潟県燕市大曲4330−1",
    "city": "つばめ",
    "image": "",
    "url": "http://tsubame-shiryoukan.jp/index.html",
    "latlng": "[37.6526582, 138.9193201]",
    "lat": 37.6526582,
    "lng": 138.9193201,
    "isClosed": ""
  },
  {
    "id": "niigata-museum-16",
    "type": "museum",
    "name": "新潟県立歴史博物館",
    "prefecture": "新潟県",
    "postCode": "940-2035",
    "address": "新潟県長岡市関原町1丁目2247−2 字権現堂2247ｰ2",
    "city": "ながおか",
    "image": "",
    "url": "http://nbz.or.jp/",
    "latlng": "[37.4391238, 138.7673078]",
    "lat": 37.4391238,
    "lng": 138.7673078,
    "isClosed": ""
  },
  {
    "id": "niigata-museum-17",
    "type": "museum",
    "name": "新潟市會津八一記念館",
    "prefecture": "新潟県",
    "postCode": "950-0088",
    "address": "新潟県新潟市中央区万代3丁目1−1",
    "city": "にいがた",
    "image": "",
    "url": "https://aizuyaichi.or.jp/",
    "latlng": "[37.9182809, 139.0561931]",
    "lat": 37.9182809,
    "lng": 139.0561931,
    "isClosed": ""
  },
  {
    "id": "niigata-museum-18",
    "type": "museum",
    "name": "新潟市歴史博物館",
    "prefecture": "新潟県",
    "postCode": "951-8013",
    "address": "新潟県新潟市中央区柳島町2丁目10",
    "city": "にいがた",
    "image": "",
    "url": "https://www.nchm.jp/",
    "latlng": "[37.929892, 139.0582924]",
    "lat": 37.929892,
    "lng": 139.0582924,
    "isClosed": ""
  },
  {
    "id": "niigata-museum-19",
    "type": "museum",
    "name": "日本歯科大学新潟生命歯学部「医の博物館」",
    "prefecture": "新潟県",
    "postCode": "951-8151",
    "address": "新潟県新潟市中央区浜浦町1丁目8 8号館",
    "city": "にいがた",
    "image": "",
    "url": "https://www.ngt.ndu.ac.jp/museum/",
    "latlng": "[37.9118002, 139.0112256]",
    "lat": 37.9118002,
    "lng": 139.0112256,
    "isClosed": ""
  },
  {
    "id": "niigata-museum-20",
    "type": "museum",
    "name": "新潟大学旭町学術資料展示館",
    "prefecture": "新潟県",
    "postCode": "951-8122",
    "address": "新潟県新潟市中央区旭町通2番町746",
    "city": "にいがた",
    "image": "",
    "url": "https://www.lib.niigata-u.ac.jp/tenjikan/",
    "latlng": "[37.9227165, 139.036344]",
    "lat": 37.9227165,
    "lng": 139.036344,
    "isClosed": ""
  },
  {
    "id": "niigata-museum-21",
    "type": "museum",
    "name": "鍛冶ミュージアム",
    "prefecture": "新潟県",
    "postCode": "955-0072",
    "address": "新潟県三条市元町11-6",
    "city": "さんじょう",
    "image": "",
    "url": "https://sanjo-machiyama.jp/blacksmithmuseum/",
    "latlng": "[37.6325424, 138.9539731]",
    "lat": 37.6325424,
    "lng": 138.9539731,
    "isClosed": ""
  }
]