[
  {
    "id": "tokushima-museum-1",
    "type": "museum",
    "name": "松茂町歴史民俗資料館・人形浄瑠璃芝居資料館",
    "prefecture": "徳島県",
    "postCode": "771-0220",
    "address": "徳島県板野郡松茂町広島四番越11−1",
    "city": "まつしげ",
    "image": "",
    "url": "http://joruri.jp/",
    "latlng": "[34.1369411, 134.5826345]",
    "lat": 34.1369411,
    "lng": 134.5826345,
    "isClosed": ""
  },
  {
    "id": "tokushima-museum-2",
    "type": "museum",
    "name": "三木文庫",
    "prefecture": "徳島県",
    "postCode": "771-0212",
    "address": "徳島県板野郡松茂町中喜来中須20-2",
    "city": "まつしげ",
    "image": "",
    "url": "https://www.mikibunko.jp/",
    "latlng": "[34.1449886, 134.5749856]",
    "lat": 34.1449886,
    "lng": 134.5749856,
    "isClosed": ""
  },
  {
    "id": "tokushima-museum-3",
    "type": "museum",
    "name": "徳島県立鳥居龍蔵記念博物館",
    "prefecture": "徳島県",
    "postCode": "770-8070",
    "address": "徳島県徳島市八万町寺山1",
    "city": "とくしま",
    "image": "",
    "url": "https://torii-museum.bunmori.tokushima.jp/default.htm",
    "latlng": "[34.039851, 134.5264401]",
    "lat": 34.039851,
    "lng": 134.5264401,
    "isClosed": ""
  },
  {
    "id": "tokushima-museum-4",
    "type": "museum",
    "name": "徳島県立博物館",
    "prefecture": "徳島県",
    "postCode": "770-8070",
    "address": "徳島県徳島市八万町向寺山",
    "city": "とくしま",
    "image": "",
    "url": "https://museum.bunmori.tokushima.jp/",
    "latlng": "[34.0396216, 134.5254689]",
    "lat": 34.0396216,
    "lng": 134.5254689,
    "isClosed": ""
  },
  {
    "id": "tokushima-museum-5",
    "type": "museum",
    "name": "徳島市立考古資料館",
    "prefecture": "徳島県",
    "postCode": "779-3127",
    "address": "徳島県徳島市国府町西矢野 字奥谷10番地の1",
    "city": "とくしま",
    "image": "",
    "url": "http://www.tokushima-kouko.jp/",
    "latlng": "[34.0542152, 134.4689067]",
    "lat": 34.0542152,
    "lng": 134.4689067,
    "isClosed": ""
  },
  {
    "id": "tokushima-museum-6",
    "type": "museum",
    "name": "徳島市立徳島城博物館",
    "prefecture": "徳島県",
    "postCode": "770-0851",
    "address": "徳島県徳島市徳島町1−8",
    "city": "とくしま",
    "image": "",
    "url": "https://www.city.tokushima.tokushima.jp/johaku/",
    "latlng": "[34.0733672, 134.555755]",
    "lat": 34.0733672,
    "lng": 134.555755,
    "isClosed": ""
  },
  {
    "id": "tokushima-museum-7",
    "type": "museum",
    "name": "美波町日和佐うみがめ博物館",
    "prefecture": "徳島県",
    "postCode": "779-2304",
    "address": "徳島県海部郡美波町日和佐浦370−4",
    "city": "みなみ",
    "image": "",
    "url": "https://caretta.town.minami.lg.jp/",
    "latlng": "[33.7354165, 134.5412357]",
    "lat": 33.7354165,
    "lng": 134.5412357,
    "isClosed": ""
  },
  {
    "id": "tokushima-museum-8",
    "type": "museum",
    "name": "阿波和紙伝統産業会館",
    "prefecture": "徳島県",
    "postCode": "779-3401",
    "address": "徳島県吉野川市山川町川東141 阿波和紙伝統産業会館",
    "city": "よしのがわ",
    "image": "",
    "url": "http://www.awagami.or.jp/",
    "latlng": "[34.0459312, 134.231048]",
    "lat": 34.0459312,
    "lng": 134.231048,
    "isClosed": ""
  }
]