[
  {
    "id": "kyoto-art-1",
    "type": "art",
    "name": "アサヒグループ大山崎山荘美術館",
    "prefecture": "京都府",
    "postCode": "618-0071",
    "address": "京都府乙訓郡大山崎町大山崎銭原5−3",
    "city": "おとくに",
    "image": "",
    "url": "https://www.asahigroup-oyamazaki.com/",
    "latlng": "[34.8955764, 135.6796319]",
    "lat": 34.8955764,
    "lng": 135.6796319,
    "isClosed": ""
  },
  {
    "id": "kyoto-art-2",
    "type": "art",
    "name": "大西清右衛門美術館",
    "prefecture": "京都府",
    "postCode": "604-8241",
    "address": "京都府京都市中京区釜座町18",
    "city": "きょうと",
    "image": "",
    "url": "http://www.seiwemon-museum.com/",
    "latlng": "[35.0083161, 135.7557453]",
    "lat": 35.0083161,
    "lng": 135.7557453,
    "isClosed": ""
  },
  {
    "id": "kyoto-art-3",
    "type": "art",
    "name": "角屋もてなしの文化美術館",
    "prefecture": "京都府",
    "postCode": "600-8828",
    "address": "京都府京都市下京区西新屋敷揚屋町32",
    "city": "きょうと",
    "image": "",
    "url": "https://sumiyaho.sakura.ne.jp/",
    "latlng": "[34.992499, 135.7429835]",
    "lat": 34.992499,
    "lng": 135.7429835,
    "isClosed": ""
  },
  {
    "id": "kyoto-art-4",
    "type": "art",
    "name": "北村美術館",
    "prefecture": "京都府",
    "postCode": "602-0841",
    "address": "京都府京都市上京区河原町通今出川下る東入梶井町448",
    "city": "きょうと",
    "image": "",
    "url": "https://kitamura-museum.com/",
    "latlng": "[35.0276607, 135.7703697]",
    "lat": 35.0276607,
    "lng": 135.7703697,
    "isClosed": ""
  },
  {
    "id": "kyoto-art-5",
    "type": "art",
    "name": "高麗美術館",
    "prefecture": "京都府",
    "postCode": "603-8108",
    "address": "京都府京都市北区紫竹上ノ岸町15",
    "city": "きょうと",
    "image": "",
    "url": "https://www.koryomuseum.or.jp/",
    "latlng": "[35.0543469, 135.7508306]",
    "lat": 35.0543469,
    "lng": 135.7508306,
    "isClosed": ""
  },
  {
    "id": "kyoto-art-6",
    "type": "art",
    "name": "野村美術館",
    "prefecture": "京都府",
    "postCode": "606-8434",
    "address": "京都府京都市左京区南禅寺下河原町61",
    "city": "きょうと",
    "image": "",
    "url": "http://nomura-museum.or.jp/",
    "latlng": "[35.0137477, 135.7915028]",
    "lat": 35.0137477,
    "lng": 135.7915028,
    "isClosed": ""
  },
  {
    "id": "kyoto-art-7",
    "type": "art",
    "name": "細見美術館",
    "prefecture": "京都府",
    "postCode": "606-8342",
    "address": "京都府京都市左京区岡崎最勝寺町6−3",
    "city": "きょうと",
    "image": "",
    "url": "https://www.emuseum.or.jp/",
    "latlng": "[35.0138328, 135.7796115]",
    "lat": 35.0138328,
    "lng": 135.7796115,
    "isClosed": ""
  },
  {
    "id": "kyoto-art-8",
    "type": "art",
    "name": "樂美術館",
    "prefecture": "京都府",
    "postCode": "602-0923",
    "address": "京都府京都市上京区油橋詰町87−1",
    "city": "きょうと",
    "image": "",
    "url": "https://www.raku-yaki.or.jp/museum/",
    "latlng": "[35.0255696, 135.7532623]",
    "lat": 35.0255696,
    "lng": 135.7532623,
    "isClosed": ""
  },
  {
    "id": "kyoto-art-9",
    "type": "art",
    "name": "福田美術館",
    "prefecture": "京都府",
    "postCode": "616-8385",
    "address": "京都府京都市右京区嵯峨天龍寺芒ノ馬場町3−16",
    "city": "きょうと",
    "image": "",
    "url": "https://fukuda-art-museum.jp/",
    "latlng": "[35.013867, 135.6762773]",
    "lat": 35.013867,
    "lng": 135.6762773,
    "isClosed": ""
  },
  {
    "id": "kyoto-art-10",
    "type": "art",
    "name": "京都工芸繊維大学美術工芸資料館",
    "prefecture": "京都府",
    "postCode": "606-0962",
    "address": "京都府京都市左京区松ケ崎橋上町1 美術工芸資料館",
    "city": "きょうと",
    "image": "",
    "url": "https://www.museum.kit.ac.jp/",
    "latlng": "[35.0494736, 135.7811672]",
    "lat": 35.0494736,
    "lng": 135.7811672,
    "isClosed": ""
  },
  {
    "id": "kyoto-art-11",
    "type": "art",
    "name": "京都国立近代美術館",
    "prefecture": "京都府",
    "postCode": "606-8344",
    "address": "京都府京都市左京区岡崎円勝寺町26−1",
    "city": "きょうと",
    "image": "",
    "url": "https://www.momak.go.jp/",
    "latlng": "[35.012333, 135.7820025]",
    "lat": 35.012333,
    "lng": 135.7820025,
    "isClosed": ""
  },
  {
    "id": "kyoto-art-12",
    "type": "art",
    "name": "京都市京セラ美術館（京都市美術館）",
    "prefecture": "京都府",
    "postCode": "606-8343",
    "address": "京都府京都市左京区岡崎成勝寺町",
    "city": "きょうと",
    "image": "",
    "url": "https://kyotocity-kyocera.museum/",
    "latlng": "[35.0130169, 135.7826118]",
    "lat": 35.0130169,
    "lng": 135.7826118,
    "isClosed": ""
  },
  {
    "id": "kyoto-art-13",
    "type": "art",
    "name": "嵯峨美術大学・嵯峨美術短期大学附属博物館",
    "prefecture": "京都府",
    "postCode": "616-8362",
    "address": "京都府京都市右京区嵯峨五島町1 講堂棟",
    "city": "きょうと",
    "image": "",
    "url": "https://www.kyoto-saga.ac.jp/about/museum/",
    "latlng": "[35.0126605, 135.6889538]",
    "lat": 35.0126605,
    "lng": 135.6889538,
    "isClosed": ""
  }
]