[
  {
    "id": "kyoto-museum-1",
    "type": "museum",
    "name": "平等院ミュージアム鳳翔館",
    "prefecture": "京都府",
    "postCode": "611-0021",
    "address": "京都府宇治市宇治蓮華111",
    "city": "うじ",
    "image": "",
    "url": "https://www.byodoin.or.jp/museum/",
    "latlng": "[34.8887156, 135.807488]",
    "lat": 34.8887156,
    "lng": 135.807488,
    "isClosed": ""
  },
  {
    "id": "kyoto-museum-2",
    "type": "museum",
    "name": "京都府立山城郷土資料館",
    "prefecture": "京都府",
    "postCode": "619-0204",
    "address": "京都府木津川市山城町上狛千両岩",
    "city": "きづがわ",
    "image": "",
    "url": "http://www.kyoto-be.ne.jp/yamasiro-m/cms/",
    "latlng": "[34.7525515, 135.8344995]",
    "lat": 34.7525515,
    "lng": 135.8344995,
    "isClosed": ""
  },
  {
    "id": "kyoto-museum-3",
    "type": "museum",
    "name": "漢検　漢字博物館・図書館",
    "prefecture": "京都府",
    "postCode": "605-0074",
    "address": "京都府京都市東山区祇園町南側551",
    "city": "きょうと",
    "image": "",
    "url": "https://www.kanjimuseum.kyoto/",
    "latlng": "[35.0032074, 135.7760278]",
    "lat": 35.0032074,
    "lng": 135.7760278,
    "isClosed": ""
  },
  {
    "id": "kyoto-museum-4",
    "type": "museum",
    "name": "京都府京都文化博物館",
    "prefecture": "京都府",
    "postCode": "604-8183",
    "address": "京都府京都市中京区東片町623−1",
    "city": "きょうと",
    "image": "",
    "url": "https://www.bunpaku.or.jp/",
    "latlng": "[35.0093991, 135.7622595]",
    "lat": 35.0093991,
    "lng": 135.7622595,
    "isClosed": ""
  },
  {
    "id": "kyoto-museum-5",
    "type": "museum",
    "name": "嵯峨嵐山文華館",
    "prefecture": "京都府",
    "postCode": "616-8385",
    "address": "京都府京都市右京区嵯峨天龍寺芒ノ馬場町11",
    "city": "きょうと",
    "image": "",
    "url": "https://www.samac.jp/",
    "latlng": "[35.0137041, 135.6737971]",
    "lat": 35.0137041,
    "lng": 135.6737971,
    "isClosed": ""
  },
  {
    "id": "kyoto-museum-6",
    "type": "museum",
    "name": "茶道資料館",
    "prefecture": "京都府",
    "postCode": "602-0073",
    "address": "京都府京都市上京区寺之内竪町 寺之内上る寺之内竪町682番地 裏千家センター内",
    "city": "きょうと",
    "image": "",
    "url": "https://www.urasenke.or.jp/textc/kon/gallery.html",
    "latlng": "[35.0346928, 135.7519465]",
    "lat": 35.0346928,
    "lng": 135.7519465,
    "isClosed": ""
  },
  {
    "id": "kyoto-museum-7",
    "type": "museum",
    "name": "白沙村荘　橋本関雪記念館",
    "prefecture": "京都府",
    "postCode": "606-8406",
    "address": "京都府京都市左京区浄土寺石橋町37 白沙村荘 橋本関雪記念館",
    "city": "きょうと",
    "image": "",
    "url": "http://www.hakusasonso.jp/",
    "latlng": "[35.0268537, 135.7936065]",
    "lat": 35.0268537,
    "lng": 135.7936065,
    "isClosed": ""
  },
  {
    "id": "kyoto-museum-8",
    "type": "museum",
    "name": "泉屋博古館",
    "prefecture": "京都府",
    "postCode": "606-8431",
    "address": "京都府京都市左京区鹿ケ谷下宮ノ前町24",
    "city": "きょうと",
    "image": "",
    "url": "https://sen-oku.or.jp/",
    "latlng": "[35.0175883, 135.7927625]",
    "lat": 35.0175883,
    "lng": 135.7927625,
    "isClosed": ""
  },
  {
    "id": "kyoto-museum-9",
    "type": "museum",
    "name": "並河靖之七宝記念館",
    "prefecture": "京都府",
    "postCode": "605-0038",
    "address": "京都府京都市東山区三条通北裏白川筋東入る堀池町388",
    "city": "きょうと",
    "image": "",
    "url": "http://www8.plala.or.jp/nayspo/",
    "latlng": "[35.0098622, 135.7813709]",
    "lat": 35.0098622,
    "lng": 135.7813709,
    "isClosed": ""
  },
  {
    "id": "kyoto-museum-10",
    "type": "museum",
    "name": "博物館さがの人形の家",
    "prefecture": "京都府",
    "postCode": "616-8434",
    "address": "京都府京都市右京区嵯峨鳥居本仏餉田町12",
    "city": "きょうと",
    "image": "",
    "url": "http://sagano.or.jp/",
    "latlng": "[35.0241556, 135.668842]",
    "lat": 35.0241556,
    "lng": 135.668842,
    "isClosed": ""
  },
  {
    "id": "kyoto-museum-11",
    "type": "museum",
    "name": "日図デザイン博物館",
    "prefecture": "京都府",
    "postCode": "606-8343",
    "address": "京都府京都市左京区岡崎成勝寺町9−1",
    "city": "きょうと",
    "image": "",
    "url": "http://www.nichizu.or.jp/?cat=5",
    "latlng": "[35.0126884, 135.780982]",
    "lat": 35.0126884,
    "lng": 135.780982,
    "isClosed": ""
  },
  {
    "id": "kyoto-museum-12",
    "type": "museum",
    "name": "風俗博物館",
    "prefecture": "京都府",
    "postCode": "600-8468",
    "address": "京都府京都市下京区花屋町下る 井筒佐女牛ビル 5階 新",
    "city": "きょうと",
    "image": "",
    "url": "https://www.iz2.or.jp/",
    "latlng": "[34.9929487, 135.7533309]",
    "lat": 34.9929487,
    "lng": 135.7533309,
    "isClosed": ""
  },
  {
    "id": "kyoto-museum-13",
    "type": "museum",
    "name": "霊山歴史館",
    "prefecture": "京都府",
    "postCode": "605-0861",
    "address": "京都府京都市東山区清閑寺霊山町1",
    "city": "きょうと",
    "image": "",
    "url": "https://www.ryozen-museum.or.jp/",
    "latlng": "[34.9995839, 135.7829949]",
    "lat": 34.9995839,
    "lng": 135.7829949,
    "isClosed": ""
  },
  {
    "id": "kyoto-museum-14",
    "type": "museum",
    "name": "京都府立丹後郷土資料館",
    "prefecture": "京都府",
    "postCode": "629-2234",
    "address": "京都府宮津市国分 小字天王山611-1",
    "city": "みやづ",
    "image": "",
    "url": "http://www.kyoto-be.ne.jp/tango-m/cms/",
    "latlng": "[35.5791749, 135.178478]",
    "lat": 35.5791749,
    "lng": 135.178478,
    "isClosed": ""
  },
  {
    "id": "kyoto-museum-15",
    "type": "museum",
    "name": "武田薬品工業株式会社 京都薬用植物園",
    "prefecture": "京都府",
    "postCode": "606-8134",
    "address": "京都府京都市左京区一乗寺竹ノ内町11 武田薬品工業株式会社 京都薬用植物園",
    "city": "きょうと",
    "image": "",
    "url": "https://www.takeda.co.jp/kyoto/",
    "latlng": "[35.0486424, 135.8014533]",
    "lat": 35.0486424,
    "lng": 135.8014533,
    "isClosed": ""
  },
  {
    "id": "kyoto-museum-16",
    "type": "museum",
    "name": "永守コレクションギャラリー",
    "prefecture": "京都府",
    "postCode": "617-0003",
    "address": "京都府向日市森本町東ノ口 1番地1",
    "city": "むこう",
    "image": "",
    "url": "https://nagamori-gallery.org/",
    "latlng": "[34.889183, 135.7424746]",
    "lat": 34.889183,
    "lng": 135.7424746,
    "isClosed": ""
  },
  {
    "id": "kyoto-museum-17",
    "type": "museum",
    "name": "宇治市歴史資料館",
    "prefecture": "京都府",
    "postCode": "611-0023",
    "address": "京都府宇治市折居台1丁目1",
    "city": "うじ",
    "image": "",
    "url": "https://www.city.uji.kyoto.jp/soshiki/89/",
    "latlng": "[34.8790288, 135.8044771]",
    "lat": 34.8790288,
    "lng": 135.8044771,
    "isClosed": ""
  },
  {
    "id": "kyoto-museum-18",
    "type": "museum",
    "name": "同志社大学歴史資料館",
    "prefecture": "京都府",
    "postCode": "610-0321",
    "address": "京都府京田辺市多々羅七瀬川",
    "city": "きょうたなべ",
    "image": "",
    "url": "http://hmuseum.doshisha.ac.jp/",
    "latlng": "[34.8001077, 135.7719447]",
    "lat": 34.8001077,
    "lng": 135.7719447,
    "isClosed": ""
  },
  {
    "id": "kyoto-museum-19",
    "type": "museum",
    "name": "KCIギャラリー",
    "prefecture": "京都府",
    "postCode": "600-8864",
    "address": "京都府京都市下京区七条御所ノ内南町103 ワコール京都ビル",
    "city": "きょうと",
    "image": "",
    "url": "https://www.kci.or.jp/gallery/",
    "latlng": "[34.98273, 135.732952]",
    "lat": 34.98273,
    "lng": 135.732952,
    "isClosed": ""
  },
  {
    "id": "kyoto-museum-20",
    "type": "museum",
    "name": "大谷大学博物館",
    "prefecture": "京都府",
    "postCode": "603-8143",
    "address": "京都府京都市北区小山上総町",
    "city": "きょうと",
    "image": "",
    "url": "https://www.otani.ac.jp/kyo_kikan/museum/index.html",
    "latlng": "[35.042298, 135.7597991]",
    "lat": 35.042298,
    "lng": 135.7597991,
    "isClosed": ""
  },
  {
    "id": "kyoto-museum-21",
    "type": "museum",
    "name": "京都芸術大学芸術館",
    "prefecture": "京都府",
    "postCode": "606-8271",
    "address": "京都府京都市左京区北白川瓜生山町2−116",
    "city": "きょうと",
    "image": "",
    "url": "https://kyoto-geijutsu-kan.com/",
    "latlng": "[35.0371308, 135.7927766]",
    "lat": 35.0371308,
    "lng": 135.7927766,
    "isClosed": ""
  },
  {
    "id": "kyoto-museum-22",
    "type": "museum",
    "name": "京都国立博物館",
    "prefecture": "京都府",
    "postCode": "605-0931",
    "address": "京都府京都市東山区茶屋町527",
    "city": "きょうと",
    "image": "",
    "url": "https://www.kyohaku.go.jp/jp/",
    "latlng": "[34.9894483, 135.7723772]",
    "lat": 34.9894483,
    "lng": 135.7723772,
    "isClosed": ""
  },
  {
    "id": "kyoto-museum-23",
    "type": "museum",
    "name": "京都産業大学ギャラリー",
    "prefecture": "京都府",
    "postCode": "600-8807",
    "address": "京都府京都市下京区中堂寺命婦町1−10 五条壬生川上ル：京都産業大学むすびわざ館2階",
    "city": "きょうと",
    "image": "",
    "url": "https://www.kyoto-su.ac.jp/facilities/musubiwaza/gallery/",
    "latlng": "[34.998004, 135.7456635]",
    "lat": 34.998004,
    "lng": 135.7456635,
    "isClosed": ""
  },
  {
    "id": "kyoto-museum-24",
    "type": "museum",
    "name": "京都市学校歴史博物館",
    "prefecture": "京都府",
    "postCode": "600-8044",
    "address": "京都府京都市下京区橘町437‎ 仏光寺下る 京都市下京区御幸町通",
    "city": "きょうと",
    "image": "",
    "url": "http://kyo-gakurehaku.jp/",
    "latlng": "[35.0008319, 135.765757]",
    "lat": 35.0008319,
    "lng": 135.765757,
    "isClosed": ""
  },
  {
    "id": "kyoto-museum-25",
    "type": "museum",
    "name": "京都市青少年科学センター",
    "prefecture": "京都府",
    "postCode": "612-0031",
    "address": "京都府京都市伏見区深草池ノ内町13",
    "city": "きょうと",
    "image": "",
    "url": "http://www.edu.city.kyoto.jp/science/",
    "latlng": "[34.9559941, 135.7661712]",
    "lat": 34.9559941,
    "lng": 135.7661712,
    "isClosed": ""
  },
  {
    "id": "kyoto-museum-26",
    "type": "museum",
    "name": "京都市立芸術大学芸術資料館",
    "prefecture": "京都府",
    "postCode": "600-8601",
    "address": "京都府京都市下京区下之町57−1",
    "city": "きょうと",
    "image": "",
    "url": "http://libmuse.kcua.ac.jp/muse/",
    "latlng": "[34.9870312, 135.763836]",
    "lat": 34.9870312,
    "lng": 135.763836,
    "isClosed": ""
  },
  {
    "id": "kyoto-museum-27",
    "type": "museum",
    "name": "京都精華大学ギャラリー",
    "prefecture": "京都府",
    "postCode": "606-8588",
    "address": "京都府京都市左京区岩倉木野町137",
    "city": "きょうと",
    "image": "",
    "url": "https://gallery.kyoto-seika.ac.jp/",
    "latlng": "[35.073466, 135.7707967]",
    "lat": 35.073466,
    "lng": 135.7707967,
    "isClosed": ""
  },
  {
    "id": "kyoto-museum-28",
    "type": "museum",
    "name": "京都大学総合博物館",
    "prefecture": "京都府",
    "postCode": "606-8317",
    "address": "京都府京都市左京区吉田本町 京都大学 総合博物館",
    "city": "きょうと",
    "image": "",
    "url": "https://www.museum.kyoto-u.ac.jp/",
    "latlng": "[35.0271278, 135.7791781]",
    "lat": 35.0271278,
    "lng": 135.7791781,
    "isClosed": ""
  },
  {
    "id": "kyoto-museum-29",
    "type": "museum",
    "name": "京都鉄道博物館",
    "prefecture": "京都府",
    "postCode": "600-8835",
    "address": "京都府京都市下京区観喜寺町",
    "city": "きょうと",
    "image": "",
    "url": "https://www.kyotorailwaymuseum.jp/",
    "latlng": "[34.9874786, 135.7443992]",
    "lat": 34.9874786,
    "lng": 135.7443992,
    "isClosed": ""
  },
  {
    "id": "kyoto-museum-30",
    "type": "museum",
    "name": "醍醐寺霊宝館",
    "prefecture": "京都府",
    "postCode": "601-1325",
    "address": "京都府京都市伏見区醍醐東大路町32",
    "city": "きょうと",
    "image": "",
    "url": "https://www.daigoji.or.jp/grounds/reihoukan.html",
    "latlng": "[34.9508782, 135.8195557]",
    "lat": 34.9508782,
    "lng": 135.8195557,
    "isClosed": ""
  },
  {
    "id": "kyoto-museum-31",
    "type": "museum",
    "name": "花園大学歴史博物館",
    "prefecture": "京都府",
    "postCode": "604-8456",
    "address": "京都府京都市中京区西ノ京壺ノ内町8−1",
    "city": "きょうと",
    "image": "",
    "url": "https://www.hanazono.ac.jp/about/museum/",
    "latlng": "[35.0179667, 135.7259171]",
    "lat": 35.0179667,
    "lng": 135.7259171,
    "isClosed": ""
  },
  {
    "id": "kyoto-museum-32",
    "type": "museum",
    "name": "佛教大学宗教文化ミュージアム",
    "prefecture": "京都府",
    "postCode": "616-8306",
    "address": "京都府京都市右京区嵯峨広沢西裏町5−26 佛教大学宗教文化ミュージアム",
    "city": "きょうと",
    "image": "",
    "url": "https://www.bukkyo-u.ac.jp/museum/",
    "latlng": "[35.0245244, 135.6878193]",
    "lat": 35.0245244,
    "lng": 135.6878193,
    "isClosed": ""
  },
  {
    "id": "kyoto-museum-33",
    "type": "museum",
    "name": "養源院",
    "prefecture": "京都府",
    "postCode": "605-0941",
    "address": "京都府京都市東山区三十三間堂廻り656",
    "city": "きょうと",
    "image": "",
    "url": "https://yougenin.jp/",
    "latlng": "[34.9878888, 135.7736113]",
    "lat": 34.9878888,
    "lng": 135.7736113,
    "isClosed": ""
  },
  {
    "id": "kyoto-museum-34",
    "type": "museum",
    "name": "立命館大学国際平和ミュージアム",
    "prefecture": "京都府",
    "postCode": "603-8355",
    "address": "京都府京都市北区等持院北町56−1",
    "city": "まいづる",
    "image": "",
    "url": "https://www.ritsumeikan-wp-museum.jp/",
    "latlng": "[35.032251, 135.7228676]",
    "lat": 35.032251,
    "lng": 135.7228676,
    "isClosed": ""
  },
  {
    "id": "kyoto-museum-35",
    "type": "museum",
    "name": "龍谷大学龍谷ミュージアム",
    "prefecture": "京都府",
    "postCode": "600-8399",
    "address": "京都府京都市下京区丸屋町117 西本願寺前",
    "city": "まいづる",
    "image": "",
    "url": "https://museum.ryukoku.ac.jp/",
    "latlng": "[34.9910243, 135.7535117]",
    "lat": 34.9910243,
    "lng": 135.7535117,
    "isClosed": ""
  },
  {
    "id": "kyoto-museum-36",
    "type": "museum",
    "name": "龍安寺",
    "prefecture": "京都府",
    "postCode": "616-8001",
    "address": "京都府京都市右京区龍安寺御陵ノ下町13",
    "city": "きょうと",
    "image": "",
    "url": "http://www.ryoanji.jp/smph/",
    "latlng": "[35.0345675, 135.7185292]",
    "lat": 35.0345675,
    "lng": 135.7185292,
    "isClosed": ""
  },
  {
    "id": "kyoto-museum-37",
    "type": "museum",
    "name": "京都大学フィールド科学教育研究センター舞鶴水産実験所水産生物標本館",
    "prefecture": "京都府",
    "postCode": "625-0086",
    "address": "京都府舞鶴市長浜番外地",
    "city": "",
    "image": "",
    "url": "https://www.maizuru.marine.kais.kyoto-u.ac.jp/",
    "latlng": "[35.4865485, 135.3561922]",
    "lat": 35.4865485,
    "lng": 135.3561922,
    "isClosed": ""
  },
  {
    "id": "kyoto-museum-38",
    "type": "museum",
    "name": "舞鶴引揚記念館",
    "prefecture": "京都府",
    "postCode": "625-0133",
    "address": "京都府舞鶴市平1584 内 引揚記念公園",
    "city": "",
    "image": "",
    "url": "https://m-hikiage-museum.jp/",
    "latlng": "[35.5091647, 135.3954883]",
    "lat": 35.5091647,
    "lng": 135.3954883,
    "isClosed": ""
  },
  {
    "id": "kyoto-museum-39",
    "type": "museum",
    "name": "京都産業大学神山天文台",
    "prefecture": "京都府",
    "postCode": "603-8047",
    "address": "京都府京都市北区北区上賀茂本山",
    "city": "",
    "image": "",
    "url": "https://www.kyoto-su.ac.jp/observatory/",
    "latlng": "[35.0670141, 135.7592067]",
    "lat": 35.0670141,
    "lng": 135.7592067,
    "isClosed": ""
  }
]