[
  {
    "id": "yamaguchi-art-1",
    "type": "art",
    "name": "柏原美術館",
    "prefecture": "山口県",
    "postCode": "741-0081",
    "address": "山口県岩国市横山2丁目10−27",
    "city": "いわくに",
    "image": "",
    "url": "https://www.kashiwabara-museum.jp/",
    "latlng": "[34.1713557, 132.1748484]",
    "lat": 34.1713557,
    "lng": 132.1748484,
    "isClosed": ""
  },
  {
    "id": "yamaguchi-art-2",
    "type": "art",
    "name": "下関市立美術館",
    "prefecture": "山口県",
    "postCode": "752-0986",
    "address": "山口県下関市長府黒門東町1−1",
    "city": "しものせき",
    "image": "",
    "url": "https://www.city.shimonoseki.lg.jp/site/art/",
    "latlng": "[33.9896997, 130.9907756]",
    "lat": 33.9896997,
    "lng": 130.9907756,
    "isClosed": ""
  },
  {
    "id": "yamaguchi-art-3",
    "type": "art",
    "name": "周南市美術博物館",
    "prefecture": "山口県",
    "postCode": "745-0006",
    "address": "山口県周南市花畠町10−16",
    "city": "しゅうなん",
    "image": "",
    "url": "http://s-bunka.jp/bihaku/",
    "latlng": "[34.0601961, 131.8120992]",
    "lat": 34.0601961,
    "lng": 131.8120992,
    "isClosed": ""
  },
  {
    "id": "yamaguchi-art-4",
    "type": "art",
    "name": "熊谷美術館",
    "prefecture": "山口県",
    "postCode": "758-0052",
    "address": "山口県萩市今魚店町47",
    "city": "はぎ",
    "image": "",
    "url": "https://kumaya.art/",
    "latlng": "[34.4168032, 131.3959808]",
    "lat": 34.4168032,
    "lng": 131.3959808,
    "isClosed": ""
  },
  {
    "id": "yamaguchi-art-5",
    "type": "art",
    "name": "萩陶芸美術館　吉賀大眉記念館",
    "prefecture": "山口県",
    "postCode": "758-0011",
    "address": "山口県萩市椿東10426−1",
    "city": "はぎ",
    "image": "",
    "url": "http://www.taibi-hagi.jp/",
    "latlng": "[34.424895, 131.4156784]",
    "lat": 34.424895,
    "lng": 131.4156784,
    "isClosed": ""
  },
  {
    "id": "yamaguchi-art-6",
    "type": "art",
    "name": "のむら美術館",
    "prefecture": "山口県",
    "postCode": "753-0082",
    "address": "山口県山口市水の上町5−27",
    "city": "やまぐち",
    "image": "",
    "url": "https://yamaguchi-tourism.jp/spot/detail_12223.html",
    "latlng": "[34.1876017, 131.472475]",
    "lat": 34.1876017,
    "lng": 131.472475,
    "isClosed": ""
  },
  {
    "id": "yamaguchi-art-7",
    "type": "art",
    "name": "山口県立萩美術館・浦上記念館",
    "prefecture": "山口県",
    "postCode": "758-0074",
    "address": "山口県萩市平安古町586−1",
    "city": "はぎ",
    "image": "",
    "url": "https://www.hum.pref.yamaguchi.lg.jp/",
    "latlng": "[34.4095127, 131.394387]",
    "lat": 34.4095127,
    "lng": 131.394387,
    "isClosed": ""
  },
  {
    "id": "yamaguchi-art-8",
    "type": "art",
    "name": "山口県立美術館",
    "prefecture": "山口県",
    "postCode": "753-0089",
    "address": "山口県山口市亀山町3−1",
    "city": "やまぐち",
    "image": "",
    "url": "https://www.yma-web.jp/",
    "latlng": "[34.1795339, 131.4744782]",
    "lat": 34.1795339,
    "lng": 131.4744782,
    "isClosed": ""
  }
]