[
  {
    "id": "yamaguchi-museum-1",
    "type": "museum",
    "name": "岩国徴古館",
    "prefecture": "山口県",
    "postCode": "741-0081",
    "address": "山口県岩国市横山2丁目7−19",
    "city": "いわくに",
    "image": "",
    "url": "https://www.city.iwakuni.lg.jp/site/chokokan/",
    "latlng": "[34.17095340000001, 132.1771684]",
    "lat": 34.17095340000001,
    "lng": 132.1771684,
    "isClosed": ""
  },
  {
    "id": "yamaguchi-museum-2",
    "type": "museum",
    "name": "吉川報こう会　吉川史料館",
    "prefecture": "山口県",
    "postCode": "741-0081",
    "address": "山口県岩国市横山2丁目7-3",
    "city": "いわくに",
    "image": "",
    "url": "https://www.kikkawa7.or.jp/",
    "latlng": "[34.1704564, 132.1777165]",
    "lat": 34.1704564,
    "lng": 132.1777165,
    "isClosed": ""
  },
  {
    "id": "yamaguchi-museum-3",
    "type": "museum",
    "name": "宇部市学びの森くすのき",
    "prefecture": "山口県",
    "postCode": "757-0216",
    "address": "山口県宇部市船木361−6",
    "city": "うべ",
    "image": "",
    "url": "https://www.city.ube.yamaguchi.jp/koukyouannai/shisetsu_kyouiku/1009905.html",
    "latlng": "[34.0449395, 131.2236531]",
    "lat": 34.0449395,
    "lng": 131.2236531,
    "isClosed": ""
  },
  {
    "id": "yamaguchi-museum-4",
    "type": "museum",
    "name": "下関市立考古博物館",
    "prefecture": "山口県",
    "postCode": "751-0866",
    "address": "山口県下関市綾羅木454",
    "city": "しものせき",
    "image": "",
    "url": "https://www.shimo-kouko.jp/",
    "latlng": "[34.0115534, 130.9260769]",
    "lat": 34.0115534,
    "lng": 130.9260769,
    "isClosed": ""
  },
  {
    "id": "yamaguchi-museum-5",
    "type": "museum",
    "name": "下関市立歴史博物館",
    "prefecture": "山口県",
    "postCode": "752-0979",
    "address": "山口県下関市長府川端2丁目2−27",
    "city": "しものせき",
    "image": "",
    "url": "https://www.shimohaku.jp/",
    "latlng": "[33.9958639, 130.9838608]",
    "lat": 33.9958639,
    "lng": 130.9838608,
    "isClosed": ""
  },
  {
    "id": "yamaguchi-museum-6",
    "type": "museum",
    "name": "萩博物館",
    "prefecture": "山口県",
    "postCode": "758-0057",
    "address": "山口県萩市堀内355",
    "city": "はぎ",
    "image": "",
    "url": "https://www.city.hagi.lg.jp/hagihaku/",
    "latlng": "[34.4127171, 131.391031]",
    "lat": 34.4127171,
    "lng": 131.391031,
    "isClosed": ""
  },
  {
    "id": "yamaguchi-museum-7",
    "type": "museum",
    "name": "防府市青少年科学館",
    "prefecture": "山口県",
    "postCode": "747-0809",
    "address": "山口県防府市寿町6-41",
    "city": "ほうふ",
    "image": "",
    "url": "https://solar-hofu.com",
    "latlng": "[34.04949670000001, 131.5615526]",
    "lat": 34.04949670000001,
    "lng": 131.5615526,
    "isClosed": ""
  },
  {
    "id": "yamaguchi-museum-8",
    "type": "museum",
    "name": "毛利博物館",
    "prefecture": "山口県",
    "postCode": "747-0023",
    "address": "山口県防府市多々良1丁目15−1",
    "city": "ほうふ",
    "image": "",
    "url": "https://www.c-able.ne.jp/~mouri-m/",
    "latlng": "[34.0633377, 131.5868218]",
    "lat": 34.0633377,
    "lng": 131.5868218,
    "isClosed": ""
  },
  {
    "id": "yamaguchi-museum-9",
    "type": "museum",
    "name": "美祢市立秋吉台科学博物館",
    "prefecture": "山口県",
    "postCode": "754-0511",
    "address": "山口県美祢市秋芳町秋吉11237−938",
    "city": "みね",
    "image": "",
    "url": "https://akihaku.jimdofree.com/",
    "latlng": "[34.235003, 131.3073019]",
    "lat": 34.235003,
    "lng": 131.3073019,
    "isClosed": ""
  },
  {
    "id": "yamaguchi-museum-10",
    "type": "museum",
    "name": "山口県立山口博物館",
    "prefecture": "山口県",
    "postCode": "753-0073",
    "address": "山口県山口市春日町8−2",
    "city": "やまぐち",
    "image": "",
    "url": "https://www.yamahaku.pref.yamaguchi.lg.jp/",
    "latlng": "[34.1824629, 131.4727502]",
    "lat": 34.1824629,
    "lng": 131.4727502,
    "isClosed": ""
  },
  {
    "id": "yamaguchi-museum-11",
    "type": "museum",
    "name": "緑と花と彫刻の博物館",
    "prefecture": "山口県",
    "postCode": "755-0025",
    "address": "山口県宇部市野中3丁目4−29号",
    "city": "うべ",
    "image": "",
    "url": "https://www.tokiwapark.jp/museum/",
    "latlng": "[33.9486065, 131.2815806]",
    "lat": 33.9486065,
    "lng": 131.2815806,
    "isClosed": ""
  },
  {
    "id": "yamaguchi-museum-12",
    "type": "museum",
    "name": "梅光学院大学博物館",
    "prefecture": "山口県",
    "postCode": "750-0041",
    "address": "山口県下関市向洋町1丁目1−1",
    "city": "しものせき",
    "image": "",
    "url": "",
    "latlng": "[33.9676404, 130.9315491]",
    "lat": 33.9676404,
    "lng": 130.9315491,
    "isClosed": ""
  }
]