[
  {
    "id": "aichi-art-1",
    "type": "art",
    "name": "稲沢市荻須記念美術館",
    "prefecture": "愛知県",
    "postCode": "492-8217",
    "address": "愛知県稲沢市稲沢町前田365−8",
    "city": "いなざわ",
    "image": "",
    "url": "http://www.city.inazawa.aichi.jp/museum/",
    "latlng": "[35.2465282, 136.7893381]",
    "lat": 35.2465282,
    "lng": 136.7893381,
    "isClosed": ""
  },
  {
    "id": "aichi-art-2",
    "type": "art",
    "name": "岡崎市美術博物館",
    "prefecture": "愛知県",
    "postCode": "444-0002",
    "address": "愛知県岡崎市高隆寺町峠1",
    "city": "おかざき",
    "image": "",
    "url": "https://www.city.okazaki.lg.jp/museum/",
    "latlng": "[34.9473456, 137.211954]",
    "lat": 34.9473456,
    "lng": 137.211954,
    "isClosed": ""
  },
  {
    "id": "aichi-art-3",
    "type": "art",
    "name": "高浜市やきものの里かわら美術館",
    "prefecture": "愛知県",
    "postCode": "444-1325",
    "address": "愛知県高浜市青木町9丁目6−18",
    "city": "たかはま",
    "image": "",
    "url": "http://www.takahama-kawara-museum.com/index.html",
    "latlng": "[34.92345299999999, 136.981581]",
    "lat": 34.92345299999999,
    "lng": 136.981581,
    "isClosed": ""
  },
  {
    "id": "aichi-art-4",
    "type": "art",
    "name": "豊田市美術館",
    "prefecture": "愛知県",
    "postCode": "471-0034",
    "address": "愛知県豊田市小坂本町8丁目5−1",
    "city": "とよた",
    "image": "",
    "url": "https://www.museum.toyota.aichi.jp/",
    "latlng": "[35.0808051, 137.150806]",
    "lat": 35.0808051,
    "lng": 137.150806,
    "isClosed": ""
  },
  {
    "id": "aichi-art-5",
    "type": "art",
    "name": "豊橋市美術博物館",
    "prefecture": "愛知県",
    "postCode": "440-0801",
    "address": "愛知県豊橋市今橋町3−1",
    "city": "とよはし",
    "image": "",
    "url": "http://www.toyohashi-bihaku.jp/",
    "latlng": "[34.7692262, 137.3948299]",
    "lat": 34.7692262,
    "lng": 137.3948299,
    "isClosed": ""
  },
  {
    "id": "aichi-art-6",
    "type": "art",
    "name": "名都美術館",
    "prefecture": "愛知県",
    "postCode": "480-1116",
    "address": "愛知県長久手市杁ケ池301",
    "city": "ながくて",
    "image": "",
    "url": "http://www.meito.hayatele.co.jp/",
    "latlng": "[35.1709193, 137.0388673]",
    "lat": 35.1709193,
    "lng": 137.0388673,
    "isClosed": ""
  },
  {
    "id": "aichi-art-7",
    "type": "art",
    "name": "桑山美術館",
    "prefecture": "愛知県",
    "postCode": "466-0828",
    "address": "愛知県名古屋市昭和区山中町2丁目12",
    "city": "なごや",
    "image": "",
    "url": "http://www.kuwayama-museum.jp/",
    "latlng": "[35.1483632, 136.9536252]",
    "lat": 35.1483632,
    "lng": 136.9536252,
    "isClosed": ""
  },
  {
    "id": "aichi-art-8",
    "type": "art",
    "name": "昭和美術館",
    "prefecture": "愛知県",
    "postCode": "466-0837",
    "address": "愛知県名古屋市昭和区汐見町4−1",
    "city": "なごや",
    "image": "",
    "url": "https://www.shouwa-museum.com/index.html",
    "latlng": "[35.1402977, 136.9483938]",
    "lat": 35.1402977,
    "lng": 136.9483938,
    "isClosed": ""
  },
  {
    "id": "aichi-art-9",
    "type": "art",
    "name": "徳川美術館",
    "prefecture": "愛知県",
    "postCode": "461-0023",
    "address": "愛知県名古屋市東区徳川町1017",
    "city": "なごや",
    "image": "",
    "url": "https://www.tokugawa-art-museum.jp/",
    "latlng": "[35.1837928, 136.9332033]",
    "lat": 35.1837928,
    "lng": 136.9332033,
    "isClosed": ""
  },
  {
    "id": "aichi-art-10",
    "type": "art",
    "name": "名古屋市美術館",
    "prefecture": "愛知県",
    "postCode": "460-0008",
    "address": "愛知県名古屋市中区栄2丁目17−25 芸術と科学の杜・白川公園内",
    "city": "なごや",
    "image": "",
    "url": "https://art-museum.city.nagoya.jp/",
    "latlng": "[35.1640678, 136.8997043]",
    "lat": 35.1640678,
    "lng": 136.8997043,
    "isClosed": ""
  },
  {
    "id": "aichi-art-11",
    "type": "art",
    "name": "古川美術館",
    "prefecture": "愛知県",
    "postCode": "464-0066",
    "address": "愛知県名古屋市千種区池下町2丁目50",
    "city": "なごや",
    "image": "",
    "url": "https://www.furukawa-museum.or.jp/",
    "latlng": "[35.1688104, 136.9486]",
    "lat": 35.1688104,
    "lng": 136.9486,
    "isClosed": ""
  },
  {
    "id": "aichi-art-12",
    "type": "art",
    "name": "横山美術館",
    "prefecture": "愛知県",
    "postCode": "461-0004",
    "address": "愛知県名古屋市東区葵1丁目1−21",
    "city": "なごや",
    "image": "",
    "url": "https://www.yokoyama-art-museum.or.jp/",
    "latlng": "[35.1732515, 136.919834]",
    "lat": 35.1732515,
    "lng": 136.919834,
    "isClosed": ""
  },
  {
    "id": "aichi-art-13",
    "type": "art",
    "name": "楽只美術館",
    "prefecture": "愛知県",
    "postCode": "461-0001",
    "address": "愛知県名古屋市東区泉1丁目17−28",
    "city": "なごや",
    "image": "",
    "url": "http://www.mc.ccnw.ne.jp/nagoya-taikan/rakusi.html",
    "latlng": "[35.1752781, 136.9106828]",
    "lat": 35.1752781,
    "lng": 136.9106828,
    "isClosed": ""
  },
  {
    "id": "aichi-art-14",
    "type": "art",
    "name": "公益財団法人かみや美術館",
    "prefecture": "愛知県",
    "postCode": "475-0017",
    "address": "愛知県半田市有脇町10丁目8−9",
    "city": "はんだ",
    "image": "",
    "url": "http://www.kamiya-muse.or.jp/",
    "latlng": "[34.934712, 136.9543618]",
    "lat": 34.934712,
    "lng": 136.9543618,
    "isClosed": ""
  },
  {
    "id": "aichi-art-15",
    "type": "art",
    "name": "碧南市藤井達吉現代美術館",
    "prefecture": "愛知県",
    "postCode": "447-0847",
    "address": "愛知県碧南市音羽町1丁目1",
    "city": "へきなん",
    "image": "",
    "url": "https://www.city.hekinan.lg.jp/museum/index.html",
    "latlng": "[34.8733657, 136.9818014]",
    "lat": 34.8733657,
    "lng": 136.9818014,
    "isClosed": ""
  },
  {
    "id": "aichi-art-16",
    "type": "art",
    "name": "刈谷市美術館",
    "prefecture": "愛知県",
    "postCode": "448-0852",
    "address": "愛知県刈谷市住吉町4丁目 5番地",
    "city": "かりや",
    "image": "",
    "url": "https://www.city.kariya.lg.jp/museum/",
    "latlng": "[34.9856202, 137.0056736]",
    "lat": 34.9856202,
    "lng": 137.0056736,
    "isClosed": ""
  },
  {
    "id": "aichi-art-17",
    "type": "art",
    "name": "愛知県陶磁美術館",
    "prefecture": "愛知県",
    "postCode": "489-0965",
    "address": "愛知県瀬戸市南山口町234",
    "city": "せと",
    "image": "",
    "url": "https://www.pref.aichi.jp/touji/",
    "latlng": "[35.1853679, 137.0979882]",
    "lat": 35.1853679,
    "lng": 137.0979882,
    "isClosed": ""
  },
  {
    "id": "aichi-art-18",
    "type": "art",
    "name": "瀬戸市美術館",
    "prefecture": "愛知県",
    "postCode": "489-0884",
    "address": "愛知県瀬戸市西茨町113−3",
    "city": "せと",
    "image": "",
    "url": "http://www.seto-cul.jp/seto-museum/",
    "latlng": "[35.2189473, 137.0998819]",
    "lat": 35.2189473,
    "lng": 137.0998819,
    "isClosed": ""
  },
  {
    "id": "aichi-art-19",
    "type": "art",
    "name": "愛知芸術文化センター愛知県美術館",
    "prefecture": "愛知県",
    "postCode": "461-0005",
    "address": "愛知県名古屋市東区東桜1丁目13−2",
    "city": "なごや",
    "image": "",
    "url": "https://www-art.aac.pref.aichi.jp/",
    "latlng": "[35.1707667, 136.9130044]",
    "lat": 35.1707667,
    "lng": 136.9130044,
    "isClosed": ""
  }
]