[
  {
    "id": "aichi-museum-1",
    "type": "museum",
    "name": "一宮市博物館",
    "prefecture": "愛知県",
    "postCode": "491-0922",
    "address": "愛知県一宮市大和町妙興寺妙興寺境内2390",
    "city": "いちのみや",
    "image": "",
    "url": "https://www.icm-jp.com/",
    "latlng": "[35.2839761, 136.8001943]",
    "lat": 35.2839761,
    "lng": 136.8001943,
    "isClosed": ""
  },
  {
    "id": "aichi-museum-2",
    "type": "museum",
    "name": "公益財団法人日本モンキーセンター",
    "prefecture": "愛知県",
    "postCode": "484-0081",
    "address": "愛知県犬山市犬山官林26",
    "city": "いぬやま",
    "image": "",
    "url": "https://www.j-monkey.jp/",
    "latlng": "[35.3903016, 136.9555229]",
    "lat": 35.3903016,
    "lng": 136.9555229,
    "isClosed": ""
  },
  {
    "id": "aichi-museum-3",
    "type": "museum",
    "name": "博物館明治村",
    "prefecture": "愛知県",
    "postCode": "484-0000",
    "address": "愛知県犬山市内山 1番地",
    "city": "いぬやま",
    "image": "",
    "url": "https://www.meijimura.com/",
    "latlng": "[35.3450535, 136.9895702]",
    "lat": 35.3450535,
    "lng": 136.9895702,
    "isClosed": ""
  },
  {
    "id": "aichi-museum-4",
    "type": "museum",
    "name": "刈谷市歴史博物館",
    "prefecture": "愛知県",
    "postCode": "448-0838",
    "address": "愛知県刈谷市逢妻町4丁目25番地1",
    "city": "かりや",
    "image": "",
    "url": "https://www.city.kariya.lg.jp/rekihaku/",
    "latlng": "[34.9921414, 136.9852184]",
    "lat": 34.9921414,
    "lng": 136.9852184,
    "isClosed": ""
  },
  {
    "id": "aichi-museum-5",
    "type": "museum",
    "name": "田原市博物館",
    "prefecture": "愛知県",
    "postCode": "441-3421",
    "address": "愛知県田原市田原町巴江11 番地 1",
    "city": "たはら",
    "image": "",
    "url": "https://www.taharamuseum.gr.jp/",
    "latlng": "[34.6727734, 137.2690078]",
    "lat": 34.6727734,
    "lng": 137.2690078,
    "isClosed": ""
  },
  {
    "id": "aichi-museum-6",
    "type": "museum",
    "name": "豊橋市地下資源館",
    "prefecture": "愛知県",
    "postCode": "441-3147",
    "address": "愛知県豊橋市大岩町火打坂19−16",
    "city": "とよはし",
    "image": "",
    "url": "https://www.toyohaku.gr.jp/chika/",
    "latlng": "[34.7291897, 137.4314265]",
    "lat": 34.7291897,
    "lng": 137.4314265,
    "isClosed": ""
  },
  {
    "id": "aichi-museum-7",
    "type": "museum",
    "name": "豊橋市二川宿本陣資料館",
    "prefecture": "愛知県",
    "postCode": "441-3155",
    "address": "愛知県豊橋市二川町中町65",
    "city": "とよはし",
    "image": "",
    "url": "https://futagawa-honjin.jp/",
    "latlng": "[34.7234705, 137.4500157]",
    "lat": 34.7234705,
    "lng": 137.4500157,
    "isClosed": ""
  },
  {
    "id": "aichi-museum-8",
    "type": "museum",
    "name": "熱田神宮宝物館",
    "prefecture": "愛知県",
    "postCode": "456-0031",
    "address": "愛知県名古屋市熱田区神宮1丁目1−1",
    "city": "なごや",
    "image": "",
    "url": "https://www.atsutajingu.or.jp/jingu/bunkaden/treasure_guide.html",
    "latlng": "[35.1260162, 136.9091927]",
    "lat": 35.1260162,
    "lng": 136.9091927,
    "isClosed": ""
  },
  {
    "id": "aichi-museum-9",
    "type": "museum",
    "name": "荒木集成館",
    "prefecture": "愛知県",
    "postCode": "468-0014",
    "address": "愛知県名古屋市天白区中平5丁目616",
    "city": "なごや",
    "image": "",
    "url": "http://www.arakishuseikan.ecweb.jp/",
    "latlng": "[35.1128936, 136.9947911]",
    "lat": 35.1128936,
    "lng": 136.9947911,
    "isClosed": ""
  },
  {
    "id": "aichi-museum-10",
    "type": "museum",
    "name": "唐九郎記念館（翠松園陶芸記念館）",
    "prefecture": "愛知県",
    "postCode": "463-0010",
    "address": "愛知県名古屋市守山区翠松園1丁目1710 唐九郎記念館（翠松園陶芸記念館）",
    "city": "なごや",
    "image": "",
    "url": "https://www.city.nagoya.jp/moriyama/page/0000001531.html",
    "latlng": "[35.21244950000001, 136.9887512]",
    "lat": 35.21244950000001,
    "lng": 136.9887512,
    "isClosed": ""
  },
  {
    "id": "aichi-museum-11",
    "type": "museum",
    "name": "名古屋市科学館",
    "prefecture": "愛知県",
    "postCode": "460-0008",
    "address": "愛知県名古屋市中区栄2丁目17−1 芸術と科学の杜・白川公園内",
    "city": "なごや",
    "image": "",
    "url": "http://www.ncsm.city.nagoya.jp/",
    "latlng": "[35.1640678, 136.8997043]",
    "lat": 35.1640678,
    "lng": 136.8997043,
    "isClosed": ""
  },
  {
    "id": "aichi-museum-12",
    "type": "museum",
    "name": "名古屋市博物館",
    "prefecture": "愛知県",
    "postCode": "467-0806",
    "address": "愛知県名古屋市瑞穂区瑞穂通1丁目27−1",
    "city": "なごや",
    "image": "",
    "url": "http://www.museum.city.nagoya.jp/",
    "latlng": "[35.1363381, 136.9349087]",
    "lat": 35.1363381,
    "lng": 136.9349087,
    "isClosed": ""
  },
  {
    "id": "aichi-museum-13",
    "type": "museum",
    "name": "名古屋市見晴台考古資料館",
    "prefecture": "愛知県",
    "postCode": "457-0026",
    "address": "愛知県名古屋市南区見晴町47",
    "city": "なごや",
    "image": "",
    "url": "https://www.city.nagoya.jp/kurashi/category/19-15-2-8-0-0-0-0-0-0.html",
    "latlng": "[35.09926240000001, 136.9397853]",
    "lat": 35.09926240000001,
    "lng": 136.9397853,
    "isClosed": ""
  },
  {
    "id": "aichi-museum-14",
    "type": "museum",
    "name": "西尾市岩瀬文庫",
    "prefecture": "愛知県",
    "postCode": "445-0847",
    "address": "愛知県西尾市亀沢町480",
    "city": "にしお",
    "image": "",
    "url": "https://iwasebunko.jp/",
    "latlng": "[34.8743679, 137.0531049]",
    "lat": 34.8743679,
    "lng": 137.0531049,
    "isClosed": ""
  },
  {
    "id": "aichi-museum-15",
    "type": "museum",
    "name": "半田市立博物館",
    "prefecture": "愛知県",
    "postCode": "475-0928",
    "address": "愛知県半田市桐ケ丘4丁目209−1",
    "city": "はんだ",
    "image": "",
    "url": "https://www.city.handa.lg.jp/hkbutsu/bunka/gejutsu/hakubutsukan/hakubutsukan.html",
    "latlng": "[34.8914016, 136.9140948]",
    "lat": 34.8914016,
    "lng": 136.9140948,
    "isClosed": ""
  },
  {
    "id": "aichi-museum-16",
    "type": "museum",
    "name": "豊橋市自然史博物館",
    "prefecture": "愛知県",
    "postCode": "441-3147",
    "address": "愛知県豊橋市大岩町大穴1−238",
    "city": "とよはし",
    "image": "",
    "url": "https://www.toyohaku.gr.jp/sizensi/",
    "latlng": "[34.7208075, 137.4359707]",
    "lat": 34.7208075,
    "lng": 137.4359707,
    "isClosed": ""
  },
  {
    "id": "aichi-museum-17",
    "type": "museum",
    "name": "安城市歴史博物館",
    "prefecture": "愛知県",
    "postCode": "446-0026",
    "address": "愛知県安城市安城町城堀30",
    "city": "あんじょう",
    "image": "",
    "url": "https://www.ansyobunka.jp/",
    "latlng": "[34.9458533, 137.0980896]",
    "lat": 34.9458533,
    "lng": 137.0980896,
    "isClosed": ""
  },
  {
    "id": "aichi-museum-18",
    "type": "museum",
    "name": "野外民族博物館リトルワールド",
    "prefecture": "愛知県",
    "postCode": "484-0005",
    "address": "愛知県犬山市今井成沢90−48",
    "city": "いぬやま",
    "image": "",
    "url": "https://www.littleworld.jp/",
    "latlng": "[35.3723019, 137.0245819]",
    "lat": 35.3723019,
    "lng": 137.0245819,
    "isClosed": ""
  },
  {
    "id": "aichi-museum-19",
    "type": "museum",
    "name": "春日井市道風記念館",
    "prefecture": "愛知県",
    "postCode": "486-0932",
    "address": "愛知県春日井市松河戸町5丁目9−3",
    "city": "かすがい",
    "image": "",
    "url": "https://www.city.kasugai.lg.jp/shisetsu/bunka/tofu/index.html",
    "latlng": "[35.2203592, 136.9681249]",
    "lat": 35.2203592,
    "lng": 136.9681249,
    "isClosed": ""
  },
  {
    "id": "aichi-museum-20",
    "type": "museum",
    "name": "中部大学民族資料博物館",
    "prefecture": "愛知県",
    "postCode": "487-0027",
    "address": "愛知県春日井市松本町1200",
    "city": "かすがい",
    "image": "",
    "url": "https://www3.chubu.ac.jp/museum/",
    "latlng": "[35.2745125, 137.0126809]",
    "lat": 35.2745125,
    "lng": 137.0126809,
    "isClosed": ""
  },
  {
    "id": "aichi-museum-21",
    "type": "museum",
    "name": "瀬戸蔵ミュージアム",
    "prefecture": "愛知県",
    "postCode": "489-0813",
    "address": "愛知県瀬戸市蔵所町1−1 瀬戸蔵 2階・3階",
    "city": "せと",
    "image": "",
    "url": "http://www.city.seto.aichi.jp/docs/2011031500092/",
    "latlng": "[35.2254026, 137.1006653]",
    "lat": 35.2254026,
    "lng": 137.1006653,
    "isClosed": ""
  },
  {
    "id": "aichi-museum-22",
    "type": "museum",
    "name": "南知多ビーチランド",
    "prefecture": "愛知県",
    "postCode": "470-3233",
    "address": "愛知県知多郡美浜町奥田儀路428−1",
    "city": "みはま",
    "image": "",
    "url": "https://beachland.jp/",
    "latlng": "[34.7870393, 136.8551854]",
    "lat": 34.7870393,
    "lng": 136.8551854,
    "isClosed": ""
  },
  {
    "id": "aichi-museum-23",
    "type": "museum",
    "name": "INAXライブミュージアム",
    "prefecture": "愛知県",
    "postCode": "479-0823",
    "address": "愛知県常滑市奥栄町1丁目130",
    "city": "とこなめ",
    "image": "",
    "url": "https://livingculture.lixil.com/ilm/",
    "latlng": "[34.8819307, 136.8486398]",
    "lat": 34.8819307,
    "lng": 136.8486398,
    "isClosed": ""
  },
  {
    "id": "aichi-museum-24",
    "type": "museum",
    "name": "豊橋総合動植物公園",
    "prefecture": "愛知県",
    "postCode": "441-3147",
    "address": "愛知県豊橋市大岩町大穴1−238 のんほいパーク（豊橋総合動植物公園）",
    "city": "とよはし",
    "image": "",
    "url": "https://www.nonhoi.jp/",
    "latlng": "[34.7203106, 137.4321545]",
    "lat": 34.7203106,
    "lng": 137.4321545,
    "isClosed": ""
  },
  {
    "id": "aichi-museum-25",
    "type": "museum",
    "name": "愛知県立芸術大学芸術資料館・法隆寺金堂壁画模写展示館",
    "prefecture": "愛知県",
    "postCode": "480-1103",
    "address": "愛知県長久手市岩作三ケ峯1−114",
    "city": "ながくて",
    "image": "",
    "url": "https://www.aichi-fam-u.ac.jp/#top",
    "latlng": "[35.1700311, 137.0692979]",
    "lat": 35.1700311,
    "lng": 137.0692979,
    "isClosed": ""
  },
  {
    "id": "aichi-museum-26",
    "type": "museum",
    "name": "戦争と平和の資料館ピースあいち",
    "prefecture": "愛知県",
    "postCode": "465-0091",
    "address": "愛知県名古屋市名東区よもぎ台2丁目820",
    "city": "なごや",
    "image": "",
    "url": "https://peace-aichi.com/",
    "latlng": "[35.1762533, 136.9918902]",
    "lat": 35.1762533,
    "lng": 136.9918902,
    "isClosed": ""
  },
  {
    "id": "aichi-museum-27",
    "type": "museum",
    "name": "名古屋市東山動植物園",
    "prefecture": "愛知県",
    "postCode": "464-0804",
    "address": "愛知県名古屋市千種区東山元町3丁目70 東山動植物園",
    "city": "なごや",
    "image": "",
    "url": "https://www.higashiyama.city.nagoya.jp/",
    "latlng": "[35.1565379, 136.9818099]",
    "lat": 35.1565379,
    "lng": 136.9818099,
    "isClosed": ""
  },
  {
    "id": "aichi-museum-28",
    "type": "museum",
    "name": "名古屋城天守閣",
    "prefecture": "愛知県",
    "postCode": "460-0031",
    "address": "愛知県名古屋市中区本丸1−1 名古屋城",
    "city": "なごや",
    "image": "",
    "url": "https://www.nagoyajo.city.nagoya.jp/",
    "latlng": "[35.1847501, 136.8996883]",
    "lat": 35.1847501,
    "lng": 136.8996883,
    "isClosed": ""
  },
  {
    "id": "aichi-museum-29",
    "type": "museum",
    "name": "南山大学人類学博物館",
    "prefecture": "愛知県",
    "postCode": "466-0824",
    "address": "愛知県名古屋市昭和区山里町18 R棟 R棟地下1階",
    "city": "なごや",
    "image": "",
    "url": "https://rci.nanzan-u.ac.jp/museum/",
    "latlng": "[35.1480333, 136.9632332]",
    "lat": 35.1480333,
    "lng": 136.9632332,
    "isClosed": ""
  }
]