[
  {
    "id": "saga-art-1",
    "type": "art",
    "name": "佐賀県立美術館",
    "prefecture": "佐賀県",
    "postCode": "840-0041",
    "address": "佐賀県佐賀市城内1丁目15−23",
    "city": "さが",
    "image": "",
    "url": "https://saga-museum.jp/museum/",
    "latlng": "",
    "lat": "",
    "lng": "",
    "isClosed": ""
  },
  {
    "id": "saga-art-2",
    "type": "art",
    "name": "陽光美術館",
    "prefecture": "佐賀県",
    "postCode": "843-0022",
    "address": "佐賀県武雄市武雄町4075−3 慧洲園·陽光美術館",
    "city": "たけお",
    "image": "",
    "url": "https://www.yokomuseum.jp/",
    "latlng": "",
    "lat": "",
    "lng": "",
    "isClosed": ""
  },
  {
    "id": "saga-art-3",
    "type": "art",
    "name": "有田陶磁美術館",
    "prefecture": "佐賀県",
    "postCode": "844-0004",
    "address": "佐賀県西松浦郡有田町大樽1丁目4−2",
    "city": "ありた",
    "image": "",
    "url": "https://www.town.arita.lg.jp/main/828.html",
    "latlng": "",
    "lat": "",
    "lng": "",
    "isClosed": ""
  },
  {
    "id": "saga-art-4",
    "type": "art",
    "name": "今右衛門古陶磁美術館",
    "prefecture": "佐賀県",
    "postCode": "844-0006",
    "address": "佐賀県西松浦郡有田町赤絵町2丁目1−11",
    "city": "ありた",
    "image": "",
    "url": "https://www.imaemon.co.jp/museum/",
    "latlng": "",
    "lat": "",
    "lng": "",
    "isClosed": ""
  },
  {
    "id": "saga-art-5",
    "type": "art",
    "name": "河村美術館",
    "prefecture": "佐賀県",
    "postCode": "847-0015",
    "address": "佐賀県唐津市北城内6−5",
    "city": "からつ",
    "image": "",
    "url": "https://kawamura.or.jp/",
    "latlng": "",
    "lat": "",
    "lng": "",
    "isClosed": ""
  }
]