[
  {
    "id": "saga-museum-1",
    "type": "museum",
    "name": "祐徳博物館",
    "prefecture": "佐賀県",
    "postCode": "849-1321",
    "address": "佐賀県鹿島市古枝",
    "city": "かしま",
    "image": "",
    "url": "https://www.yutokusan.jp/about/museum/",
    "latlng": "",
    "lat": "",
    "lng": "",
    "isClosed": ""
  },
  {
    "id": "saga-museum-2",
    "type": "museum",
    "name": "佐賀県立名護屋城博物館",
    "prefecture": "佐賀県",
    "postCode": "847-0401",
    "address": "佐賀県唐津市鎮西町名護屋1931−3",
    "city": "からつ",
    "image": "",
    "url": "https://saga-museum.jp/nagoya/",
    "latlng": "",
    "lat": "",
    "lng": "",
    "isClosed": ""
  },
  {
    "id": "saga-museum-3",
    "type": "museum",
    "name": "佐賀県立佐賀城本丸歴史館",
    "prefecture": "佐賀県",
    "postCode": "840-0041",
    "address": "佐賀県佐賀市城内2丁目18−1",
    "city": "さが",
    "image": "",
    "url": "https://saga-museum.jp/sagajou/",
    "latlng": "",
    "lat": "",
    "lng": "",
    "isClosed": ""
  },
  {
    "id": "saga-museum-4",
    "type": "museum",
    "name": "佐賀県立博物館",
    "prefecture": "佐賀県",
    "postCode": "840-0041",
    "address": "佐賀県佐賀市城内1丁目15 佐賀県立博物館",
    "city": "さが",
    "image": "",
    "url": "https://saga-museum.jp/museum/",
    "latlng": "",
    "lat": "",
    "lng": "",
    "isClosed": ""
  },
  {
    "id": "saga-museum-5",
    "type": "museum",
    "name": "徴古館",
    "prefecture": "佐賀県",
    "postCode": "840-0831",
    "address": "佐賀県佐賀市松原2丁目5−22",
    "city": "さが",
    "image": "",
    "url": "https://www.nabeshima.or.jp/main/",
    "latlng": "",
    "lat": "",
    "lng": "",
    "isClosed": ""
  },
  {
    "id": "saga-museum-6",
    "type": "museum",
    "name": "中冨記念くすり博物館",
    "prefecture": "佐賀県",
    "postCode": "841-0004",
    "address": "佐賀県鳥栖市神辺町288−1",
    "city": "とす",
    "image": "",
    "url": "https://nakatomi-museum.or.jp/",
    "latlng": "",
    "lat": "",
    "lng": "",
    "isClosed": ""
  },
  {
    "id": "saga-museum-7",
    "type": "museum",
    "name": "佐賀県立九州陶磁文化館",
    "prefecture": "佐賀県",
    "postCode": "844-8585",
    "address": "佐賀県西松浦郡有田町戸杓乙3100−1",
    "city": "ありた",
    "image": "",
    "url": "https://saga-museum.jp/ceramic/",
    "latlng": "",
    "lat": "",
    "lng": "",
    "isClosed": ""
  },
  {
    "id": "saga-museum-8",
    "type": "museum",
    "name": "有田ポーセリンパーク",
    "prefecture": "佐賀県",
    "postCode": "844-0014",
    "address": "佐賀県西松浦郡有田町戸矢乙340−28",
    "city": "ありた",
    "image": "",
    "url": "https://www.arita-touki.com/",
    "latlng": "",
    "lat": "",
    "lng": "",
    "isClosed": ""
  }
]