[
  {
    "id": "oita-museum-1",
    "type": "museum",
    "name": "大分県立歴史博物館（宇佐風土記の丘）",
    "prefecture": "大分県",
    "postCode": "872-0101",
    "address": "大分県宇佐市高森字京塚710",
    "city": "うさ",
    "image": "",
    "url": "https://www.pref.oita.jp/site/rekishihakubutsukan/",
    "latlng": "",
    "lat": "",
    "lng": "",
    "isClosed": ""
  },
  {
    "id": "oita-museum-2",
    "type": "museum",
    "name": "国東市歴史体験学習館",
    "prefecture": "大分県",
    "postCode": "873-0504",
    "address": "大分県国東市国東町安国寺1639−2",
    "city": "くにさき",
    "image": "",
    "url": "https://www.city.kunisaki.oita.jp/site/yayoinomura/",
    "latlng": "",
    "lat": "",
    "lng": "",
    "isClosed": ""
  },
  {
    "id": "oita-museum-3",
    "type": "museum",
    "name": "竹田市歴史文化館・由学館",
    "prefecture": "大分県",
    "postCode": "878-0013",
    "address": "大分県竹田市竹田2083",
    "city": "たけた",
    "image": "",
    "url": "https://www.city.taketa.oita.jp/bunka_rekishi_kanko/yugakukan/index.html",
    "latlng": "",
    "lat": "",
    "lng": "",
    "isClosed": ""
  },
  {
    "id": "oita-museum-4",
    "type": "museum",
    "name": "中津市歴史博物館",
    "prefecture": "大分県",
    "postCode": "871-0057",
    "address": "大分県中津市三ノ丁1290",
    "city": "なかつ",
    "image": "",
    "url": "http://nakahaku.jp/",
    "latlng": "",
    "lat": "",
    "lng": "",
    "isClosed": ""
  },
  {
    "id": "oita-museum-5",
    "type": "museum",
    "name": "大分県立先哲史料館",
    "prefecture": "大分県",
    "postCode": "870-0008",
    "address": "大分県大分市王子西町14−14−1",
    "city": "おおいた",
    "image": "",
    "url": "https://www.pref.oita.jp/site/sentetsusiryokan/",
    "latlng": "",
    "lat": "",
    "lng": "",
    "isClosed": ""
  },
  {
    "id": "oita-museum-6",
    "type": "museum",
    "name": "久留島武彦記念館",
    "prefecture": "大分県",
    "postCode": "879-4404",
    "address": "大分県玖珠郡玖珠町森855",
    "city": "くす",
    "image": "",
    "url": "http://kurushimatakehiko.com/",
    "latlng": "",
    "lat": "",
    "lng": "",
    "isClosed": ""
  },
  {
    "id": "oita-museum-7",
    "type": "museum",
    "name": "耶馬溪風物館",
    "prefecture": "大分県",
    "postCode": "871-0202",
    "address": "大分県中津市本耶馬渓町曽木2193−1",
    "city": "なかつ",
    "image": "",
    "url": "https://www.city-nakatsu.jp/doc/2015032000841/",
    "latlng": "",
    "lat": "",
    "lng": "",
    "isClosed": ""
  },
  {
    "id": "oita-museum-8",
    "type": "museum",
    "name": "日田市立博物館",
    "prefecture": "大分県",
    "postCode": "877-0003",
    "address": "大分県日田市上城内町2-6",
    "city": "ひた",
    "image": "",
    "url": "https://www.city.hita.oita.jp/shisetsu/hakubutukan/7596.html",
    "latlng": "",
    "lat": "",
    "lng": "",
    "isClosed": ""
  },
  {
    "id": "oita-museum-9",
    "type": "museum",
    "name": "廣瀬資料館",
    "prefecture": "大分県",
    "postCode": "877-0005",
    "address": "大分県日田市豆田町9−7",
    "city": "ひた",
    "image": "",
    "url": "http://hirose-museum.jp/",
    "latlng": "",
    "lat": "",
    "lng": "",
    "isClosed": ""
  },
  {
    "id": "oita-museum-10",
    "type": "museum",
    "name": "大分香りの博物館",
    "prefecture": "大分県",
    "postCode": "874-0000",
    "address": "大分県別府市北石垣48−1",
    "city": "べっぷ",
    "image": "",
    "url": "http://oita-kaori.jp/",
    "latlng": "",
    "lat": "",
    "lng": "",
    "isClosed": ""
  },
  {
    "id": "oita-museum-11",
    "type": "museum",
    "name": "別府大学附属博物館",
    "prefecture": "大分県",
    "postCode": "874-0000",
    "address": "大分県別府市桜ケ丘6",
    "city": "べっぷ",
    "image": "",
    "url": "https://www.beppu-u.ac.jp/research/institutions/museum/",
    "latlng": "",
    "lat": "",
    "lng": "",
    "isClosed": ""
  }
]