[
  {
    "id": "aomori-art-1",
    "type": "art",
    "name": "青森県立美術館",
    "prefecture": "青森県",
    "postCode": "038-0021",
    "address": "青森県青森市安田近野185",
    "city": "あおもり",
    "image": "/img/aomori/museum/aomoriken-tachibi-jutsu-kan.jpg",
    "url": "https://www.aomori-museum.jp/",
    "latlng": "[40.8073424, 140.7007501]",
    "lat": 40.8073424,
    "lng": 140.7007501,
    "isClosed": ""
  },
  {
    "id": "aomori-art-2",
    "type": "art",
    "name": "八戸市美術館",
    "prefecture": "青森県",
    "postCode": "031-0031",
    "address": "青森県八戸市番町10−4",
    "city": "はちのへ",
    "image": "/img/aomori/museum/hachinohe-shi-bijutsukan.jpg",
    "url": "https://hachinohe-art-museum.jp/",
    "latlng": "[40.5117674, 141.4913283]",
    "lat": 40.5117674,
    "lng": 141.4913283,
    "isClosed": ""
  },
  {
    "id": "aomori-art-3",
    "type": "art",
    "name": "弘前れんが倉庫美術館",
    "prefecture": "青森県",
    "postCode": "036-8188",
    "address": "青森県弘前市吉野町2−1",
    "city": "ひろさき",
    "image": "",
    "url": "https://www.hirosaki-moca.jp/",
    "latlng": "[40.5980974, 140.4728797]",
    "lat": 40.5980974,
    "lng": 140.4728797,
    "isClosed": ""
  },
  {
    "id": "aomori-art-4",
    "type": "art",
    "name": "八戸市新美術館",
    "prefecture": "青森県",
    "postCode": "031-0086",
    "address": "青森県八戸市八日町9 ダイヤビル1階",
    "city": "はちのへ",
    "image": "",
    "url": "https://www.city.hachinohe.aomori.jp/section/art/",
    "latlng": "[40.5109329, 141.4925394]",
    "lat": 40.5109329,
    "lng": 141.4925394,
    "isClosed": ""
  },
  {
    "id": "aomori-art-5",
    "type": "art",
    "name": "七戸町立鷹山宇一記念美術館",
    "prefecture": "青森県",
    "postCode": "039-2501",
    "address": "青森県七戸町字荒熊内67-94",
    "city": "しちのへ",
    "image": "",
    "url": "http://www.takayamamuseum.jp/",
    "latlng": "[40.7167707, 141.1552588]",
    "lat": 40.7167707,
    "lng": 141.1552588,
    "isClosed": ""
  },
  {
    "id": "aomori-art-6",
    "type": "art",
    "name": "十和田市現代美術館",
    "prefecture": "青森県",
    "postCode": "034-0082",
    "address": "青森県十和田市西二番町10-9",
    "city": "とわだ",
    "image": "",
    "url": "http://towadaartcenter.com/",
    "latlng": "[40.6140557, 141.209058]",
    "lat": 40.6140557,
    "lng": 141.209058,
    "isClosed": ""
  },
  {
    "id": "aomori-art-7",
    "type": "art",
    "name": "帆風美術館",
    "prefecture": "青森県",
    "postCode": "039-2245",
    "address": "青森県八戸市北インター工業団地1-5-2",
    "city": "はちのへ",
    "image": "",
    "url": "http://www.vanfu.co.jp/service/museum.html",
    "latlng": "[40.5470507, 141.4360478]",
    "lat": 40.5470507,
    "lng": 141.4360478,
    "isClosed": ""
  },
  {
    "id": "aomori-art-8",
    "type": "art",
    "name": "私設　櫻庭利弘美術館",
    "prefecture": "青森県",
    "postCode": "037-0202",
    "address": "青森県五所川原市金木町芦野234-41",
    "city": "ごしょがわら",
    "image": "",
    "url": "http://www.a-bungei.co.jp/contents/sakura.html",
    "latlng": "[40.91477889999999, 140.4484739]",
    "lat": 40.91477889999999,
    "lng": 140.4484739,
    "isClosed": ""
  },
  {
    "id": "aomori-art-9",
    "type": "art",
    "name": "金木小学校郷土美術館",
    "prefecture": "青森県",
    "postCode": "037-0202",
    "address": "青森県五所川原市金木町芦野84-54",
    "city": "ごしょがわら",
    "image": "",
    "url": "",
    "latlng": "[40.9092181, 140.4527606]",
    "lat": 40.9092181,
    "lng": 140.4527606,
    "isClosed": ""
  }
]