[
  {
    "id": "aomori-museum-1",
    "type": "museum",
    "name": "青森県立郷土館",
    "prefecture": "青森県",
    "postCode": "030-0802",
    "address": "青森県青森市本町2丁目8−14",
    "city": "あおもり",
    "image": "/img/aomori/museum/aomoriken-ritsu-kyoudo-kan.jpg",
    "url": "https://www.kyodokan.com/",
    "latlng": "[40.8273042, 140.7486334]",
    "lat": 40.8273042,
    "lng": 140.7486334,
    "isClosed": ""
  },
  {
    "id": "aomori-museum-2",
    "type": "museum",
    "name": "八戸市博物館",
    "prefecture": "青森県",
    "postCode": "039-1166",
    "address": "青森県八戸市根城東構35−1",
    "city": "はちのへ",
    "image": "/img/aomori/museum/hachinohe-shi-hakubutsukan.jpg",
    "url": "https://hachinohe-city-museum.jp/",
    "latlng": "[40.5086856, 141.4644253]",
    "lat": 40.5086856,
    "lng": 141.4644253,
    "isClosed": ""
  },
  {
    "id": "aomori-museum-3",
    "type": "museum",
    "name": "高岡の森弘前藩歴史館",
    "prefecture": "青森県",
    "postCode": "036-1344",
    "address": "青森県弘前市高岡獅子沢128−112",
    "city": "ひろさき",
    "image": "/img/aomori/museum/takaoka-no-morihiro-mae-han-rekishikan.jpg",
    "url": "http://www.city.hirosaki.aomori.jp/takaoka-rekishikan/",
    "latlng": "[40.6225149, 140.3554443]",
    "lat": 40.6225149,
    "lng": 140.3554443,
    "isClosed": ""
  },
  {
    "id": "aomori-museum-4",
    "type": "museum",
    "name": "弘前市立博物館",
    "prefecture": "青森県",
    "postCode": "036-8356",
    "address": "青森県弘前市下白銀町1−6 弘前公園内",
    "city": "ひろさき",
    "image": "/img/aomori/museum/hirosakishi-ritsu-hakubutsukan.jpg",
    "url": "http://www.city.hirosaki.aomori.jp/hakubutsukan/",
    "latlng": "[40.6032799, 140.4631991]",
    "lat": 40.6032799,
    "lng": 140.4631991,
    "isClosed": ""
  },
  {
    "id": "aomori-museum-5",
    "type": "museum",
    "name": "高照神社宝物殿",
    "prefecture": "青森県",
    "postCode": "036-1343",
    "address": "青森県弘前市百沢神馬野87",
    "city": "ひろさき",
    "image": "",
    "url": "",
    "latlng": "[40.64833429999999, 140.3124406]",
    "lat": 40.64833429999999,
    "lng": 140.3124406,
    "isClosed": true
  },
  {
    "id": "aomori-museum-6",
    "type": "museum",
    "name": "世界一小さいりんごグッズ博物館",
    "prefecture": "青森県",
    "postCode": "036-8035",
    "address": "青森県弘前市百石町6－1 和菓子店笹の舎内",
    "city": "ひろさき",
    "image": "",
    "url": "http://www.rag-s.com/company/museum.html",
    "latlng": "[40.6034252, 140.4719168]",
    "lat": 40.6034252,
    "lng": 140.4719168,
    "isClosed": ""
  },
  {
    "id": "aomori-museum-7",
    "type": "museum",
    "name": "あおもり北のまほろば歴史館",
    "prefecture": "青森県",
    "postCode": "038-0002",
    "address": "青森県青森市沖館2-2-1",
    "city": "あおもり",
    "image": "",
    "url": "http://kitanomahoroba.jp/",
    "latlng": "[40.8372368, 140.7253231]",
    "lat": 40.8372368,
    "lng": 140.7253231,
    "isClosed": ""
  },
  {
    "id": "aomori-museum-8",
    "type": "museum",
    "name": "つがる市木造農業者トレーニングセンター縄文館",
    "prefecture": "青森県",
    "postCode": "038-3283",
    "address": "青森県つがる市木造館岡屏風山195",
    "city": "つがる",
    "image": "",
    "url": "",
    "latlng": "[40.8732754, 140.3303459]",
    "lat": 40.8732754,
    "lng": 140.3303459,
    "isClosed": ""
  },
  {
    "id": "aomori-museum-9",
    "type": "museum",
    "name": "つがる市繩文住居展示資料館　カルコ",
    "prefecture": "青森県",
    "postCode": "038-3138",
    "address": "青森県つがる市木造若緑59-1",
    "city": "つがる",
    "image": "",
    "url": "",
    "latlng": "[40.8090821, 140.3808845]",
    "lat": 40.8090821,
    "lng": 140.3808845,
    "isClosed": ""
  },
  {
    "id": "aomori-museum-10",
    "type": "museum",
    "name": "むつ小川原石油備蓄（株）展示室",
    "prefecture": "青森県",
    "postCode": "039-3212",
    "address": "青森県六ヶ所村尾駮二又525－2",
    "city": "ろっかしょ",
    "image": "",
    "url": "",
    "latlng": "[40.9698628, 141.2808567]",
    "lat": 40.9698628,
    "lng": 141.2808567,
    "isClosed": ""
  },
  {
    "id": "aomori-museum-11",
    "type": "museum",
    "name": "むつ市大畑公民館・笹沢魯羊資料室",
    "prefecture": "青森県",
    "postCode": "039-4400",
    "address": "青森県むつ市大畑町中島108-5",
    "city": "むつ",
    "image": "",
    "url": "",
    "latlng": "[41.405099, 141.1692262]",
    "lat": 41.405099,
    "lng": 141.1692262,
    "isClosed": ""
  },
  {
    "id": "aomori-museum-12",
    "type": "museum",
    "name": "むつ市文化財収蔵庫",
    "prefecture": "青森県",
    "postCode": "035-0094",
    "address": "青森県むつ市桜木町5－64",
    "city": "むつ",
    "image": "",
    "url": "",
    "latlng": "[41.2551768, 141.1380176]",
    "lat": 41.2551768,
    "lng": 141.1380176,
    "isClosed": ""
  },
  {
    "id": "aomori-museum-13",
    "type": "museum",
    "name": "むつ科学技術館",
    "prefecture": "青森県",
    "postCode": "035-0022",
    "address": "青森県むつ市関根北関根693",
    "city": "むつ",
    "image": "",
    "url": "http://www.jmsfmml.or.jp/msm.htm",
    "latlng": "[41.3638307, 141.2364688]",
    "lat": 41.3638307,
    "lng": 141.2364688,
    "isClosed": ""
  },
  {
    "id": "aomori-museum-14",
    "type": "museum",
    "name": "七戸中央公民館　資料展示室",
    "prefecture": "青森県",
    "postCode": "039-2701",
    "address": "青森県七戸町天間舘森ノ上",
    "city": "しちのへ",
    "image": "",
    "url": "",
    "latlng": "[40.7456187, 141.1560681]",
    "lat": 40.7456187,
    "lng": 141.1560681,
    "isClosed": ""
  },
  {
    "id": "aomori-museum-15",
    "type": "museum",
    "name": "三内丸山遺跡センター",
    "prefecture": "青森県",
    "postCode": "038-0031",
    "address": "青森県青森市三内字丸山305",
    "city": "あおもり",
    "image": "",
    "url": "https://sannaimaruyama.pref.aomori.jp/",
    "latlng": "[40.8083915, 140.6971454]",
    "lat": 40.8083915,
    "lng": 140.6971454,
    "isClosed": ""
  },
  {
    "id": "aomori-museum-16",
    "type": "museum",
    "name": "三戸町立歴史民俗資料館",
    "prefecture": "青森県",
    "postCode": "039-0112",
    "address": "青森県三戸町城山公園",
    "city": "さんのへ",
    "image": "",
    "url": "",
    "latlng": "[40.3819126, 141.2653136]",
    "lat": 40.3819126,
    "lng": 141.2653136,
    "isClosed": ""
  },
  {
    "id": "aomori-museum-17",
    "type": "museum",
    "name": "三沢市寺山修司記念館",
    "prefecture": "青森県",
    "postCode": "033-0022",
    "address": "青森県三沢市三沢淋代平116-2955",
    "city": "みさわ",
    "image": "",
    "url": "https://www.terayamaworld.com/museum.html",
    "latlng": "[40.7422786, 141.3652069]",
    "lat": 40.7422786,
    "lng": 141.3652069,
    "isClosed": ""
  },
  {
    "id": "aomori-museum-18",
    "type": "museum",
    "name": "三沢市歴史民俗資料館",
    "prefecture": "青森県",
    "postCode": "033-0022",
    "address": "青森県三沢市三沢淋代平116-2955",
    "city": "みさわ",
    "image": "",
    "url": "",
    "latlng": "[40.7422786, 141.3652069]",
    "lat": 40.7422786,
    "lng": 141.3652069,
    "isClosed": ""
  },
  {
    "id": "aomori-museum-19",
    "type": "museum",
    "name": "下北文化会館科学展示ホール・プラネタリウム",
    "prefecture": "青森県",
    "postCode": "035-0072",
    "address": "青森県むつ市金谷1－10－1",
    "city": "むつ",
    "image": "",
    "url": "",
    "latlng": "[41.2954873, 141.1980682]",
    "lat": 41.2954873,
    "lng": 141.1980682,
    "isClosed": ""
  },
  {
    "id": "aomori-museum-20",
    "type": "museum",
    "name": "中泊町博物館",
    "prefecture": "青森県",
    "postCode": "037-0305",
    "address": "青森県中泊町中里紅葉坂210",
    "city": "なかどまり",
    "image": "",
    "url": "http://www2.town.nakadomari.aomori.jp/hakubutsukan/",
    "latlng": "[40.961152, 140.4328645]",
    "lat": 40.961152,
    "lng": 140.4328645,
    "isClosed": ""
  },
  {
    "id": "aomori-museum-21",
    "type": "museum",
    "name": "五所川原市市浦歴史民俗資料館",
    "prefecture": "青森県",
    "postCode": "037-0403",
    "address": "青森県五所川原市十三土佐地内",
    "city": "ごしょがわら",
    "image": "",
    "url": "http://www.city.goshogawara.lg.jp/kyouiku/bunka/shiurarekimin.html",
    "latlng": "[41.0468818, 140.3324047]",
    "lat": 41.0468818,
    "lng": 140.3324047,
    "isClosed": ""
  },
  {
    "id": "aomori-museum-22",
    "type": "museum",
    "name": "佐井村海峡ミュウジアム",
    "prefecture": "青森県",
    "postCode": "039-4711",
    "address": "青森県佐井村佐井112",
    "city": "さい",
    "image": "",
    "url": "",
    "latlng": "[41.3945, 140.8744042]",
    "lat": 41.3945,
    "lng": 140.8744042,
    "isClosed": ""
  },
  {
    "id": "aomori-museum-23",
    "type": "museum",
    "name": "八戸クリニック街かどミュージアム",
    "prefecture": "青森県",
    "postCode": "031-0081",
    "address": "青森県八戸市柏崎1丁目8-29",
    "city": "はちのへ",
    "image": "",
    "url": "http://machikadomuse.org/index.html",
    "latlng": "[40.5123066, 141.4951905]",
    "lat": 40.5123066,
    "lng": 141.4951905,
    "isClosed": ""
  },
  {
    "id": "aomori-museum-24",
    "type": "museum",
    "name": "八戸公園（こどもの国・八戸植物公園）",
    "prefecture": "青森県",
    "postCode": "031-0012",
    "address": "青森県八戸市十日市天摩33-2",
    "city": "はちのへ",
    "image": "",
    "url": "https://www.city.hachinohe.aomori.jp/index.cfm/10,11892,32,html#riyouannai",
    "latlng": "[40.4758188, 141.5132002]",
    "lat": 40.4758188,
    "lng": 141.5132002,
    "isClosed": ""
  },
  {
    "id": "aomori-museum-25",
    "type": "museum",
    "name": "八戸市南郷歴史民俗資料館",
    "prefecture": "青森県",
    "postCode": "031-0202",
    "address": "青森県八戸市南郷区島守小山田8",
    "city": "はちのへ",
    "image": "",
    "url": "",
    "latlng": "[40.41486390000001, 141.4871729]",
    "lat": 40.41486390000001,
    "lng": 141.4871729,
    "isClosed": ""
  },
  {
    "id": "aomori-museum-26",
    "type": "museum",
    "name": "八戸市史跡根城の広場",
    "prefecture": "青森県",
    "postCode": "039-1166",
    "address": "青森県八戸市根城根城",
    "city": "はちのへ",
    "image": "",
    "url": "",
    "latlng": "[40.5048581, 141.4750004]",
    "lat": 40.5048581,
    "lng": 141.4750004,
    "isClosed": ""
  },
  {
    "id": "aomori-museum-27",
    "type": "museum",
    "name": "八戸市埋蔵文化財センター 是川縄文館",
    "prefecture": "青森県",
    "postCode": "031-0023",
    "address": "青森県八戸市大字是川字横山１",
    "city": "はちのへ",
    "image": "",
    "url": "https://www.korekawa-jomon.jp/",
    "latlng": "[40.47561899999999, 141.4882769]",
    "lat": 40.47561899999999,
    "lng": 141.4882769,
    "isClosed": ""
  },
  {
    "id": "aomori-museum-28",
    "type": "museum",
    "name": "八戸市水産科学館",
    "prefecture": "青森県",
    "postCode": "031-0841",
    "address": "青森県八戸市鮫町下松苗場14－33",
    "city": "はちのへ",
    "image": "",
    "url": "",
    "latlng": "[40.5396556, 141.5627921]",
    "lat": 40.5396556,
    "lng": 141.5627921,
    "isClosed": ""
  },
  {
    "id": "aomori-museum-29",
    "type": "museum",
    "name": "八戸市縄文学習館",
    "prefecture": "青森県",
    "postCode": "031-0023",
    "address": "青森県八戸市是川中居3-1",
    "city": "はちのへ",
    "image": "",
    "url": "",
    "latlng": "[40.4745102, 141.490911]",
    "lat": 40.4745102,
    "lng": 141.490911,
    "isClosed": ""
  },
  {
    "id": "aomori-museum-30",
    "type": "museum",
    "name": "八戸市視聴覚センター・児童科学館",
    "prefecture": "青森県",
    "postCode": "031-0001",
    "address": "青森県八戸市類家4-3-1",
    "city": "はちのへ",
    "image": "",
    "url": "http://www.kagakukan-8.com/",
    "latlng": "[40.5078246, 141.5056985]",
    "lat": 40.5078246,
    "lng": 141.5056985,
    "isClosed": ""
  },
  {
    "id": "aomori-museum-31",
    "type": "museum",
    "name": "八戸火力発電所ＰＲ館",
    "prefecture": "青森県",
    "postCode": "039-1161",
    "address": "青森県八戸市河原木宇衛河原1－1",
    "city": "はちのへ",
    "image": "",
    "url": "",
    "latlng": "[40.5322634, 141.4711699]",
    "lat": 40.5322634,
    "lng": 141.4711699,
    "isClosed": ""
  },
  {
    "id": "aomori-museum-32",
    "type": "museum",
    "name": "六ケ所原燃ＰＲセンター",
    "prefecture": "青森県",
    "postCode": "039-3212",
    "address": "青森県六ヶ所村尾駮上尾駮2-42",
    "city": "ろっかしょ",
    "image": "",
    "url": "http://6prc.jp/",
    "latlng": "[40.9792728, 141.334593]",
    "lat": 40.9792728,
    "lng": 141.334593,
    "isClosed": ""
  },
  {
    "id": "aomori-museum-33",
    "type": "museum",
    "name": "六ヶ所村立郷土館",
    "prefecture": "青森県",
    "postCode": "039-3212",
    "address": "青森県六ヶ所村尾駮野附535",
    "city": "ろっかしょ",
    "image": "",
    "url": "",
    "latlng": "[40.9799479, 141.3400199]",
    "lat": 40.9799479,
    "lng": 141.3400199,
    "isClosed": ""
  },
  {
    "id": "aomori-museum-34",
    "type": "museum",
    "name": "六戸町郷土資料館",
    "prefecture": "青森県",
    "postCode": "039-2371",
    "address": "青森県六戸町犬落瀬柴山3－9",
    "city": "ろくのへ",
    "image": "",
    "url": "",
    "latlng": "[40.6121529, 141.3314031]",
    "lat": 40.6121529,
    "lng": 141.3314031,
    "isClosed": ""
  },
  {
    "id": "aomori-museum-35",
    "type": "museum",
    "name": "円覚寺寺宝館",
    "prefecture": "青森県",
    "postCode": "038-2324",
    "address": "青森県深浦町深浦浜町",
    "city": "ふかうら",
    "image": "",
    "url": "",
    "latlng": "[40.642081, 139.927455]",
    "lat": 40.642081,
    "lng": 139.927455,
    "isClosed": ""
  },
  {
    "id": "aomori-museum-36",
    "type": "museum",
    "name": "十和田ビジターセンター",
    "prefecture": "青森県",
    "postCode": "018-5501",
    "address": "青森県和田市大字奥瀬字十和田湖畔休屋486番地",
    "city": "わだ",
    "image": "",
    "url": "http://www.env.go.jp/park/towada/guide/towadavc/",
    "latlng": "[40.4273746, 140.8950428]",
    "lat": 40.4273746,
    "lng": 140.8950428,
    "isClosed": ""
  },
  {
    "id": "aomori-museum-37",
    "type": "museum",
    "name": "十和田市十和田湖民俗資料館",
    "prefecture": "青森県",
    "postCode": "034-0301",
    "address": "青森県十和田市奥瀬栃久保80",
    "city": "とわだ",
    "image": "",
    "url": "http://www.city.towada.lg.jp/docs/2015052000036/",
    "latlng": "[40.58400210000001, 141.0222958]",
    "lat": 40.58400210000001,
    "lng": 141.0222958,
    "isClosed": ""
  },
  {
    "id": "aomori-museum-38",
    "type": "museum",
    "name": "十和田市郷土館",
    "prefecture": "青森県",
    "postCode": "034-0083",
    "address": "青森県十和田市大字奥瀬字中平61番地8",
    "city": "とわだ",
    "image": "",
    "url": "http://www.city.towada.lg.jp/docs/2012022100017/",
    "latlng": "[40.5867931, 141.1076057]",
    "lat": 40.5867931,
    "lng": 141.1076057,
    "isClosed": ""
  },
  {
    "id": "aomori-museum-39",
    "type": "museum",
    "name": "十和田市馬事公苑（称徳館）",
    "prefecture": "青森県",
    "postCode": "034-0106",
    "address": "青森県十和田市大字深持字梅山1-1",
    "city": "とわだ",
    "image": "",
    "url": "http://komakkoland.jp/facility_shoutoku.html",
    "latlng": "[40.6147985, 141.1292583]",
    "lat": 40.6147985,
    "lng": 141.1292583,
    "isClosed": ""
  },
  {
    "id": "aomori-museum-40",
    "type": "museum",
    "name": "大山ふるさと資料館",
    "prefecture": "青森県",
    "postCode": "030-1307",
    "address": "青森県外ヶ浜町蟹田大平沢辺34-3",
    "city": "そとがはま",
    "image": "",
    "url": "",
    "latlng": "[41.0641133, 140.5565096]",
    "lat": 41.0641133,
    "lng": 140.5565096,
    "isClosed": ""
  },
  {
    "id": "aomori-museum-41",
    "type": "museum",
    "name": "大山将棋記念館",
    "prefecture": "青森県",
    "postCode": "039-2225",
    "address": "青森県おいらせ町下前田144-1",
    "city": "おいらせ",
    "image": "",
    "url": "",
    "latlng": "[40.6044681, 141.432952]",
    "lat": 40.6044681,
    "lng": 141.432952,
    "isClosed": ""
  },
  {
    "id": "aomori-museum-42",
    "type": "museum",
    "name": "大湊地方総監部北洋館",
    "prefecture": "青森県",
    "postCode": "035-0093",
    "address": "青森県むつ市大湊町2－50",
    "city": "むつ",
    "image": "",
    "url": "",
    "latlng": "[41.2560264, 141.1433839]",
    "lat": 41.2560264,
    "lng": 141.1433839,
    "isClosed": ""
  },
  {
    "id": "aomori-museum-43",
    "type": "museum",
    "name": "太宰治記念館「斜陽館」",
    "prefecture": "青森県",
    "postCode": "037-0202",
    "address": "青森県五所川原市金木町朝日山412-1",
    "city": "ごしょがわら",
    "image": "",
    "url": "http://www.kanagi-gc.net/index.html",
    "latlng": "[40.9028265, 140.4553263]",
    "lat": 40.9028265,
    "lng": 140.4553263,
    "isClosed": ""
  },
  {
    "id": "aomori-museum-44",
    "type": "museum",
    "name": "小説「津軽」の像記念館",
    "prefecture": "青森県",
    "postCode": "037-0511",
    "address": "青森県中泊町小泊砂山1080-1",
    "city": "なかどまり",
    "image": "",
    "url": "",
    "latlng": "[41.1297337, 140.3105635]",
    "lat": 41.1297337,
    "lng": 140.3105635,
    "isClosed": ""
  },
  {
    "id": "aomori-museum-45",
    "type": "museum",
    "name": "常盤ふるさと資料館あすか",
    "prefecture": "青森県",
    "postCode": "038-1200",
    "address": "青森県藤崎町水木村元15-1",
    "city": "ふじさき",
    "image": "",
    "url": "",
    "latlng": "[40.6744737, 140.5413026]",
    "lat": 40.6744737,
    "lng": 140.5413026,
    "isClosed": ""
  },
  {
    "id": "aomori-museum-46",
    "type": "museum",
    "name": "平内町歴史民俗資料館",
    "prefecture": "青森県",
    "postCode": "039-3321",
    "address": "青森県平内町小湊小湊80",
    "city": "ひらない",
    "image": "",
    "url": "",
    "latlng": "[40.91560510000001, 140.9589678]",
    "lat": 40.91560510000001,
    "lng": 140.9589678,
    "isClosed": ""
  },
  {
    "id": "aomori-museum-47",
    "type": "museum",
    "name": "平舘村立中央公民館",
    "prefecture": "青森県",
    "postCode": "030-1411",
    "address": "青森県外ヶ浜町平舘根岸湯ノ沢163-3",
    "city": "そとがはま",
    "image": "",
    "url": "",
    "latlng": "[41.1495198, 140.6369578]",
    "lat": 41.1495198,
    "lng": 140.6369578,
    "isClosed": ""
  },
  {
    "id": "aomori-museum-48",
    "type": "museum",
    "name": "平賀町郷土資料館",
    "prefecture": "青森県",
    "postCode": "036-0102",
    "address": "青森県平川市光城2-30-1 平賀町文化センター内",
    "city": "ひらかわ",
    "image": "",
    "url": "",
    "latlng": "[40.5905315, 140.5616935]",
    "lat": 40.5905315,
    "lng": 140.5616935,
    "isClosed": ""
  },
  {
    "id": "aomori-museum-49",
    "type": "museum",
    "name": "弘前城天守　（弘前城史料館）",
    "prefecture": "青森県",
    "postCode": "036-8356",
    "address": "青森県弘前市下白銀町1 弘前公園内",
    "city": "ひろさき",
    "image": "",
    "url": "http://www.hirosakipark.or.jp/hirosakipark/tensyu_setumei.html",
    "latlng": "[40.6077066, 140.4643675]",
    "lat": 40.6077066,
    "lng": 140.4643675,
    "isClosed": ""
  },
  {
    "id": "aomori-museum-50",
    "type": "museum",
    "name": "弘前市立観光館",
    "prefecture": "青森県",
    "postCode": "036-8588",
    "address": "青森県弘前市下白銀町2－1",
    "city": "ひろさき",
    "image": "",
    "url": "",
    "latlng": "[40.6027074, 140.4658211]",
    "lat": 40.6027074,
    "lng": 140.4658211,
    "isClosed": ""
  },
  {
    "id": "aomori-museum-51",
    "type": "museum",
    "name": "弘前市立郷土文学館",
    "prefecture": "青森県",
    "postCode": "036-8356",
    "address": "青森県弘前市下白銀町2-1",
    "city": "ひろさき",
    "image": "",
    "url": "",
    "latlng": "[40.6027074, 140.4658211]",
    "lat": 40.6027074,
    "lng": 140.4658211,
    "isClosed": ""
  },
  {
    "id": "aomori-museum-52",
    "type": "museum",
    "name": "弘前文化センター",
    "prefecture": "青森県",
    "postCode": "036-8356",
    "address": "青森県弘前市下白銀町19－4",
    "city": "ひろさき",
    "image": "",
    "url": "",
    "latlng": "[40.6069881, 140.4693014]",
    "lat": 40.6069881,
    "lng": 140.4693014,
    "isClosed": ""
  },
  {
    "id": "aomori-museum-53",
    "type": "museum",
    "name": "斗南藩記念観光村　三沢市先人記念館",
    "prefecture": "青森県",
    "postCode": "033-0164",
    "address": "青森県三沢市谷地頭4－298－652",
    "city": "みさわ",
    "image": "",
    "url": "http://senjin.misawasi.com/",
    "latlng": "[40.7856612, 141.3640405]",
    "lat": 40.7856612,
    "lng": 141.3640405,
    "isClosed": ""
  },
  {
    "id": "aomori-museum-54",
    "type": "museum",
    "name": "新渡戸記念館",
    "prefecture": "青森県",
    "postCode": "034-0031",
    "address": "青森県十和田市東3-24-1",
    "city": "とわだ",
    "image": "",
    "url": "http://www.nitobe.jp/",
    "latlng": "[40.6047357, 141.1937237]",
    "lat": 40.6047357,
    "lng": 141.1937237,
    "isClosed": ""
  },
  {
    "id": "aomori-museum-55",
    "type": "museum",
    "name": "星と森のロマントピア　森林科学館",
    "prefecture": "青森県",
    "postCode": "036-1500",
    "address": "青森県弘前市水木在家桜井113-2",
    "city": "ひろさき",
    "image": "",
    "url": "http://www.romantopia.net/",
    "latlng": "[40.5723294, 140.3898374]",
    "lat": 40.5723294,
    "lng": 140.3898374,
    "isClosed": ""
  },
  {
    "id": "aomori-museum-56",
    "type": "museum",
    "name": "東八甲田家族旅行村",
    "prefecture": "青森県",
    "postCode": "039-2500",
    "address": "青森県七戸町左国地内142-1",
    "city": "しちのへ",
    "image": "",
    "url": "",
    "latlng": "[40.6974224, 141.1510243]",
    "lat": 40.6974224,
    "lng": 141.1510243,
    "isClosed": ""
  },
  {
    "id": "aomori-museum-57",
    "type": "museum",
    "name": "東北大学理学部附属　八甲田山植物実験所",
    "prefecture": "青森県",
    "postCode": "038-0000",
    "address": "青森県青森市酸ヶ湯",
    "city": "あおもり",
    "image": "",
    "url": "",
    "latlng": "[40.6479876, 140.8482922]",
    "lat": 40.6479876,
    "lng": 140.8482922,
    "isClosed": ""
  },
  {
    "id": "aomori-museum-58",
    "type": "museum",
    "name": "東北町歴史民俗資料館",
    "prefecture": "青森県",
    "postCode": "039-2401",
    "address": "青森県東北町上野上野191-30",
    "city": "とうほく",
    "image": "",
    "url": "",
    "latlng": "[40.7413496, 141.2569524]",
    "lat": 40.7413496,
    "lng": 141.2569524,
    "isClosed": ""
  },
  {
    "id": "aomori-museum-59",
    "type": "museum",
    "name": "東通原子力発電所ＰＲ施設（トントゥビレッジ）",
    "prefecture": "青森県",
    "postCode": "039-4223",
    "address": "青森県東通村小田野沢見知川山1－809",
    "city": "ひがしどおり",
    "image": "",
    "url": "",
    "latlng": "[40.8452191, 140.4367312]",
    "lat": 40.8452191,
    "lng": 140.4367312,
    "isClosed": ""
  },
  {
    "id": "aomori-museum-60",
    "type": "museum",
    "name": "板柳町立郷土資料館",
    "prefecture": "青森県",
    "postCode": "038-3672",
    "address": "青森県板柳町灰沼岩井70",
    "city": "いたやなぎ",
    "image": "",
    "url": "",
    "latlng": "[40.7020922, 140.4560786]",
    "lat": 40.7020922,
    "lng": 140.4560786,
    "isClosed": ""
  },
  {
    "id": "aomori-museum-61",
    "type": "museum",
    "name": "棟方志功記念館",
    "prefecture": "青森県",
    "postCode": "030-0813",
    "address": "青森県青森市松原2-1-2",
    "city": "あおもり",
    "image": "",
    "url": "http://munakatashiko-museum.jp/",
    "latlng": "[40.8194418, 140.7599688]",
    "lat": 40.8194418,
    "lng": 140.7599688,
    "isClosed": ""
  },
  {
    "id": "aomori-museum-62",
    "type": "museum",
    "name": "森田歴史民俗資料館",
    "prefecture": "青森県",
    "postCode": "038-2816",
    "address": "青森県つがる市森田町森田月見野340-2",
    "city": "つがる",
    "image": "",
    "url": "https://www.city.tsugaru.aomori.jp/soshiki/kyoiku/syakaikyoiku/sihakukan/1790.html",
    "latlng": "[40.777905, 140.33943]",
    "lat": 40.777905,
    "lng": 140.33943,
    "isClosed": ""
  },
  {
    "id": "aomori-museum-63",
    "type": "museum",
    "name": "櫛引八幡宮　国宝館",
    "prefecture": "青森県",
    "postCode": "039-1105",
    "address": "青森県八戸市八幡八幡丁3",
    "city": "はちのへ",
    "image": "",
    "url": "http://www.kushihikihachimangu.com/treasure/",
    "latlng": "[40.4901523, 141.4347718]",
    "lat": 40.4901523,
    "lng": 141.4347718,
    "isClosed": ""
  },
  {
    "id": "aomori-museum-64",
    "type": "museum",
    "name": "法光寺宝物館",
    "prefecture": "青森県",
    "postCode": "039-0506",
    "address": "青森県南部町法光寺法光寺20",
    "city": "なんぶ",
    "image": "",
    "url": "",
    "latlng": "[40.387472, 141.3375073]",
    "lat": 40.387472,
    "lng": 141.3375073,
    "isClosed": ""
  },
  {
    "id": "aomori-museum-65",
    "type": "museum",
    "name": "津軽こけし館",
    "prefecture": "青森県",
    "postCode": "036-0412",
    "address": "青森県黒石市袋富山72-1",
    "city": "くろいし",
    "image": "",
    "url": "http://tsugarukokeshi.com/",
    "latlng": "[40.606341, 140.6765124]",
    "lat": 40.606341,
    "lng": 140.6765124,
    "isClosed": ""
  },
  {
    "id": "aomori-museum-66",
    "type": "museum",
    "name": "津軽三味線会館",
    "prefecture": "青森県",
    "postCode": "037-0202",
    "address": "青森県五所川原市金木町朝日山189-3",
    "city": "ごしょがわら",
    "image": "",
    "url": "http://www.kanagi-gc.net/index.html",
    "latlng": "[40.9030095, 140.4542718]",
    "lat": 40.9030095,
    "lng": 140.4542718,
    "isClosed": ""
  },
  {
    "id": "aomori-museum-67",
    "type": "museum",
    "name": "津軽伝承工芸館",
    "prefecture": "青森県",
    "postCode": "036-0412",
    "address": "青森県黒石市袋富山65－1",
    "city": "くろいし",
    "image": "",
    "url": "",
    "latlng": "[40.6053849, 140.6758846]",
    "lat": 40.6053849,
    "lng": 140.6758846,
    "isClosed": ""
  },
  {
    "id": "aomori-museum-68",
    "type": "museum",
    "name": "津軽藩ねぷた村",
    "prefecture": "青森県",
    "postCode": "036-8332",
    "address": "青森県弘前市亀甲町61",
    "city": "ひろさき",
    "image": "",
    "url": "http://www.neputamura.com/",
    "latlng": "[40.6110739, 140.4693216]",
    "lat": 40.6110739,
    "lng": 140.4693216,
    "isClosed": ""
  },
  {
    "id": "aomori-museum-69",
    "type": "museum",
    "name": "深浦町歴史民俗資料館",
    "prefecture": "青森県",
    "postCode": "038-2324",
    "address": "青森県深浦町深浦苗代沢80－1",
    "city": "ふかうら",
    "image": "",
    "url": "http://www.town.fukaura.lg.jp/governmentCulture/97.html",
    "latlng": "[40.6470683, 139.9283641]",
    "lat": 40.6470683,
    "lng": 139.9283641,
    "isClosed": ""
  },
  {
    "id": "aomori-museum-70",
    "type": "museum",
    "name": "湊ふるさと館",
    "prefecture": "青森県",
    "postCode": "031-0822",
    "address": "青森県八戸市白銀町右新井田道13－2 八戸市立湊中学校内",
    "city": "はちのへ",
    "image": "",
    "url": "",
    "latlng": "[40.51574, 141.533891]",
    "lat": 40.51574,
    "lng": 141.533891,
    "isClosed": ""
  },
  {
    "id": "aomori-museum-71",
    "type": "museum",
    "name": "田子町ガーリックセンター",
    "prefecture": "青森県",
    "postCode": "039-0201",
    "address": "青森県田子町大字田子字田子11",
    "city": "たっこ",
    "image": "",
    "url": "",
    "latlng": "[40.3400809, 141.1493913]",
    "lat": 40.3400809,
    "lng": 141.1493913,
    "isClosed": ""
  },
  {
    "id": "aomori-museum-72",
    "type": "museum",
    "name": "田舎館村埋蔵文化財センター・田舎館村博物館",
    "prefecture": "青森県",
    "postCode": "038-1111",
    "address": "青森県田舎館村高樋大曲63",
    "city": "いなかだて",
    "image": "",
    "url": "http://www.vill.inakadate.lg.jp/_common/themes/inakadate/maibun_hp/",
    "latlng": "[40.6331716, 140.5775465]",
    "lat": 40.6331716,
    "lng": 140.5775465,
    "isClosed": ""
  },
  {
    "id": "aomori-museum-73",
    "type": "museum",
    "name": "秋田雨雀記念館",
    "prefecture": "青森県",
    "postCode": "036-0306",
    "address": "青森県黒石市中町5（津軽こみせ2F）",
    "city": "くろいし",
    "image": "",
    "url": "",
    "latlng": "[40.6446407, 140.5966056]",
    "lat": 40.6446407,
    "lng": 140.5966056,
    "isClosed": ""
  },
  {
    "id": "aomori-museum-74",
    "type": "museum",
    "name": "立佞武多の館",
    "prefecture": "青森県",
    "postCode": "037-0063",
    "address": "青森県五所川原市大町21－1",
    "city": "ごしょがわら",
    "image": "",
    "url": "http://www.tachineputa.jp/",
    "latlng": "[40.8102005, 140.4442884]",
    "lat": 40.8102005,
    "lng": 140.4442884,
    "isClosed": ""
  },
  {
    "id": "aomori-museum-75",
    "type": "museum",
    "name": "羽仁もと子記念館・八戸友の家",
    "prefecture": "青森県",
    "postCode": "039-1167",
    "address": "青森県八戸市沢里古宮35－3",
    "city": "はちのへ",
    "image": "",
    "url": "",
    "latlng": "[40.495837, 141.4715253]",
    "lat": 40.495837,
    "lng": 141.4715253,
    "isClosed": ""
  },
  {
    "id": "aomori-museum-76",
    "type": "museum",
    "name": "藤田記念考古館",
    "prefecture": "青森県",
    "postCode": "036-8207",
    "address": "青森県弘前市上白銀町8－1",
    "city": "ひろさき",
    "image": "",
    "url": "",
    "latlng": "[40.603798, 140.4614086]",
    "lat": 40.603798,
    "lng": 140.4614086,
    "isClosed": ""
  },
  {
    "id": "aomori-museum-77",
    "type": "museum",
    "name": "野辺地町立歴史民俗資料館",
    "prefecture": "青森県",
    "postCode": "039-3131",
    "address": "青森県野辺地町1月3日",
    "city": "のへじ",
    "image": "",
    "url": "",
    "latlng": "[40.86446129999999, 141.1287144]",
    "lat": 40.86446129999999,
    "lng": 141.1287144,
    "isClosed": ""
  },
  {
    "id": "aomori-museum-78",
    "type": "museum",
    "name": "陸上自衛隊八戸駐屯地　防衛館",
    "prefecture": "青森県",
    "postCode": "039-2241",
    "address": "青森県八戸市市川町桔梗野官地",
    "city": "はちのへ",
    "image": "",
    "url": "",
    "latlng": "[40.5560521, 141.4549936]",
    "lat": 40.5560521,
    "lng": 141.4549936,
    "isClosed": ""
  },
  {
    "id": "aomori-museum-79",
    "type": "museum",
    "name": "青函トンネル記念館",
    "prefecture": "青森県",
    "postCode": "030-1700",
    "address": "青森県外ヶ浜町三厩龍浜99",
    "city": "そとがはま",
    "image": "",
    "url": "http://seikan-tunnel-museum.com/",
    "latlng": "[41.2539559, 140.3466836]",
    "lat": 41.2539559,
    "lng": 140.3466836,
    "isClosed": ""
  },
  {
    "id": "aomori-museum-80",
    "type": "museum",
    "name": "青森市中世の館",
    "prefecture": "青森県",
    "postCode": "038-1311",
    "address": "青森県青森市浪岡岡田43",
    "city": "あおもり",
    "image": "",
    "url": "",
    "latlng": "[40.7147176, 140.5998214]",
    "lat": 40.7147176,
    "lng": 140.5998214,
    "isClosed": ""
  },
  {
    "id": "aomori-museum-81",
    "type": "museum",
    "name": "青森市八甲田山雪中行軍遭難資料館",
    "prefecture": "青森県",
    "postCode": "030-0943",
    "address": "青森県青森市幸畑阿部野163-4",
    "city": "あおもり",
    "image": "",
    "url": "http://www.moyahills.jp/hakkoda/index.html",
    "latlng": "[40.7847594, 140.7896954]",
    "lat": 40.7847594,
    "lng": 140.7896954,
    "isClosed": ""
  },
  {
    "id": "aomori-museum-82",
    "type": "museum",
    "name": "青森市森林博物館",
    "prefecture": "青森県",
    "postCode": "038-0012",
    "address": "青森県青森市柳川2-4-37",
    "city": "あおもり",
    "image": "",
    "url": "http://www.aomori-shi.shinrinhakubutsukan.jp/",
    "latlng": "[40.831503, 140.7258215]",
    "lat": 40.831503,
    "lng": 140.7258215,
    "isClosed": ""
  },
  {
    "id": "aomori-museum-83",
    "type": "museum",
    "name": "青森県スポーツ資料館",
    "prefecture": "青森県",
    "postCode": "038-0021",
    "address": "青森県青森市安田近野155-2 県総合運動公園",
    "city": "あおもり",
    "image": "",
    "url": "",
    "latlng": "[40.8063204, 140.7064785]",
    "lat": 40.8063204,
    "lng": 140.7064785,
    "isClosed": ""
  },
  {
    "id": "aomori-museum-84",
    "type": "museum",
    "name": "青森県立三沢航空科学館",
    "prefecture": "青森県",
    "postCode": "033-0022",
    "address": "青森県三沢市三沢北山158",
    "city": "みさわ",
    "image": "",
    "url": "http://www.kokukagaku.jp/",
    "latlng": "[40.7083057, 141.3906591]",
    "lat": 40.7083057,
    "lng": 141.3906591,
    "isClosed": ""
  },
  {
    "id": "aomori-museum-85",
    "type": "museum",
    "name": "青森県観光物産館 アスパム",
    "prefecture": "青森県",
    "postCode": "030-0803",
    "address": "青森県青森市安方1-1-40",
    "city": "あおもり",
    "image": "",
    "url": "http://www.aomori-kanko.or.jp/",
    "latlng": "[40.829786, 140.7411462]",
    "lat": 40.829786,
    "lng": 140.7411462,
    "isClosed": ""
  },
  {
    "id": "aomori-museum-86",
    "type": "museum",
    "name": "青森県近代文学館",
    "prefecture": "青森県",
    "postCode": "030-0184",
    "address": "青森県青森市荒川字藤戸119－7　青森県立図書館2階",
    "city": "あおもり",
    "image": "",
    "url": "http://www.plib.pref.aomori.lg.jp/viewer/info.html?id=30",
    "latlng": "[40.79596, 140.7386215]",
    "lat": 40.79596,
    "lng": 140.7386215,
    "isClosed": ""
  },
  {
    "id": "aomori-museum-87",
    "type": "museum",
    "name": "青森県防災教育センター",
    "prefecture": "青森県",
    "postCode": "038-0042",
    "address": "青森県青森市新城天田内183－3 青森県消防学校内",
    "city": "あおもり",
    "image": "",
    "url": "https://www.pref.aomori.lg.jp/life/bosai/bosaikyoiku.html",
    "latlng": "[40.8383212, 140.6794244]",
    "lat": 40.8383212,
    "lng": 140.6794244,
    "isClosed": ""
  },
  {
    "id": "aomori-museum-88",
    "type": "museum",
    "name": "食の文化資料館「包」",
    "prefecture": "青森県",
    "postCode": "039-1103",
    "address": "青森県八戸市長苗代二分谷地1-35 八戸総合卸センター南-4",
    "city": "はちのへ",
    "image": "",
    "url": "",
    "latlng": "[40.52115, 141.4482294]",
    "lat": 40.52115,
    "lng": 141.4482294,
    "isClosed": ""
  },
  {
    "id": "aomori-museum-89",
    "type": "museum",
    "name": "鰺ヶ沢町郷土文化保存伝習館　光信公の館",
    "prefecture": "青森県",
    "postCode": "038-2725",
    "address": "青森県鰺ヶ沢町大字種里町字大柳地内",
    "city": "あじがさわ",
    "image": "",
    "url": "",
    "latlng": "[40.7049604, 140.1585347]",
    "lat": 40.7049604,
    "lng": 140.1585347,
    "isClosed": ""
  },
  {
    "id": "aomori-museum-90",
    "type": "museum",
    "name": "鳴海要記念陶房館",
    "prefecture": "青森県",
    "postCode": "036-1313",
    "address": "青森県弘前市賀田大浦1-2",
    "city": "ひろさき",
    "image": "",
    "url": "http://www.hi-it.jp/~touboukan/",
    "latlng": "[40.6157289, 140.4247422]",
    "lat": 40.6157289,
    "lng": 140.4247422,
    "isClosed": ""
  },
  {
    "id": "aomori-museum-91",
    "type": "museum",
    "name": "鶴の里ふるさと館",
    "prefecture": "青森県",
    "postCode": "038-3542",
    "address": "青森県鶴田町廻堰大沢81",
    "city": "つるた",
    "image": "",
    "url": "",
    "latlng": "[40.753916, 140.3731655]",
    "lat": 40.753916,
    "lng": 140.3731655,
    "isClosed": ""
  },
  {
    "id": "aomori-museum-92",
    "type": "museum",
    "name": "鹿鳴庵",
    "prefecture": "青森県",
    "postCode": "030-0132",
    "address": "青森県青森市横内八重菊61",
    "city": "あおもり",
    "image": "",
    "url": "",
    "latlng": "[40.706864, 140.8731886]",
    "lat": 40.706864,
    "lng": 140.8731886,
    "isClosed": ""
  }
]