[
  {
    "id": "tokyo-art-1",
    "type": "art",
    "name": "石洞美術館",
    "prefecture": "東京都",
    "postCode": "120-0038",
    "address": "東京都足立区千住橋戸町23",
    "city": "あだち",
    "image": "",
    "url": "http://sekido-museum.jp/",
    "latlng": "[35.7404975, 139.7965946]",
    "lat": 35.7404975,
    "lng": 139.7965946,
    "isClosed": ""
  },
  {
    "id": "tokyo-art-2",
    "type": "art",
    "name": "日本書道美術館",
    "prefecture": "東京都",
    "postCode": "174-0071",
    "address": "東京都板橋区常盤台1丁目3−1 日本書道美術館本館",
    "city": "いたばし",
    "image": "",
    "url": "http://shodo-bijutsukan.or.jp/",
    "latlng": "[35.7596545, 139.6902031]",
    "lat": 35.7596545,
    "lng": 139.6902031,
    "isClosed": ""
  },
  {
    "id": "tokyo-art-3",
    "type": "art",
    "name": "青梅市立美術館青梅市立小島善太郎美術館",
    "prefecture": "東京都",
    "postCode": "198-0085",
    "address": "東京都青梅市滝ノ上町1346番地の1",
    "city": "おうめ",
    "image": "",
    "url": "https://www.city.ome.tokyo.jp/site/art-museum/",
    "latlng": "[35.7875475, 139.2559586]",
    "lat": 35.7875475,
    "lng": 139.2559586,
    "isClosed": ""
  },
  {
    "id": "tokyo-art-4",
    "type": "art",
    "name": "大谷美術館",
    "prefecture": "東京都",
    "postCode": "114-0024",
    "address": "東京都北区西ケ原1丁目27−39 旧古河邸宅",
    "city": "きた",
    "image": "",
    "url": "http://www.otanimuseum.or.jp/kyufurukawatei/",
    "latlng": "[35.7430419, 139.7459285]",
    "lat": 35.7430419,
    "lng": 139.7459285,
    "isClosed": ""
  },
  {
    "id": "tokyo-art-5",
    "type": "art",
    "name": "たましん歴史・美術館",
    "prefecture": "東京都",
    "postCode": "186-8686",
    "address": "東京都国立市中1丁目9−52",
    "city": "くにたち",
    "image": "",
    "url": "https://www.tamashinmuseum.org/",
    "latlng": "[35.6980911, 139.4462846]",
    "lat": 35.6980911,
    "lng": 139.4462846,
    "isClosed": ""
  },
  {
    "id": "tokyo-art-6",
    "type": "art",
    "name": "太田記念美術館",
    "prefecture": "東京都",
    "postCode": "150-0001",
    "address": "東京都渋谷区神宮前1丁目10−10",
    "city": "しぶや",
    "image": "",
    "url": "http://www.ukiyoe-ota-muse.jp/",
    "latlng": "[35.6694137, 139.7049074]",
    "lat": 35.6694137,
    "lng": 139.7049074,
    "isClosed": ""
  },
  {
    "id": "tokyo-art-7",
    "type": "art",
    "name": "戸栗美術館",
    "prefecture": "東京都",
    "postCode": "150-0046",
    "address": "東京都渋谷区松濤1丁目11−3",
    "city": "しぶや",
    "image": "",
    "url": "http://www.toguri-museum.or.jp/",
    "latlng": "[35.6614423, 139.6926929]",
    "lat": 35.6614423,
    "lng": 139.6926929,
    "isClosed": ""
  },
  {
    "id": "tokyo-art-8",
    "type": "art",
    "name": "山種美術館",
    "prefecture": "東京都",
    "postCode": "150-0012",
    "address": "東京都渋谷区広尾3丁目12−36",
    "city": "しぶや",
    "image": "",
    "url": "https://www.yamatane-museum.jp/",
    "latlng": "[35.6538825, 139.7140252]",
    "lat": 35.6538825,
    "lng": 139.7140252,
    "isClosed": ""
  },
  {
    "id": "tokyo-art-9",
    "type": "art",
    "name": "SOMPO美術館",
    "prefecture": "東京都",
    "postCode": "160-0023",
    "address": "東京都新宿区西新宿1丁目26−1",
    "city": "しんじゅく",
    "image": "",
    "url": "https://www.sompo-museum.org/",
    "latlng": "[35.6926932, 139.696098]",
    "lat": 35.6926932,
    "lng": 139.696098,
    "isClosed": ""
  },
  {
    "id": "tokyo-art-10",
    "type": "art",
    "name": "草間彌生美術館",
    "prefecture": "東京都",
    "postCode": "162-0851",
    "address": "東京都新宿区弁天町107",
    "city": "しんじゅく",
    "image": "",
    "url": "https://yayoikusamamuseum.jp/",
    "latlng": "[35.703432, 139.726475]",
    "lat": 35.703432,
    "lng": 139.726475,
    "isClosed": ""
  },
  {
    "id": "tokyo-art-11",
    "type": "art",
    "name": "佐藤美術館",
    "prefecture": "東京都",
    "postCode": "160-0015",
    "address": "東京都新宿区大京町31−10 アート千駄ヶ谷ビル",
    "city": "しんじゅく",
    "image": "",
    "url": "http://sato-museum.la.coocan.jp/",
    "latlng": "[35.6816912, 139.7149801]",
    "lat": 35.6816912,
    "lng": 139.7149801,
    "isClosed": ""
  },
  {
    "id": "tokyo-art-12",
    "type": "art",
    "name": "五島美術館",
    "prefecture": "東京都",
    "postCode": "158-0093",
    "address": "東京都世田谷区上野毛3丁目9−25",
    "city": "せたがや",
    "image": "",
    "url": "https://www.gotoh-museum.or.jp/",
    "latlng": "[35.6122905, 139.6355183]",
    "lat": 35.6122905,
    "lng": 139.6355183,
    "isClosed": ""
  },
  {
    "id": "tokyo-art-13",
    "type": "art",
    "name": "静嘉堂文庫美術館",
    "prefecture": "東京都",
    "postCode": "100-0005",
    "address": "東京都千代田区丸の内2丁目1−1 千代田区丸の内2-1-1 明治生命館1F",
    "city": "ちよだ",
    "image": "",
    "url": "https://www.seikado.or.jp/",
    "latlng": "[35.6788686, 139.7615403]",
    "lat": 35.6788686,
    "lng": 139.7615403,
    "isClosed": ""
  },
  {
    "id": "tokyo-art-14",
    "type": "art",
    "name": "長谷川町子美術館",
    "prefecture": "東京都",
    "postCode": "154-0015",
    "address": "東京都世田谷区桜新町1丁目30−6",
    "city": "せたがや",
    "image": "",
    "url": "https://www.hasegawamachiko.jp/",
    "latlng": "[35.6279477, 139.6436204]",
    "lat": 35.6279477,
    "lng": 139.6436204,
    "isClosed": ""
  },
  {
    "id": "tokyo-art-15",
    "type": "art",
    "name": "上野の森美術館",
    "prefecture": "東京都",
    "postCode": "110-0007",
    "address": "東京都台東区上野公園1−2",
    "city": "たいとう",
    "image": "",
    "url": "https://www.ueno-mori.org/",
    "latlng": "[35.7128069, 139.7747529]",
    "lat": 35.7128069,
    "lng": 139.7747529,
    "isClosed": ""
  },
  {
    "id": "tokyo-art-16",
    "type": "art",
    "name": "アーティゾン美術館",
    "prefecture": "東京都",
    "postCode": "104-0031",
    "address": "東京都中央区京橋1丁目7−2",
    "city": "ちゅうおう",
    "image": "",
    "url": "https://www.artizon.museum/",
    "latlng": "[35.6782035, 139.7724126]",
    "lat": 35.6782035,
    "lng": 139.7724126,
    "isClosed": ""
  },
  {
    "id": "tokyo-art-17",
    "type": "art",
    "name": "三井記念美術館",
    "prefecture": "東京都",
    "postCode": "103-0022",
    "address": "東京都中央区日本橋室町2丁目1−1 三井本館 7階",
    "city": "ちゅうおう",
    "image": "",
    "url": "https://www.mitsui-museum.jp/",
    "latlng": "[35.686372, 139.7731296]",
    "lat": 35.686372,
    "lng": 139.7731296,
    "isClosed": ""
  },
  {
    "id": "tokyo-art-18",
    "type": "art",
    "name": "出光美術館",
    "prefecture": "東京都",
    "postCode": "100-0005",
    "address": "東京都千代田区丸の内3丁目1−1 国際ビル 9階",
    "city": "ちよだ",
    "image": "",
    "url": "http://idemitsu-museum.or.jp/",
    "latlng": "[35.6767148, 139.7612147]",
    "lat": 35.6767148,
    "lng": 139.7612147,
    "isClosed": ""
  },
  {
    "id": "tokyo-art-19",
    "type": "art",
    "name": "ちひろ美術館・東京",
    "prefecture": "東京都",
    "postCode": "177-0042",
    "address": "東京都練馬区下石神井4丁目7−2",
    "city": "ねりま",
    "image": "",
    "url": "https://chihiro.jp/tokyo/",
    "latlng": "[35.7285574, 139.6050314]",
    "lat": 35.7285574,
    "lng": 139.6050314,
    "isClosed": ""
  },
  {
    "id": "tokyo-art-20",
    "type": "art",
    "name": "東京富士美術館",
    "prefecture": "東京都",
    "postCode": "192-0016",
    "address": "東京都八王子市谷野町492−1",
    "city": "はちおうじ",
    "image": "",
    "url": "https://www.fujibi.or.jp/",
    "latlng": "[35.6865788, 139.329491]",
    "lat": 35.6865788,
    "lng": 139.329491,
    "isClosed": ""
  },
  {
    "id": "tokyo-art-21",
    "type": "art",
    "name": "府中市美術館",
    "prefecture": "東京都",
    "postCode": "183-0001",
    "address": "東京都府中市浅間町1丁目3",
    "city": "ふちゅう",
    "image": "",
    "url": "https://www.city.fuchu.tokyo.jp/art/",
    "latlng": "[35.6788787, 139.492135]",
    "lat": 35.6788787,
    "lng": 139.492135,
    "isClosed": ""
  },
  {
    "id": "tokyo-art-22",
    "type": "art",
    "name": "菊池寛実記念智美術館",
    "prefecture": "東京都",
    "postCode": "105-0001",
    "address": "東京都港区虎ノ門4丁目1−35 智美術館 1階 西久保ビル",
    "city": "みなと",
    "image": "",
    "url": "https://www.musee-tomo.or.jp/",
    "latlng": "[35.66603120000001, 139.7445459]",
    "lat": 35.66603120000001,
    "lng": 139.7445459,
    "isClosed": ""
  },
  {
    "id": "tokyo-art-23",
    "type": "art",
    "name": "根津美術館",
    "prefecture": "東京都",
    "postCode": "107-0062",
    "address": "東京都港区南青山6丁目5−1",
    "city": "みなと",
    "image": "",
    "url": "https://www.nezu-muse.or.jp/",
    "latlng": "[35.6619412, 139.717499]",
    "lat": 35.6619412,
    "lng": 139.717499,
    "isClosed": ""
  },
  {
    "id": "tokyo-art-24",
    "type": "art",
    "name": "宗教法人長泉院附属現代彫刻美術館",
    "prefecture": "東京都",
    "postCode": "153-0061",
    "address": "東京都目黒区中目黒4丁目12−18",
    "city": "めぐろ",
    "image": "",
    "url": "http://museum-of-sculpture.org/",
    "latlng": "[35.6359289, 139.7030939]",
    "lat": 35.6359289,
    "lng": 139.7030939,
    "isClosed": ""
  },
  {
    "id": "tokyo-art-25",
    "type": "art",
    "name": "東京都現代美術館",
    "prefecture": "東京都",
    "postCode": "135-0022",
    "address": "東京都江東区三好4丁目1−1",
    "city": "こうとう",
    "image": "",
    "url": "https://www.mot-art-museum.jp/",
    "latlng": "[35.6797467, 139.8081921]",
    "lat": 35.6797467,
    "lng": 139.8081921,
    "isClosed": ""
  },
  {
    "id": "tokyo-art-26",
    "type": "art",
    "name": "世田谷区立世田谷美術館",
    "prefecture": "東京都",
    "postCode": "157-0075",
    "address": "東京都世田谷区砧公園1−2",
    "city": "せたがや",
    "image": "",
    "url": "https://www.setagayaartmuseum.or.jp/",
    "latlng": "[35.6316082, 139.622251]",
    "lat": 35.6316082,
    "lng": 139.622251,
    "isClosed": ""
  },
  {
    "id": "tokyo-art-27",
    "type": "art",
    "name": "国立西洋美術館",
    "prefecture": "東京都",
    "postCode": "110-0007",
    "address": "東京都台東区上野公園7丁目7−7 国立西洋美術館本館",
    "city": "たいとう",
    "image": "",
    "url": "http://www.nmwa.go.jp/jp/",
    "latlng": "[35.7155259, 139.7756316]",
    "lat": 35.7155259,
    "lng": 139.7756316,
    "isClosed": ""
  },
  {
    "id": "tokyo-art-28",
    "type": "art",
    "name": "東京都美術館",
    "prefecture": "東京都",
    "postCode": "110-0007",
    "address": "東京都台東区上野公園8−36",
    "city": "たいとう",
    "image": "",
    "url": "https://www.tobikan.jp/",
    "latlng": "[35.7166328, 139.7720863]",
    "lat": 35.7166328,
    "lng": 139.7720863,
    "isClosed": ""
  },
  {
    "id": "tokyo-art-29",
    "type": "art",
    "name": "多摩美術大学附属美術館",
    "prefecture": "東京都",
    "postCode": "192-0394",
    "address": "東京都八王子市鑓水2丁目1723",
    "city": "はちおうじ",
    "image": "",
    "url": "https://museum.tamabi.ac.jp/",
    "latlng": "[35.61099859999999, 139.3496126]",
    "lat": 35.61099859999999,
    "lng": 139.3496126,
    "isClosed": ""
  },
  {
    "id": "tokyo-art-30",
    "type": "art",
    "name": "東京国立近代美術館本館",
    "prefecture": "東京都",
    "postCode": "102-0091",
    "address": "東京都千代田区北の丸公園3−1",
    "city": "ちよだ",
    "image": "",
    "url": "https://www.momat.go.jp/",
    "latlng": "[35.69046480000001, 139.7544907]",
    "lat": 35.69046480000001,
    "lng": 139.7544907,
    "isClosed": ""
  },
  {
    "id": "tokyo-art-31",
    "type": "art",
    "name": "三菱一号館美術館",
    "prefecture": "東京都",
    "postCode": "100-0005",
    "address": "東京都千代田区丸の内2丁目6−2",
    "city": "ちよだ",
    "image": "",
    "url": "https://mimt.jp/",
    "latlng": "[35.6787105, 139.7629717]",
    "lat": 35.6787105,
    "lng": 139.7629717,
    "isClosed": ""
  },
  {
    "id": "tokyo-art-32",
    "type": "art",
    "name": "練馬区立美術館",
    "prefecture": "東京都",
    "postCode": "176-0021",
    "address": "東京都練馬区貫井1丁目36−16",
    "city": "ねりま",
    "image": "",
    "url": "https://www.neribun.or.jp/museum.html",
    "latlng": "[35.7369717, 139.6361045]",
    "lat": 35.7369717,
    "lng": 139.6361045,
    "isClosed": ""
  },
  {
    "id": "tokyo-art-33",
    "type": "art",
    "name": "東京造形大学附属美術館",
    "prefecture": "東京都",
    "postCode": "192-0915",
    "address": "東京都八王子市宇津貫町1561",
    "city": "はちおうじ",
    "image": "",
    "url": "https://www.zokei.ac.jp/museum/",
    "latlng": "[35.615017, 139.3338745]",
    "lat": 35.615017,
    "lng": 139.3338745,
    "isClosed": ""
  },
  {
    "id": "tokyo-art-34",
    "type": "art",
    "name": "村内美術館",
    "prefecture": "東京都",
    "postCode": "192-0012",
    "address": "東京都八王子市左入町787",
    "city": "はちおうじ",
    "image": "",
    "url": "https://www.murauchi.net/museum/",
    "latlng": "[35.6788151, 139.3357864]",
    "lat": 35.6788151,
    "lng": 139.3357864,
    "isClosed": ""
  },
  {
    "id": "tokyo-art-35",
    "type": "art",
    "name": "東京都庭園美術館",
    "prefecture": "東京都",
    "postCode": "108-0071",
    "address": "東京都港区白金台5丁目21−9 東京都庭園美術館 庭園",
    "city": "みなと",
    "image": "",
    "url": "https://www.teien-art-museum.ne.jp/",
    "latlng": "[35.6363173, 139.718983]",
    "lat": 35.6363173,
    "lng": 139.718983,
    "isClosed": ""
  },
  {
    "id": "tokyo-art-36",
    "type": "art",
    "name": "パナソニック汐留美術館",
    "prefecture": "東京都",
    "postCode": "105-8301",
    "address": "東京都港区東新橋1丁目5−1 パナソニック東京汐留ビル 4階",
    "city": "みなと",
    "image": "",
    "url": "https://panasonic.co.jp/ew/museum/",
    "latlng": "[35.6660023, 139.7619295]",
    "lat": 35.6660023,
    "lng": 139.7619295,
    "isClosed": ""
  },
  {
    "id": "tokyo-art-37",
    "type": "art",
    "name": "森美術館",
    "prefecture": "東京都",
    "postCode": "106-6150",
    "address": "東京都港区六本木6丁目10−1 六本木ヒルズ森タワー 53階",
    "city": "みなと",
    "image": "",
    "url": "https://www.mori.art.museum/jp/",
    "latlng": "[35.6607345, 139.7292066]",
    "lat": 35.6607345,
    "lng": 139.7292066,
    "isClosed": ""
  },
  {
    "id": "tokyo-art-38",
    "type": "art",
    "name": "東京都写真美術館",
    "prefecture": "東京都",
    "postCode": "153-0062",
    "address": "東京都目黒区三田1丁目13−3 恵比寿ガーデンプレイス内",
    "city": "めぐろ",
    "image": "",
    "url": "https://topmuseum.jp/",
    "latlng": "[35.6421979, 139.7134251]",
    "lat": 35.6421979,
    "lng": 139.7134251,
    "isClosed": ""
  }
]