[
  {
    "id": "tokyo-museum-1",
    "type": "museum",
    "name": "家具の博物館",
    "prefecture": "東京都",
    "postCode": "196-0022",
    "address": "東京都昭島市中神町1148 フランスベッド内",
    "city": "あきしま",
    "image": "",
    "url": "https://www.kaguhaku.or.jp/",
    "latlng": "[35.7124441, 139.3770535]",
    "lat": 35.7124441,
    "lng": 139.3770535,
    "isClosed": ""
  },
  {
    "id": "tokyo-museum-2",
    "type": "museum",
    "name": "足立区立郷土博物館",
    "prefecture": "東京都",
    "postCode": "120-0001",
    "address": "東京都足立区大谷田5丁目20−1",
    "city": "あだち",
    "image": "",
    "url": "https://www.city.adachi.tokyo.jp/hakubutsukan/",
    "latlng": "[35.7843542, 139.8417201]",
    "lat": 35.7843542,
    "lng": 139.8417201,
    "isClosed": ""
  },
  {
    "id": "tokyo-museum-3",
    "type": "museum",
    "name": "地下鉄博物館",
    "prefecture": "東京都",
    "postCode": "134-0084",
    "address": "東京都江戸川区東葛西6丁目3−1 東京メトロ東西線 葛西駅高架下",
    "city": "えどがわ",
    "image": "",
    "url": "https://www.chikahaku.jp/",
    "latlng": "[35.6635485, 139.8741425]",
    "lat": 35.6635485,
    "lng": 139.8741425,
    "isClosed": ""
  },
  {
    "id": "tokyo-museum-4",
    "type": "museum",
    "name": "青梅市郷土博物館",
    "prefecture": "東京都",
    "postCode": "198-0053",
    "address": "東京都青梅市駒木町1丁目684",
    "city": "おうめ",
    "image": "",
    "url": "https://www.city.ome.tokyo.jp/site/provincial-history-museum/",
    "latlng": "[35.7837904, 139.256714]",
    "lat": 35.7837904,
    "lng": 139.256714,
    "isClosed": ""
  },
  {
    "id": "tokyo-museum-5",
    "type": "museum",
    "name": "葛飾区郷土と天文の博物館",
    "prefecture": "東京都",
    "postCode": "125-0063",
    "address": "東京都葛飾区白鳥3丁目25−1",
    "city": "かつしか",
    "image": "",
    "url": "https://www.museum.city.katsushika.lg.jp/",
    "latlng": "[35.7528826, 139.8433847]",
    "lat": 35.7528826,
    "lng": 139.8433847,
    "isClosed": ""
  },
  {
    "id": "tokyo-museum-6",
    "type": "museum",
    "name": "紙の博物館",
    "prefecture": "東京都",
    "postCode": "114-0002",
    "address": "東京都北区王子1丁目1−3",
    "city": "きた",
    "image": "",
    "url": "https://papermuseum.jp/ja/",
    "latlng": "[35.7503664, 139.738732]",
    "lat": 35.7503664,
    "lng": 139.738732,
    "isClosed": ""
  },
  {
    "id": "tokyo-museum-7",
    "type": "museum",
    "name": "渋沢史料館",
    "prefecture": "東京都",
    "postCode": "114-0024",
    "address": "東京都北区西ケ原2丁目16−1",
    "city": "きた",
    "image": "",
    "url": "https://www.shibusawa.or.jp/museum/",
    "latlng": "[35.7488619, 139.7400247]",
    "lat": 35.7488619,
    "lng": 139.7400247,
    "isClosed": ""
  },
  {
    "id": "tokyo-museum-8",
    "type": "museum",
    "name": "清瀬市郷土博物館",
    "prefecture": "東京都",
    "postCode": "204-0013",
    "address": "東京都清瀬市上清戸2丁目6−41",
    "city": "きよせ",
    "image": "",
    "url": "http://museum-kiyose.jp/",
    "latlng": "[35.7797674, 139.520921]",
    "lat": 35.7797674,
    "lng": 139.520921,
    "isClosed": ""
  },
  {
    "id": "tokyo-museum-9",
    "type": "museum",
    "name": "船の科学館",
    "prefecture": "東京都",
    "postCode": "135-8587",
    "address": "東京都品川区東八潮3−1",
    "city": "しながわ",
    "image": "",
    "url": "https://funenokagakukan.or.jp/",
    "latlng": "[35.6200861, 139.7726078]",
    "lat": 35.6200861,
    "lng": 139.7726078,
    "isClosed": ""
  },
  {
    "id": "tokyo-museum-10",
    "type": "museum",
    "name": "古賀政男音楽博物館",
    "prefecture": "東京都",
    "postCode": "151-0064",
    "address": "東京都渋谷区上原3丁目6−12",
    "city": "しぶや",
    "image": "",
    "url": "http://www.koga.or.jp/",
    "latlng": "[35.66784639999999, 139.6800912]",
    "lat": 35.66784639999999,
    "lng": 139.6800912,
    "isClosed": ""
  },
  {
    "id": "tokyo-museum-11",
    "type": "museum",
    "name": "新宿区立新宿歴史博物館",
    "prefecture": "東京都",
    "postCode": "160-0008",
    "address": "東京都新宿区四谷三栄町22−3 新宿区立新宿歴史博物館",
    "city": "しんじゅく",
    "image": "",
    "url": "https://www.regasu-shinjuku.or.jp/rekihaku/",
    "latlng": "[35.6899316, 139.7256868]",
    "lat": 35.6899316,
    "lng": 139.7256868,
    "isClosed": ""
  },
  {
    "id": "tokyo-museum-12",
    "type": "museum",
    "name": "東京オペラシティアートギャラリー",
    "prefecture": "東京都",
    "postCode": "163-1403",
    "address": "東京都新宿区西新宿3丁目20−2",
    "city": "しんじゅく",
    "image": "",
    "url": "https://www.operacity.jp/ag/",
    "latlng": "[35.6829969, 139.6868301]",
    "lat": 35.6829969,
    "lng": 139.6868301,
    "isClosed": ""
  },
  {
    "id": "tokyo-museum-13",
    "type": "museum",
    "name": "民音音楽博物館",
    "prefecture": "東京都",
    "postCode": "160-8588",
    "address": "東京都新宿区信濃町8",
    "city": "しんじゅく",
    "image": "",
    "url": "https://museum.min-on.or.jp/",
    "latlng": "[35.6825903, 139.719384]",
    "lat": 35.6825903,
    "lng": 139.719384,
    "isClosed": ""
  },
  {
    "id": "tokyo-museum-14",
    "type": "museum",
    "name": "杉並区立郷土博物館",
    "prefecture": "東京都",
    "postCode": "168-0061",
    "address": "東京都杉並区大宮1丁目20−8",
    "city": "すぎなみ",
    "image": "",
    "url": "https://www.city.suginami.tokyo.jp/histmus/",
    "latlng": "[35.6859934, 139.6454928]",
    "lat": 35.6859934,
    "lng": 139.6454928,
    "isClosed": ""
  },
  {
    "id": "tokyo-museum-15",
    "type": "museum",
    "name": "相撲博物館",
    "prefecture": "東京都",
    "postCode": "130-0015",
    "address": "東京都墨田区横網1丁目3−28 国技館 1階",
    "city": "すみだ",
    "image": "",
    "url": "https://www.sumo.or.jp/KokugikanSumoMuseum/",
    "latlng": "[35.6969529, 139.7934876]",
    "lat": 35.6969529,
    "lng": 139.7934876,
    "isClosed": ""
  },
  {
    "id": "tokyo-museum-16",
    "type": "museum",
    "name": "刀剣博物館",
    "prefecture": "東京都",
    "postCode": "130-0015",
    "address": "東京都墨田区横網1丁目12−9",
    "city": "すみだ",
    "image": "",
    "url": "https://www.touken.or.jp/museum/",
    "latlng": "[35.6988737, 139.7936926]",
    "lat": 35.6988737,
    "lng": 139.7936926,
    "isClosed": ""
  },
  {
    "id": "tokyo-museum-17",
    "type": "museum",
    "name": "賀川豊彦記念松沢資料館",
    "prefecture": "東京都",
    "postCode": "156-0057",
    "address": "東京都世田谷区上北沢3丁目8−19",
    "city": "せたがや",
    "image": "",
    "url": "https://www.t-kagawa.or.jp/",
    "latlng": "[35.667871, 139.6259472]",
    "lat": 35.667871,
    "lng": 139.6259472,
    "isClosed": ""
  },
  {
    "id": "tokyo-museum-18",
    "type": "museum",
    "name": "齋田記念館",
    "prefecture": "東京都",
    "postCode": "155-0033",
    "address": "東京都世田谷区代田3丁目23−35",
    "city": "せたがや",
    "image": "",
    "url": "https://saita-museum.jp/",
    "latlng": "[35.6534246, 139.6599705]",
    "lat": 35.6534246,
    "lng": 139.6599705,
    "isClosed": ""
  },
  {
    "id": "tokyo-museum-19",
    "type": "museum",
    "name": "世田谷区立郷土資料館",
    "prefecture": "東京都",
    "postCode": "154-0017",
    "address": "東京都世田谷区世田谷1丁目29−18",
    "city": "せたがや",
    "image": "",
    "url": "https://www.city.setagaya.lg.jp/mokuji/kusei/012/011/002/d00138265.html",
    "latlng": "[35.6413103, 139.6471832]",
    "lat": 35.6413103,
    "lng": 139.6471832,
    "isClosed": ""
  },
  {
    "id": "tokyo-museum-20",
    "type": "museum",
    "name": "大名時計博物館",
    "prefecture": "東京都",
    "postCode": "110-0001",
    "address": "東京都台東区谷中2丁目1−27",
    "city": "たいとう",
    "image": "",
    "url": "http://ogino.c.ooco.jp/gijutu/tokei.htm",
    "latlng": "[35.7212761, 139.766263]",
    "lat": 35.7212761,
    "lng": 139.766263,
    "isClosed": ""
  },
  {
    "id": "tokyo-museum-21",
    "type": "museum",
    "name": "横山大観記念館",
    "prefecture": "東京都",
    "postCode": "110-0008",
    "address": "東京都台東区池之端1丁目4−24",
    "city": "たいとう",
    "image": "",
    "url": "https://taikan.tokyo/",
    "latlng": "[35.7122474, 139.7683878]",
    "lat": 35.7122474,
    "lng": 139.7683878,
    "isClosed": ""
  },
  {
    "id": "tokyo-museum-22",
    "type": "museum",
    "name": "昭和天皇記念館",
    "prefecture": "東京都",
    "postCode": "190-0014",
    "address": "東京都立川市緑町3173",
    "city": "たちかわ",
    "image": "",
    "url": "https://f-showa.or.jp/museum/",
    "latlng": "[35.7129759, 139.3978484]",
    "lat": 35.7129759,
    "lng": 139.3978484,
    "isClosed": ""
  },
  {
    "id": "tokyo-museum-23",
    "type": "museum",
    "name": "調布市郷土博物館",
    "prefecture": "東京都",
    "postCode": "182-0026",
    "address": "東京都調布市小島町3丁目26−2",
    "city": "ちょうふ",
    "image": "",
    "url": "https://www.city.chofu.tokyo.jp/www/contents/1176118850606/",
    "latlng": "[35.6468635, 139.5362024]",
    "lat": 35.6468635,
    "lng": 139.5362024,
    "isClosed": ""
  },
  {
    "id": "tokyo-museum-24",
    "type": "museum",
    "name": "日本カメラ博物館",
    "prefecture": "東京都",
    "postCode": "102-0082",
    "address": "東京都千代田区一番町25 ＪＣＩＩ一番町ビル B1",
    "city": "ちよだ",
    "image": "",
    "url": "https://www.jcii-cameramuseum.jp/",
    "latlng": "[35.6860427, 139.7428893]",
    "lat": 35.6860427,
    "lng": 139.7428893,
    "isClosed": ""
  },
  {
    "id": "tokyo-museum-25",
    "type": "museum",
    "name": "科学技術館",
    "prefecture": "東京都",
    "postCode": "102-0091",
    "address": "東京都千代田区北の丸公園2−1",
    "city": "ちよだ",
    "image": "",
    "url": "https://www.jsf.or.jp/",
    "latlng": "[35.691568, 139.7530888]",
    "lat": 35.691568,
    "lng": 139.7530888,
    "isClosed": ""
  },
  {
    "id": "tokyo-museum-26",
    "type": "museum",
    "name": "千秋文庫",
    "prefecture": "東京都",
    "postCode": "102-0074",
    "address": "東京都千代田区九段南2丁目1−32号",
    "city": "ちよだ",
    "image": "",
    "url": "https://www.senshu-bunko.or.jp/",
    "latlng": "[35.6924841, 139.7464937]",
    "lat": 35.6924841,
    "lng": 139.7464937,
    "isClosed": ""
  },
  {
    "id": "tokyo-museum-27",
    "type": "museum",
    "name": "東京ステーションギャラリー",
    "prefecture": "東京都",
    "postCode": "100-0005",
    "address": "東京都千代田区丸の内1丁目9−1",
    "city": "ちよだ",
    "image": "",
    "url": "https://www.ejrcf.or.jp/gallery/index.asp",
    "latlng": "[35.6813365, 139.7672552]",
    "lat": 35.6813365,
    "lng": 139.7672552,
    "isClosed": ""
  },
  {
    "id": "tokyo-museum-28",
    "type": "museum",
    "name": "切手の博物館",
    "prefecture": "東京都",
    "postCode": "171-0031",
    "address": "東京都豊島区目白1丁目4−23",
    "city": "としま",
    "image": "",
    "url": "https://kitte-museum.jp/",
    "latlng": "[35.7183589, 139.7057907]",
    "lat": 35.7183589,
    "lng": 139.7057907,
    "isClosed": ""
  },
  {
    "id": "tokyo-museum-29",
    "type": "museum",
    "name": "古代オリエント博物館",
    "prefecture": "東京都",
    "postCode": "170-0013",
    "address": "東京都豊島区東池袋3丁目1−4 文化会館ビル 7F サンシャインシティ",
    "city": "としま",
    "image": "",
    "url": "https://aom-tokyo.com/",
    "latlng": "[35.7289709, 139.7195415]",
    "lat": 35.7289709,
    "lng": 139.7195415,
    "isClosed": ""
  },
  {
    "id": "tokyo-museum-30",
    "type": "museum",
    "name": "羽村市郷土博物館",
    "prefecture": "東京都",
    "postCode": "205-0012",
    "address": "東京都羽村市羽741",
    "city": "はむら",
    "image": "",
    "url": "https://www.city.hamura.tokyo.jp/0000005474.html",
    "latlng": "[35.7549127, 139.3029296]",
    "lat": 35.7549127,
    "lng": 139.3029296,
    "isClosed": ""
  },
  {
    "id": "tokyo-museum-31",
    "type": "museum",
    "name": "東村山ふるさと歴史館",
    "prefecture": "東京都",
    "postCode": "189-0021",
    "address": "東京都東村山市諏訪町1丁目6−3 都営東村山諏訪町一丁目",
    "city": "ひがしむらやま",
    "image": "",
    "url": "https://www.city.higashimurayama.tokyo.jp/smph/tanoshimi/rekishi/furusato/index.html",
    "latlng": "[35.7668626, 139.4660655]",
    "lat": 35.7668626,
    "lng": 139.4660655,
    "isClosed": ""
  },
  {
    "id": "tokyo-museum-32",
    "type": "museum",
    "name": "東大和市立郷土博物館",
    "prefecture": "東京都",
    "postCode": "207-0031",
    "address": "東京都東大和市奈良橋1丁目260−2",
    "city": "ひがしやまと",
    "image": "",
    "url": "https://www.city.higashiyamato.lg.jp/index.cfm/35,0,366,html",
    "latlng": "[35.7551843, 139.4229696]",
    "lat": 35.7551843,
    "lng": 139.4229696,
    "isClosed": ""
  },
  {
    "id": "tokyo-museum-33",
    "type": "museum",
    "name": "府中市郷土の森博物館",
    "prefecture": "東京都",
    "postCode": "183-0026",
    "address": "東京都府中市南町6丁目32 府中市郷土の森博物館",
    "city": "ふちゅう",
    "image": "",
    "url": "http://www.fuchu-cpf.or.jp/museum/",
    "latlng": "[35.6567725, 139.4731485]",
    "lat": 35.6567725,
    "lng": 139.4731485,
    "isClosed": ""
  },
  {
    "id": "tokyo-museum-34",
    "type": "museum",
    "name": "永青文庫",
    "prefecture": "東京都",
    "postCode": "112-0015",
    "address": "東京都文京区目白台1丁目1−1",
    "city": "ぶんきょう",
    "image": "",
    "url": "https://www.eiseibunko.com/",
    "latlng": "[35.7131972, 139.7232326]",
    "lat": 35.7131972,
    "lng": 139.7232326,
    "isClosed": ""
  },
  {
    "id": "tokyo-museum-35",
    "type": "museum",
    "name": "野球殿堂博物館",
    "prefecture": "東京都",
    "postCode": "112-0004",
    "address": "東京都文京区後楽1丁目3−61",
    "city": "ぶんきょう",
    "image": "",
    "url": "https://baseball-museum.or.jp/",
    "latlng": "[35.7036889, 139.7529463]",
    "lat": 35.7036889,
    "lng": 139.7529463,
    "isClosed": ""
  },
  {
    "id": "tokyo-museum-36",
    "type": "museum",
    "name": "中近東文化センター付属博物館",
    "prefecture": "東京都",
    "postCode": "181-0015",
    "address": "東京都三鷹市大沢3丁目10−31",
    "city": "みたか",
    "image": "",
    "url": "http://www.meccj.or.jp/",
    "latlng": "[35.6888206, 139.5339019]",
    "lat": 35.6888206,
    "lng": 139.5339019,
    "isClosed": ""
  },
  {
    "id": "tokyo-museum-37",
    "type": "museum",
    "name": "ＮＨＫ放送博物館",
    "prefecture": "東京都",
    "postCode": "105-0002",
    "address": "東京都港区愛宕2丁目1−1",
    "city": "みなと",
    "image": "",
    "url": "http://www.nhk.or.jp/museum/",
    "latlng": "[35.663794, 139.7482923]",
    "lat": 35.663794,
    "lng": 139.7482923,
    "isClosed": ""
  },
  {
    "id": "tokyo-museum-38",
    "type": "museum",
    "name": "大倉集古館",
    "prefecture": "東京都",
    "postCode": "105-0001",
    "address": "東京都港区虎ノ門2丁目10−3",
    "city": "みなと",
    "image": "",
    "url": "https://www.shukokan.org/",
    "latlng": "[35.6670317, 139.7432817]",
    "lat": 35.6670317,
    "lng": 139.7432817,
    "isClosed": ""
  },
  {
    "id": "tokyo-museum-39",
    "type": "museum",
    "name": "泉屋博古館東京",
    "prefecture": "東京都",
    "postCode": "106-0032",
    "address": "東京都港区六本木1丁目5−1",
    "city": "みなと",
    "image": "",
    "url": "https://sen-oku.or.jp/tokyo/",
    "latlng": "[35.6650591, 139.7410501]",
    "lat": 35.6650591,
    "lng": 139.7410501,
    "isClosed": ""
  },
  {
    "id": "tokyo-museum-40",
    "type": "museum",
    "name": "畠山記念館",
    "prefecture": "東京都",
    "postCode": "108-0071",
    "address": "東京都港区白金台2丁目20−12",
    "city": "みなと",
    "image": "",
    "url": "https://www.ebara.co.jp/foundation/hatakeyama/index.html",
    "latlng": "[35.6323379, 139.7268729]",
    "lat": 35.6323379,
    "lng": 139.7268729,
    "isClosed": ""
  },
  {
    "id": "tokyo-museum-41",
    "type": "museum",
    "name": "物流博物館",
    "prefecture": "東京都",
    "postCode": "108-0074",
    "address": "東京都港区高輪4丁目7−15",
    "city": "みなと",
    "image": "",
    "url": "http://www.lmuse.or.jp/",
    "latlng": "[35.62908609999999, 139.7323517]",
    "lat": 35.62908609999999,
    "lng": 139.7323517,
    "isClosed": ""
  },
  {
    "id": "tokyo-museum-42",
    "type": "museum",
    "name": "日本民藝館",
    "prefecture": "東京都",
    "postCode": "153-0041",
    "address": "東京都目黒区駒場4丁目3−33",
    "city": "めぐろ",
    "image": "",
    "url": "https://mingeikan.or.jp/",
    "latlng": "[35.6608214, 139.6793729]",
    "lat": 35.6608214,
    "lng": 139.6793729,
    "isClosed": ""
  },
  {
    "id": "tokyo-museum-43",
    "type": "museum",
    "name": "目黒寄生虫館",
    "prefecture": "東京都",
    "postCode": "153-0064",
    "address": "東京都目黒区下目黒4丁目1−1",
    "city": "めぐろ",
    "image": "",
    "url": "https://www.kiseichu.org/",
    "latlng": "[35.6317332, 139.7066775]",
    "lat": 35.6317332,
    "lng": 139.7066775,
    "isClosed": ""
  },
  {
    "id": "tokyo-museum-44",
    "type": "museum",
    "name": "共立女子大学博物館",
    "prefecture": "東京都",
    "postCode": "101-0003",
    "address": "東京都千代田区一ツ橋2丁目6−1",
    "city": "ちよだ",
    "image": "",
    "url": "https://www.kyoritsu-wu.ac.jp/muse/",
    "latlng": "[35.6938746, 139.7563647]",
    "lat": 35.6938746,
    "lng": 139.7563647,
    "isClosed": ""
  },
  {
    "id": "tokyo-museum-45",
    "type": "museum",
    "name": "八王子市郷土資料館",
    "prefecture": "東京都",
    "postCode": "193-0832",
    "address": "東京都八王子市散田町2丁目37-1 教育センター",
    "city": "はちおうじ",
    "image": "",
    "url": "https://www.city.hachioji.tokyo.jp/kankobunka/003/005/p005312.html",
    "latlng": "[35.6489931, 139.319414]",
    "lat": 35.6489931,
    "lng": 139.319414,
    "isClosed": ""
  },
  {
    "id": "tokyo-museum-46",
    "type": "museum",
    "name": "東京家政大学博物館",
    "prefecture": "東京都",
    "postCode": "114-0033",
    "address": "東京都板橋区加賀1丁目18−1 百周年記念館",
    "city": "いたばし",
    "image": "",
    "url": "https://www.tokyo-kasei.ac.jp/academics/museum/",
    "latlng": "[35.7551485, 139.721315]",
    "lat": 35.7551485,
    "lng": 139.721315,
    "isClosed": ""
  },
  {
    "id": "tokyo-museum-47",
    "type": "museum",
    "name": "東京農工大学科学博物館",
    "prefecture": "東京都",
    "postCode": "184-0012",
    "address": "東京都小金井市中町2丁目24−16",
    "city": "こがねい",
    "image": "",
    "url": "https://www.tuat-museum.org/",
    "latlng": "[35.6997604, 139.5186416]",
    "lat": 35.6997604,
    "lng": 139.5186416,
    "isClosed": ""
  },
  {
    "id": "tokyo-museum-48",
    "type": "museum",
    "name": "杉野学園衣裳博物館",
    "prefecture": "東京都",
    "postCode": "141-0021",
    "address": "東京都品川区上大崎4丁目6−19",
    "city": "しながわ",
    "image": "",
    "url": "https://www.costumemuseum.jp/",
    "latlng": "[35.6316025, 139.7159104]",
    "lat": 35.6316025,
    "lng": 139.7159104,
    "isClosed": ""
  },
  {
    "id": "tokyo-museum-49",
    "type": "museum",
    "name": "Bunkamuraザ・ミュージアム",
    "prefecture": "東京都",
    "postCode": "150-8507",
    "address": "東京都渋谷区道玄坂2丁目24−1",
    "city": "しぶや",
    "image": "",
    "url": "https://www.bunkamura.co.jp/museum/",
    "latlng": "[35.66076109999999, 139.6956746]",
    "lat": 35.66076109999999,
    "lng": 139.6956746,
    "isClosed": ""
  },
  {
    "id": "tokyo-museum-50",
    "type": "museum",
    "name": "國學院大学伝統文化リサーチセンター資料館",
    "prefecture": "東京都",
    "postCode": "150-0011",
    "address": "東京都渋谷区東4丁目10−28",
    "city": "しぶや",
    "image": "",
    "url": "http://museum.kokugakuin.ac.jp/",
    "latlng": "[35.6555421, 139.7114816]",
    "lat": 35.6555421,
    "lng": 139.7114816,
    "isClosed": ""
  },
  {
    "id": "tokyo-museum-51",
    "type": "museum",
    "name": "実践女子学園香雪記念資料館",
    "prefecture": "東京都",
    "postCode": "150-0011",
    "address": "東京都渋谷区東1丁目1−11",
    "city": "しぶや",
    "image": "",
    "url": "https://www.jissen.ac.jp/kosetsu/",
    "latlng": "[35.6565479, 139.7103246]",
    "lat": 35.6565479,
    "lng": 139.7103246,
    "isClosed": ""
  },
  {
    "id": "tokyo-museum-52",
    "type": "museum",
    "name": "文化学園服飾博物館",
    "prefecture": "東京都",
    "postCode": "151-0053",
    "address": "東京都渋谷区代々木3丁目22",
    "city": "しぶや",
    "image": "",
    "url": "https://museum.bunka.ac.jp/",
    "latlng": "[35.6855269, 139.6941884]",
    "lat": 35.6855269,
    "lng": 139.6941884,
    "isClosed": ""
  },
  {
    "id": "tokyo-museum-53",
    "type": "museum",
    "name": "明治神宮宝物殿（分館　明治神宮ミュージアム）",
    "prefecture": "東京都",
    "postCode": "151-0052",
    "address": "東京都渋谷区代々木神園町1−1",
    "city": "しぶや",
    "image": "",
    "url": "https://www.meijijingu.or.jp/museum/houmotsuden/",
    "latlng": "[35.6722996, 139.702171]",
    "lat": 35.6722996,
    "lng": 139.702171,
    "isClosed": ""
  },
  {
    "id": "tokyo-museum-54",
    "type": "museum",
    "name": "帝国データバンク史料館",
    "prefecture": "東京都",
    "postCode": "160-0003",
    "address": "東京都新宿区四谷本塩町14−3",
    "city": "しんじゅく",
    "image": "",
    "url": "https://www.tdb-muse.jp/",
    "latlng": "[35.6908593, 139.7291589]",
    "lat": 35.6908593,
    "lng": 139.7291589,
    "isClosed": ""
  },
  {
    "id": "tokyo-museum-55",
    "type": "museum",
    "name": "東京理科大学近代科学資料館",
    "prefecture": "東京都",
    "postCode": "162-0827",
    "address": "東京都新宿区若宮町19",
    "city": "しんじゅく",
    "image": "",
    "url": "https://www.tus.ac.jp/info/setubi/museum/",
    "latlng": "[35.6992774, 139.7408846]",
    "lat": 35.6992774,
    "lng": 139.7408846,
    "isClosed": ""
  },
  {
    "id": "tokyo-museum-56",
    "type": "museum",
    "name": "早稲田大学會津八一記念博物館",
    "prefecture": "東京都",
    "postCode": "169-0051",
    "address": "東京都新宿区西早稲田1丁目6−1 早稲田大学 2号館",
    "city": "しんじゅく",
    "image": "",
    "url": "https://www.waseda.jp/culture/aizu-museum/",
    "latlng": "[35.7085265, 139.7202888]",
    "lat": 35.7085265,
    "lng": 139.7202888,
    "isClosed": ""
  },
  {
    "id": "tokyo-museum-57",
    "type": "museum",
    "name": "早稲田大学坪内博士記念演劇博物館",
    "prefecture": "東京都",
    "postCode": "169-0051",
    "address": "東京都新宿区西早稲田1丁目6−1",
    "city": "しんじゅく",
    "image": "",
    "url": "https://www.waseda.jp/enpaku/",
    "latlng": "[35.7092114, 139.7201168]",
    "lat": 35.7092114,
    "lng": 139.7201168,
    "isClosed": ""
  },
  {
    "id": "tokyo-museum-58",
    "type": "museum",
    "name": "すみだ郷土文化資料館",
    "prefecture": "東京都",
    "postCode": "131-0033",
    "address": "東京都墨田区向島2丁目3−5 墨田郷土文化資料館",
    "city": "すみだ",
    "image": "",
    "url": "https://www.city.sumida.lg.jp/sisetu_info/siryou/kyoudobunka/",
    "latlng": "[35.7139022, 139.8058965]",
    "lat": 35.7139022,
    "lng": 139.8058965,
    "isClosed": ""
  },
  {
    "id": "tokyo-museum-59",
    "type": "museum",
    "name": "東京都江戸東京博物館（分館　江戸東京たてもの園）",
    "prefecture": "東京都",
    "postCode": "184-0005",
    "address": "東京都小金井市桜町3丁目7−1 内 都立小金井公園",
    "city": "こがねい",
    "image": "",
    "url": "https://www.edo-tokyo-museum.or.jp/",
    "latlng": "[35.7160173, 139.5116708]",
    "lat": 35.7160173,
    "lng": 139.5116708,
    "isClosed": ""
  },
  {
    "id": "tokyo-museum-60",
    "type": "museum",
    "name": "駒澤大学禅文化歴史博物館",
    "prefecture": "東京都",
    "postCode": "154-0012",
    "address": "東京都世田谷区駒沢1丁目23−1",
    "city": "せたがや",
    "image": "",
    "url": "https://www.komazawa-u.ac.jp/facilities/museum/",
    "latlng": "[35.6287952, 139.6571149]",
    "lat": 35.6287952,
    "lng": 139.6571149,
    "isClosed": ""
  },
  {
    "id": "tokyo-museum-61",
    "type": "museum",
    "name": "昭和女子大学光葉博物館",
    "prefecture": "東京都",
    "postCode": "154-0004",
    "address": "東京都世田谷区太子堂1丁目7",
    "city": "せたがや",
    "image": "",
    "url": "https://museum.swu.ac.jp/",
    "latlng": "[35.6436969, 139.676462]",
    "lat": 35.6436969,
    "lng": 139.676462,
    "isClosed": ""
  },
  {
    "id": "tokyo-museum-62",
    "type": "museum",
    "name": "世田谷区立世田谷文学館",
    "prefecture": "東京都",
    "postCode": "157-0062",
    "address": "東京都世田谷区南烏山1丁目10−10",
    "city": "せたがや",
    "image": "",
    "url": "https://www.setabun.or.jp/",
    "latlng": "[35.6670596, 139.6089544]",
    "lat": 35.6670596,
    "lng": 139.6089544,
    "isClosed": ""
  },
  {
    "id": "tokyo-museum-63",
    "type": "museum",
    "name": "東京農業大学「食と農」の博物館",
    "prefecture": "東京都",
    "postCode": "158-0098",
    "address": "東京都世田谷区上用賀2丁目4−28",
    "city": "せたがや",
    "image": "",
    "url": "https://www.nodai.ac.jp/campus/facilities/syokutonou/",
    "latlng": "[35.6387259, 139.63177]",
    "lat": 35.6387259,
    "lng": 139.63177,
    "isClosed": ""
  },
  {
    "id": "tokyo-museum-64",
    "type": "museum",
    "name": "日本大学文理学部資料館",
    "prefecture": "東京都",
    "postCode": "156-8550",
    "address": "東京都世田谷区桜上水3丁目25−40",
    "city": "せたがや",
    "image": "",
    "url": "https://chs.nihon-u.ac.jp/campus-life/kyogaku-s/museum/",
    "latlng": "[35.663823, 139.6357341]",
    "lat": 35.663823,
    "lng": 139.6357341,
    "isClosed": ""
  },
  {
    "id": "tokyo-museum-65",
    "type": "museum",
    "name": "国立科学博物館",
    "prefecture": "東京都",
    "postCode": "110-8718",
    "address": "東京都台東区上野公園7-20",
    "city": "たいとう",
    "image": "",
    "url": "https://www.kahaku.go.jp/",
    "latlng": "[35.7139252, 139.7778338]",
    "lat": 35.7139252,
    "lng": 139.7778338,
    "isClosed": ""
  },
  {
    "id": "tokyo-museum-66",
    "type": "museum",
    "name": "東京国立博物館",
    "prefecture": "東京都",
    "postCode": "110-8712",
    "address": "東京都台東区上野公園13−9",
    "city": "たいとう",
    "image": "",
    "url": "https://www.tnm.jp/",
    "latlng": "[35.7201155, 139.7765702]",
    "lat": 35.7201155,
    "lng": 139.7765702,
    "isClosed": ""
  },
  {
    "id": "tokyo-museum-67",
    "type": "museum",
    "name": "国立映画アーカイブ",
    "prefecture": "東京都",
    "postCode": "104-0031",
    "address": "東京都中央区京橋3丁目7−6",
    "city": "ちゅうおう",
    "image": "",
    "url": "https://www.nfaj.go.jp/",
    "latlng": "[35.6755095, 139.7706168]",
    "lat": 35.6755095,
    "lng": 139.7706168,
    "isClosed": ""
  },
  {
    "id": "tokyo-museum-68",
    "type": "museum",
    "name": "大妻女子大学博物館",
    "prefecture": "東京都",
    "postCode": "102-0075",
    "address": "東京都千代田区三番町7−8",
    "city": "ちよだ",
    "image": "",
    "url": "https://www.museum.otsuma.ac.jp/",
    "latlng": "[35.6898963, 139.7411403]",
    "lat": 35.6898963,
    "lng": 139.7411403,
    "isClosed": ""
  },
  {
    "id": "tokyo-museum-69",
    "type": "museum",
    "name": "明治大学博物館",
    "prefecture": "東京都",
    "postCode": "101-8301",
    "address": "東京都千代田区神田駿河台1丁目1 明治大学 駿河台キャンパス アカデミーコモン地階",
    "city": "ちよだ",
    "image": "",
    "url": "https://www.meiji.ac.jp/museum/",
    "latlng": "[35.6986273, 139.7618814]",
    "lat": 35.6986273,
    "lng": 139.7618814,
    "isClosed": ""
  },
  {
    "id": "tokyo-museum-70",
    "type": "museum",
    "name": "学習院大学史料館",
    "prefecture": "東京都",
    "postCode": "171-8588",
    "address": "東京都豊島区目白1丁目5−1 東別館",
    "city": "としま",
    "image": "",
    "url": "https://www.gakushuin.ac.jp/univ/ua/",
    "latlng": "[35.7192719, 139.7099997]",
    "lat": 35.7192719,
    "lng": 139.7099997,
    "isClosed": ""
  },
  {
    "id": "tokyo-museum-71",
    "type": "museum",
    "name": "多摩六都科学館",
    "prefecture": "東京都",
    "postCode": "188-0014",
    "address": "東京都西東京市芝久保町5丁目10−64",
    "city": "にしとうきょう",
    "image": "",
    "url": "https://www.tamarokuto.or.jp/",
    "latlng": "[35.7345551, 139.5233057]",
    "lat": 35.7345551,
    "lng": 139.5233057,
    "isClosed": ""
  },
  {
    "id": "tokyo-museum-72",
    "type": "museum",
    "name": "日本大学芸術学部芸術資料館",
    "prefecture": "東京都",
    "postCode": "176-0005",
    "address": "東京都練馬区旭丘2丁目42−1",
    "city": "ねりま",
    "image": "",
    "url": "https://www.art.nihon-u.ac.jp/facility/attached/archives/",
    "latlng": "[35.7373059, 139.6748751]",
    "lat": 35.7373059,
    "lng": 139.6748751,
    "isClosed": ""
  },
  {
    "id": "tokyo-museum-73",
    "type": "museum",
    "name": "東洋大学井上円了記念博物館",
    "prefecture": "東京都",
    "postCode": "112-0001",
    "address": "東京都文京区白山5丁目28−20",
    "city": "ぶんきょう",
    "image": "",
    "url": "https://www.toyo.ac.jp/about/founder/iecp/museum/",
    "latlng": "[35.7235018, 139.749611]",
    "lat": 35.7235018,
    "lng": 139.749611,
    "isClosed": ""
  },
  {
    "id": "tokyo-museum-74",
    "type": "museum",
    "name": "日本女子大学成瀬記念館",
    "prefecture": "東京都",
    "postCode": "112-0015",
    "address": "東京都文京区目白台2丁目8−1",
    "city": "ぶんきょう",
    "image": "",
    "url": "https://www.jwu.ac.jp/unv/about/naruse_memorial/index.html",
    "latlng": "[35.7165731, 139.7199155]",
    "lat": 35.7165731,
    "lng": 139.7199155,
    "isClosed": ""
  },
  {
    "id": "tokyo-museum-75",
    "type": "museum",
    "name": "玉川大学小原國芳記念教育博物館",
    "prefecture": "東京都",
    "postCode": "194-8610",
    "address": "東京都町田市玉川学園6-1-1",
    "city": "まちだ",
    "image": "",
    "url": "https://www.tamagawa.jp/campus/museum/",
    "latlng": "[35.5687465, 139.4665553]",
    "lat": 35.5687465,
    "lng": 139.4665553,
    "isClosed": ""
  },
  {
    "id": "tokyo-museum-76",
    "type": "museum",
    "name": "東京家政学院生活文化博物館",
    "prefecture": "東京都",
    "postCode": "194-0211",
    "address": "東京都町田市相原町2600 1号棟",
    "city": "まちだ",
    "image": "",
    "url": "https://www.kasei-gakuin.ac.jp/campuslife/museum/",
    "latlng": "[35.6098365, 139.3106632]",
    "lat": 35.6098365,
    "lng": 139.3106632,
    "isClosed": ""
  },
  {
    "id": "tokyo-museum-77",
    "type": "museum",
    "name": "国際基督教大学博物館湯浅八郎記念館",
    "prefecture": "東京都",
    "postCode": "181-8585",
    "address": "東京都三鷹市大沢3丁目10−2",
    "city": "みたか",
    "image": "",
    "url": "https://subsites.icu.ac.jp/yuasa_museum/index.html",
    "latlng": "[35.6865572, 139.530899]",
    "lat": 35.6865572,
    "lng": 139.530899,
    "isClosed": ""
  },
  {
    "id": "tokyo-museum-78",
    "type": "museum",
    "name": "アドミュージアム東京",
    "prefecture": "東京都",
    "postCode": "105-7090",
    "address": "東京都港区東新橋1丁目8−2 カレッタ汐留",
    "city": "みなと",
    "image": "",
    "url": "https://www.admt.jp/",
    "latlng": "[35.6648867, 139.7624926]",
    "lat": 35.6648867,
    "lng": 139.7624926,
    "isClosed": ""
  },
  {
    "id": "tokyo-museum-79",
    "type": "museum",
    "name": "慶應義塾大学アート・センター",
    "prefecture": "東京都",
    "postCode": "108-0073",
    "address": "東京都港区三田3丁目2−5 慶應義塾大学 南別館 2F",
    "city": "みなと",
    "image": "",
    "url": "http://www.art-c.keio.ac.jp/",
    "latlng": "[35.6475849, 139.7425686]",
    "lat": 35.6475849,
    "lng": 139.7425686,
    "isClosed": ""
  },
  {
    "id": "tokyo-museum-80",
    "type": "museum",
    "name": "東京海洋大学海洋科学部附属水産資料館（マリンサイエンスミュージアム）",
    "prefecture": "東京都",
    "postCode": "108-0075",
    "address": "東京都港区港南4丁目5 マリンサイエンスミュージアム",
    "city": "みなと",
    "image": "",
    "url": "https://www.s.kaiyodai.ac.jp/museum/public_html/",
    "latlng": "[35.6275223, 139.7482052]",
    "lat": 35.6275223,
    "lng": 139.7482052,
    "isClosed": ""
  },
  {
    "id": "tokyo-museum-81",
    "type": "museum",
    "name": "井の頭自然文化園",
    "prefecture": "東京都",
    "postCode": "180-0005",
    "address": "東京都武蔵野市御殿山1丁目17−6 井の頭自然文化園",
    "city": "むさしの",
    "image": "",
    "url": "https://www.tokyo-zoo.net/zoo/ino/",
    "latlng": "[35.7007724, 139.5727436]",
    "lat": 35.7007724,
    "lng": 139.5727436,
    "isClosed": ""
  },
  {
    "id": "tokyo-museum-82",
    "type": "museum",
    "name": "成蹊学園史料館",
    "prefecture": "東京都",
    "postCode": "180-0001",
    "address": "東京都武蔵野市吉祥寺北町3丁目3−1",
    "city": "むさしの",
    "image": "",
    "url": "https://www.seikei.ac.jp/gakuen/archive/",
    "latlng": "[35.7112951, 139.5723238]",
    "lat": 35.7112951,
    "lng": 139.5723238,
    "isClosed": ""
  },
  {
    "id": "tokyo-museum-83",
    "type": "museum",
    "name": "東京工業大学博物館",
    "prefecture": "東京都",
    "postCode": "152-0033",
    "address": "東京都目黒区大岡山2丁目12−1",
    "city": "めぐろ",
    "image": "",
    "url": "http://www.cent.titech.ac.jp/",
    "latlng": "[35.605365, 139.6828625]",
    "lat": 35.605365,
    "lng": 139.6828625,
    "isClosed": ""
  },
  {
    "id": "tokyo-museum-84",
    "type": "museum",
    "name": "東京工芸大学芸術学部写大ギャラリー",
    "prefecture": "東京都",
    "postCode": "164-0012",
    "address": "東京都中野区本町2丁目4−7",
    "city": "なかの",
    "image": "",
    "url": "http://www.shadai.t-kougei.ac.jp/index.html",
    "latlng": "[35.6926209, 139.6804005]",
    "lat": 35.6926209,
    "lng": 139.6804005,
    "isClosed": ""
  },
  {
    "id": "tokyo-museum-85",
    "type": "museum",
    "name": "秩父宮記念スポーツ博物館",
    "prefecture": "東京都",
    "postCode": "273-0017",
    "address": "千葉県船橋市西浦2丁目5-3 ㈱ロジ・レックス船橋第一倉庫5階",
    "city": "ふなばし",
    "image": "",
    "url": "https://www.jpnsport.go.jp/muse/",
    "latlng": "[35.6888065, 139.9679152]",
    "lat": 35.6888065,
    "lng": 139.9679152,
    "isClosed": ""
  },
  {
    "id": "tokyo-museum-86",
    "type": "museum",
    "name": "北里柴三郎記念博物館",
    "prefecture": "東京都",
    "postCode": "108-0072",
    "address": "東京都港区白金5丁目9−5",
    "city": "みなと",
    "image": "",
    "url": "https://www.kitasato.ac.jp/jp/kinen-shitsu/index.html",
    "latlng": "[35.644562, 139.7252978]",
    "lat": 35.644562,
    "lng": 139.7252978,
    "isClosed": ""
  },
  {
    "id": "tokyo-museum-87",
    "type": "museum",
    "name": "独立行政法人国立文化財機構皇居三の丸尚蔵館",
    "prefecture": "東京都",
    "postCode": "100-0001",
    "address": "東京都千代田区千代田1−8 皇居東御苑 内",
    "city": "ちよだ",
    "image": "",
    "url": "https://shozokan.nich.go.jp/",
    "latlng": "[35.6867824, 139.7571445]",
    "lat": 35.6867824,
    "lng": 139.7571445,
    "isClosed": ""
  }
]