[
  {
    "id": "ishikawa-art-1",
    "type": "art",
    "name": "石川県九谷焼美術館",
    "prefecture": "石川県",
    "postCode": "922-0861",
    "address": "石川県加賀市大聖寺地方町1−10−13",
    "city": "かが",
    "image": "",
    "url": "http://www.kutani-mus.jp/ja/",
    "latlng": "[36.30278810000001, 136.3101404]",
    "lat": 36.30278810000001,
    "lng": 136.3101404,
    "isClosed": ""
  },
  {
    "id": "ishikawa-art-2",
    "type": "art",
    "name": "加賀市美術館",
    "prefecture": "石川県",
    "postCode": "922-0423",
    "address": "石川県加賀市作見町リ−1−4",
    "city": "かが",
    "image": "",
    "url": "https://kagabi.kagashi-ss.com/",
    "latlng": "[36.3191155, 136.3515343]",
    "lat": 36.3191155,
    "lng": 136.3515343,
    "isClosed": ""
  },
  {
    "id": "ishikawa-art-3",
    "type": "art",
    "name": "石川県立美術館",
    "prefecture": "石川県",
    "postCode": "920-0963",
    "address": "石川県金沢市出羽町2−1",
    "city": "かなざわ",
    "image": "",
    "url": "https://www.ishibi.pref.ishikawa.jp/",
    "latlng": "[36.5601954, 136.661202]",
    "lat": 36.5601954,
    "lng": 136.661202,
    "isClosed": ""
  },
  {
    "id": "ishikawa-art-4",
    "type": "art",
    "name": "金沢市立中村記念美術館",
    "prefecture": "石川県",
    "postCode": "920-0964",
    "address": "石川県金沢市本多町3丁目2−29",
    "city": "かなざわ",
    "image": "",
    "url": "https://www.kanazawa-museum.jp/nakamura/",
    "latlng": "[36.5593829, 136.6606321]",
    "lat": 36.5593829,
    "lng": 136.6606321,
    "isClosed": ""
  },
  {
    "id": "ishikawa-art-5",
    "type": "art",
    "name": "小松市立本陣記念美術館",
    "prefecture": "石川県",
    "postCode": "923-0903",
    "address": "石川県小松市丸の内公園町19",
    "city": "こまつ",
    "image": "",
    "url": "https://komatsu-museum.jp/honjin/",
    "latlng": "[36.4091063, 136.4492101]",
    "lat": 36.4091063,
    "lng": 136.4492101,
    "isClosed": ""
  },
  {
    "id": "ishikawa-art-6",
    "type": "art",
    "name": "小松市立宮本三郎美術館／宮本三郎ふるさと館",
    "prefecture": "石川県",
    "postCode": "923-0982",
    "address": "石川県小松市松崎町16−1",
    "city": "こまつ",
    "image": "",
    "url": "https://komatsu-museum.jp/miyamoto/",
    "latlng": "[36.37587389999999, 136.4107704]",
    "lat": 36.37587389999999,
    "lng": 136.4107704,
    "isClosed": ""
  },
  {
    "id": "ishikawa-art-7",
    "type": "art",
    "name": "白山市立松任中川一政記念美術館",
    "prefecture": "石川県",
    "postCode": "924-0888",
    "address": "石川県白山市旭町61−1",
    "city": "はくさん",
    "image": "",
    "url": "http://www.hakusan-museum.jp/nakagawakinen/",
    "latlng": "[36.5267761, 136.5679051]",
    "lat": 36.5267761,
    "lng": 136.5679051,
    "isClosed": ""
  },
  {
    "id": "ishikawa-art-8",
    "type": "art",
    "name": "石川県七尾美術館",
    "prefecture": "石川県",
    "postCode": "926-0855",
    "address": "石川県七尾市小丸山台1丁目1",
    "city": "ななお",
    "image": "",
    "url": "https://nanao-art-museum.jp/",
    "latlng": "[37.0448549, 136.9536994]",
    "lat": 37.0448549,
    "lng": 136.9536994,
    "isClosed": ""
  },
  {
    "id": "ishikawa-art-9",
    "type": "art",
    "name": "石川県能登島ガラス美術館",
    "prefecture": "石川県",
    "postCode": "926-0211",
    "address": "石川県七尾市能登島向田町125部10番地",
    "city": "ななお",
    "image": "",
    "url": "https://nanao-af.jp/glass/",
    "latlng": "[37.137516, 136.9965712]",
    "lat": 37.137516,
    "lng": 136.9965712,
    "isClosed": ""
  },
  {
    "id": "ishikawa-art-10",
    "type": "art",
    "name": "石川県輪島漆芸美術館",
    "prefecture": "石川県",
    "postCode": "928-0064",
    "address": "石川県輪島市釜屋谷町 漆芸美術館",
    "city": "わじま",
    "image": "",
    "url": "https://www.city.wajima.ishikawa.jp/art/",
    "latlng": "[37.389993, 136.8926755]",
    "lat": 37.389993,
    "lng": 136.8926755,
    "isClosed": ""
  },
  {
    "id": "ishikawa-art-11",
    "type": "art",
    "name": "金沢21世紀美術館",
    "prefecture": "石川県",
    "postCode": "920-8509",
    "address": "石川県金沢市広坂1丁目2−1",
    "city": "かなざわ",
    "image": "",
    "url": "https://www.kanazawa21.jp/",
    "latlng": "[36.5610197, 136.6580734]",
    "lat": 36.5610197,
    "lng": 136.6580734,
    "isClosed": ""
  }
]