[
  {
    "id": "ishikawa-museum-1",
    "type": "museum",
    "name": "加賀市中谷宇吉郎雪の科学館",
    "prefecture": "石川県",
    "postCode": "922-0411",
    "address": "石川県加賀市潮津町イ−イ−106",
    "city": "かが",
    "image": "",
    "url": "https://yukinokagakukan.kagashi-ss.com/",
    "latlng": "[36.3521735, 136.362571]",
    "lat": 36.3521735,
    "lng": 136.362571,
    "isClosed": ""
  },
  {
    "id": "ishikawa-museum-2",
    "type": "museum",
    "name": "無限庵",
    "prefecture": "石川県",
    "postCode": "922-0127",
    "address": "石川県加賀市山中温泉下谷町ロ−6",
    "city": "かが",
    "image": "",
    "url": "http://mugenan.com/wp/",
    "latlng": "[36.2409034, 136.3722744]",
    "lat": 36.2409034,
    "lng": 136.3722744,
    "isClosed": ""
  },
  {
    "id": "ishikawa-museum-3",
    "type": "museum",
    "name": "石川県立歴史博物館",
    "prefecture": "石川県",
    "postCode": "920-0963",
    "address": "石川県金沢市出羽町3−1",
    "city": "かなざわ",
    "image": "",
    "url": "https://ishikawa-rekihaku.jp/",
    "latlng": "[36.5586672, 136.6627493]",
    "lat": 36.5586672,
    "lng": 136.6627493,
    "isClosed": ""
  },
  {
    "id": "ishikawa-museum-4",
    "type": "museum",
    "name": "泉鏡花記念館",
    "prefecture": "石川県",
    "postCode": "920-0910",
    "address": "石川県金沢市下新町2−3",
    "city": "かなざわ",
    "image": "",
    "url": "https://www.kanazawa-museum.jp/kyoka/",
    "latlng": "[36.5714338, 136.6630646]",
    "lat": 36.5714338,
    "lng": 136.6630646,
    "isClosed": ""
  },
  {
    "id": "ishikawa-museum-5",
    "type": "museum",
    "name": "金沢くらしの博物館",
    "prefecture": "石川県",
    "postCode": "920-0938",
    "address": "石川県金沢市飛梅町3−31",
    "city": "かなざわ",
    "image": "",
    "url": "https://www.kanazawa-museum.jp/minzoku/",
    "latlng": "[36.5581386, 136.6680715]",
    "lat": 36.5581386,
    "lng": 136.6680715,
    "isClosed": ""
  },
  {
    "id": "ishikawa-museum-6",
    "type": "museum",
    "name": "金沢市立安江金箔工芸館",
    "prefecture": "石川県",
    "postCode": "920-0831",
    "address": "石川県金沢市東山1丁目3−10",
    "city": "かなざわ",
    "image": "",
    "url": "https://www.kanazawa-museum.jp/kinpaku/",
    "latlng": "[36.5737007, 136.6659134]",
    "lat": 36.5737007,
    "lng": 136.6659134,
    "isClosed": ""
  },
  {
    "id": "ishikawa-museum-7",
    "type": "museum",
    "name": "金沢湯涌夢二館",
    "prefecture": "石川県",
    "postCode": "920-1123",
    "address": "石川県金沢市湯涌町イ−144",
    "city": "かなざわ",
    "image": "",
    "url": "https://www.kanazawa-museum.jp/yumeji/",
    "latlng": "[36.4859559, 136.7574604]",
    "lat": 36.4859559,
    "lng": 136.7574604,
    "isClosed": ""
  },
  {
    "id": "ishikawa-museum-8",
    "type": "museum",
    "name": "成巽閣",
    "prefecture": "石川県",
    "postCode": "920-0936",
    "address": "石川県金沢市兼六町1−2",
    "city": "かなざわ",
    "image": "",
    "url": "http://www.seisonkaku.com/",
    "latlng": "[36.5605632, 136.6634259]",
    "lat": 36.5605632,
    "lng": 136.6634259,
    "isClosed": ""
  },
  {
    "id": "ishikawa-museum-9",
    "type": "museum",
    "name": "前田土佐守家資料館",
    "prefecture": "石川県",
    "postCode": "920-0981",
    "address": "石川県金沢市片町2丁目10−17",
    "city": "かなざわ",
    "image": "",
    "url": "https://www.kanazawa-museum.jp/maedatosa/",
    "latlng": "[36.5624107, 136.6509378]",
    "lat": 36.5624107,
    "lng": 136.6509378,
    "isClosed": ""
  },
  {
    "id": "ishikawa-museum-10",
    "type": "museum",
    "name": "石川県西田幾多郎記念哲学館",
    "prefecture": "石川県",
    "postCode": "929-1126",
    "address": "石川県かほく市内日角井1",
    "city": "かほく",
    "image": "",
    "url": "http://www.nishidatetsugakukan.org/",
    "latlng": "[36.7198422, 136.7067338]",
    "lat": 36.7198422,
    "lng": 136.7067338,
    "isClosed": ""
  },
  {
    "id": "ishikawa-museum-11",
    "type": "museum",
    "name": "小松市立博物館",
    "prefecture": "石川県",
    "postCode": "923-0903",
    "address": "石川県小松市丸の内公園町19",
    "city": "こまつ",
    "image": "",
    "url": "https://komatsu-museum.jp/",
    "latlng": "[36.4091063, 136.4492101]",
    "lat": 36.4091063,
    "lng": 136.4492101,
    "isClosed": ""
  },
  {
    "id": "ishikawa-museum-12",
    "type": "museum",
    "name": "石川県立白山ろく民俗資料館",
    "prefecture": "石川県",
    "postCode": "920-2501",
    "address": "石川県白山市白峰リ−30",
    "city": "はくさん",
    "image": "",
    "url": "http://www.pref.ishikawa.jp/hakusanminzoku/",
    "latlng": "[36.1801216, 136.6222875]",
    "lat": 36.1801216,
    "lng": 136.6222875,
    "isClosed": ""
  },
  {
    "id": "ishikawa-museum-13",
    "type": "museum",
    "name": "白山市立博物館",
    "prefecture": "石川県",
    "postCode": "924-0871",
    "address": "石川県白山市西新町168−1",
    "city": "はくさん",
    "image": "",
    "url": "http://www.hakusan-museum.jp/hakubutukan/",
    "latlng": "[36.5243853, 136.5632472]",
    "lat": 36.5243853,
    "lng": 136.5632472,
    "isClosed": ""
  },
  {
    "id": "ishikawa-museum-14",
    "type": "museum",
    "name": "能美ふるさとミュージアム",
    "prefecture": "石川県",
    "postCode": "923-1121",
    "address": "石川県能美市寺井町を−1−1",
    "city": "のみ",
    "image": "",
    "url": "https://www.city.nomi.ishikawa.jp/www/genre/1000100000265/index.html",
    "latlng": "[36.4429028, 136.5058847]",
    "lat": 36.4429028,
    "lng": 136.5058847,
    "isClosed": ""
  },
  {
    "id": "ishikawa-museum-15",
    "type": "museum",
    "name": "羽咋市歴史民俗資料館",
    "prefecture": "石川県",
    "postCode": "925-0027",
    "address": "石川県羽咋市鶴多町鶴多田38−1",
    "city": "はくい",
    "image": "",
    "url": "https://www.city.hakui.lg.jp/rekimin/index.html",
    "latlng": "[36.8975043, 136.7911745]",
    "lat": 36.8975043,
    "lng": 136.7911745,
    "isClosed": ""
  },
  {
    "id": "ishikawa-museum-16",
    "type": "museum",
    "name": "金沢大学資料館",
    "prefecture": "石川県",
    "postCode": "920-1164",
    "address": "石川県金沢市角間町 中央図書館 資料館",
    "city": "かなざわ",
    "image": "",
    "url": "https://museum.kanazawa-u.ac.jp/",
    "latlng": "[36.5488067, 136.7108479]",
    "lat": 36.5488067,
    "lng": 136.7108479,
    "isClosed": ""
  },
  {
    "id": "ishikawa-museum-17",
    "type": "museum",
    "name": "谷口吉郎・吉生記念金沢建築館",
    "prefecture": "石川県",
    "postCode": "921-8033",
    "address": "石川県金沢市寺町5丁目1−18",
    "city": "かなざわ",
    "image": "",
    "url": "https://www.kanazawa-museum.jp/architecture/",
    "latlng": "[36.5557384, 136.6507437]",
    "lat": 36.5557384,
    "lng": 136.6507437,
    "isClosed": ""
  },
  {
    "id": "ishikawa-museum-18",
    "type": "museum",
    "name": "石川県ふれあい昆虫館",
    "prefecture": "石川県",
    "postCode": "920-2113",
    "address": "石川県白山市八幡町戌3",
    "city": "はくさん",
    "image": "",
    "url": "https://www.furekon.jp/",
    "latlng": "[36.4440676, 136.6321987]",
    "lat": 36.4440676,
    "lng": 136.6321987,
    "isClosed": ""
  }
]