[
  {
    "id": "yamanashi-art-1",
    "type": "art",
    "name": "山梨県立美術館",
    "prefecture": "山梨県",
    "postCode": "400-0065",
    "address": "山梨県甲府市貢川1丁目4−27",
    "city": "こうふ",
    "image": "",
    "url": "https://www.art-museum.pref.yamanashi.jp/",
    "latlng": "[35.6603917, 138.5373252]",
    "lat": 35.6603917,
    "lng": 138.5373252,
    "isClosed": ""
  },
  {
    "id": "yamanashi-art-2",
    "type": "art",
    "name": "韮崎大村美術館",
    "prefecture": "山梨県",
    "postCode": "407-0043",
    "address": "山梨県韮崎市神山町鍋山1830−1",
    "city": "にらさき",
    "image": "",
    "url": "http://nirasakiomura-artmuseum.com/",
    "latlng": "[35.7009046, 138.429371]",
    "lat": 35.7009046,
    "lng": 138.429371,
    "isClosed": ""
  },
  {
    "id": "yamanashi-art-3",
    "type": "art",
    "name": "富士山美術館（フジヤマミュージアム）",
    "prefecture": "山梨県",
    "postCode": "403-0017",
    "address": "山梨県富士吉田市新西原5丁目6−1",
    "city": "ふじよしだ",
    "image": "",
    "url": "https://www.fujiyama-museum.com/",
    "latlng": "[35.4889751, 138.781892]",
    "lat": 35.4889751,
    "lng": 138.781892,
    "isClosed": ""
  },
  {
    "id": "yamanashi-art-4",
    "type": "art",
    "name": "清春白樺美術館",
    "prefecture": "山梨県",
    "postCode": "408-0036",
    "address": "山梨県北杜市長坂町中丸2072",
    "city": "ほくと",
    "image": "",
    "url": "https://www.kiyoharu-art.com/",
    "latlng": "[35.8225091, 138.3530551]",
    "lat": 35.8225091,
    "lng": 138.3530551,
    "isClosed": ""
  },
  {
    "id": "yamanashi-art-5",
    "type": "art",
    "name": "平山郁夫シルクロード美術館",
    "prefecture": "山梨県",
    "postCode": "408-0031",
    "address": "山梨県北杜市長坂町小荒間2000−6",
    "city": "ほくと",
    "image": "",
    "url": "https://www.silkroad-museum.jp/",
    "latlng": "[35.8793681, 138.3591981]",
    "lat": 35.8793681,
    "lng": 138.3591981,
    "isClosed": ""
  },
  {
    "id": "yamanashi-art-6",
    "type": "art",
    "name": "南アルプス市立美術館",
    "prefecture": "山梨県",
    "postCode": "400-0306",
    "address": "山梨県南アルプス市小笠原1281",
    "city": "みなみあるぷす",
    "image": "",
    "url": "https://www.minamialps-museum.jp/",
    "latlng": "[35.6169356, 138.4653349]",
    "lat": 35.6169356,
    "lng": 138.4653349,
    "isClosed": ""
  },
  {
    "id": "yamanashi-art-7",
    "type": "art",
    "name": "近藤浩一路記念南部町立美術館",
    "prefecture": "山梨県",
    "postCode": "409-2213",
    "address": "山梨県南巨摩郡南部町大和360",
    "city": "なんぶ",
    "image": "",
    "url": "https://www.town.nanbu.yamanashi.jp/shisetsu/syakaikyouiku/museum.html",
    "latlng": "[35.2787227, 138.4566602]",
    "lat": 35.2787227,
    "lng": 138.4566602,
    "isClosed": ""
  },
  {
    "id": "yamanashi-art-8",
    "type": "art",
    "name": "河口湖美術館",
    "prefecture": "山梨県",
    "postCode": "401-0304",
    "address": "山梨県南都留郡富士河口湖町河口3170",
    "city": "ふじかわぐちこ",
    "image": "",
    "url": "http://www.fkchannel.jp/kgmuse/",
    "latlng": "[35.5181796, 138.7715542]",
    "lat": 35.5181796,
    "lng": 138.7715542,
    "isClosed": ""
  },
  {
    "id": "yamanashi-art-9",
    "type": "art",
    "name": "笛吹市青楓美術館",
    "prefecture": "山梨県",
    "postCode": "405-0051",
    "address": "山梨県笛吹市一宮町北野呂3−3",
    "city": "ふえふき",
    "image": "",
    "url": "https://www.city.fuefuki.yamanashi.jp/shisetsu/museum/001.html",
    "latlng": "[35.6607479, 138.7059481]",
    "lat": 35.6607479,
    "lng": 138.7059481,
    "isClosed": ""
  },
  {
    "id": "yamanashi-art-10",
    "type": "art",
    "name": "四季の杜おしの公園　岡田紅陽写真美術館･小池邦夫絵手紙美術館",
    "prefecture": "山梨県",
    "postCode": "401-0511",
    "address": "山梨県南都留郡忍野村忍草2838−1",
    "city": "おしの",
    "image": "",
    "url": "https://oshino-artmuseum.com/",
    "latlng": "[35.4573292, 138.8194748]",
    "lat": 35.4573292,
    "lng": 138.8194748,
    "isClosed": ""
  }
]