[
  {
    "id": "yamanashi-museum-1",
    "type": "museum",
    "name": "信玄公宝物館",
    "prefecture": "山梨県",
    "postCode": "404-0053",
    "address": "山梨県甲州市塩山小屋敷2280",
    "city": "こうしゅう",
    "image": "",
    "url": "https://shingen.iooo.jp/",
    "latlng": "[35.7294124, 138.714391]",
    "lat": 35.7294124,
    "lng": 138.714391,
    "isClosed": ""
  },
  {
    "id": "yamanashi-museum-2",
    "type": "museum",
    "name": "山梨県立考古博物館",
    "prefecture": "山梨県",
    "postCode": "400-1508",
    "address": "山梨県甲府市下曽根町923",
    "city": "こうふ",
    "image": "",
    "url": "https://www.pref.yamanashi.jp/kouko-hak/",
    "latlng": "[35.5941683, 138.5828802]",
    "lat": 35.5941683,
    "lng": 138.5828802,
    "isClosed": ""
  },
  {
    "id": "yamanashi-museum-3",
    "type": "museum",
    "name": "山梨県立文学館",
    "prefecture": "山梨県",
    "postCode": "400-0065",
    "address": "山梨県甲府市貢川1丁目5−35",
    "city": "こうふ",
    "image": "",
    "url": "https://www.bungakukan.pref.yamanashi.jp/",
    "latlng": "[35.6601154, 138.539412]",
    "lat": 35.6601154,
    "lng": 138.539412,
    "isClosed": ""
  },
  {
    "id": "yamanashi-museum-4",
    "type": "museum",
    "name": "都留市博物館「ミュージアム都留」",
    "prefecture": "山梨県",
    "postCode": "402-0053",
    "address": "山梨県都留市上谷1丁目5−1",
    "city": "つる",
    "image": "",
    "url": "https://www.city.tsuru.yamanashi.jp/soshiki/shougaigakushuu/museum_tsuru/1340.html",
    "latlng": "[35.5497741, 138.9049438]",
    "lat": 35.5497741,
    "lng": 138.9049438,
    "isClosed": ""
  },
  {
    "id": "yamanashi-museum-5",
    "type": "museum",
    "name": "釈迦堂遺跡博物館",
    "prefecture": "山梨県",
    "postCode": "405-0054",
    "address": "山梨県笛吹市一宮町千米寺764",
    "city": "ふえふき",
    "image": "",
    "url": "http://www.eps4.comlink.ne.jp/~shakado/",
    "latlng": "[35.6444594, 138.7154064]",
    "lat": 35.6444594,
    "lng": 138.7154064,
    "isClosed": ""
  },
  {
    "id": "yamanashi-museum-6",
    "type": "museum",
    "name": "山梨県立博物館",
    "prefecture": "山梨県",
    "postCode": "406-0801",
    "address": "山梨県笛吹市御坂町成田1501−1",
    "city": "ふえふき",
    "image": "",
    "url": "http://www.museum.pref.yamanashi.jp/",
    "latlng": "[35.6402746, 138.6484852]",
    "lat": 35.6402746,
    "lng": 138.6484852,
    "isClosed": ""
  },
  {
    "id": "yamanashi-museum-7",
    "type": "museum",
    "name": "富士吉田市歴史民俗博物館（ふじさんミュージアム）",
    "prefecture": "山梨県",
    "postCode": "403-0032",
    "address": "山梨県富士吉田市上吉田東7丁目27−27−1",
    "city": "ふじよしだ",
    "image": "",
    "url": "https://www.fy-museum.jp/",
    "latlng": "[35.4574341, 138.8058155]",
    "lat": 35.4574341,
    "lng": 138.8058155,
    "isClosed": ""
  },
  {
    "id": "yamanashi-museum-8",
    "type": "museum",
    "name": "一般社団法人アフリカンアートミュージアム",
    "prefecture": "山梨県",
    "postCode": "408-0036",
    "address": "山梨県北杜市長坂町中丸1712−7",
    "city": "ほくと",
    "image": "",
    "url": "http://www.africanartmuseum.jp/",
    "latlng": "[35.824042, 138.3600579]",
    "lat": 35.824042,
    "lng": 138.3600579,
    "isClosed": ""
  },
  {
    "id": "yamanashi-museum-9",
    "type": "museum",
    "name": "ポール・ラッシュ記念館",
    "prefecture": "山梨県",
    "postCode": "407-0301",
    "address": "山梨県北杜市高根町清里3545",
    "city": "ほくと",
    "image": "",
    "url": "https://www.seisenryo.jp/spot_paulrusch1.html",
    "latlng": "[35.9210458, 138.4386079]",
    "lat": 35.9210458,
    "lng": 138.4386079,
    "isClosed": ""
  },
  {
    "id": "yamanashi-museum-10",
    "type": "museum",
    "name": "南アルプス市ふるさと文化伝承館",
    "prefecture": "山梨県",
    "postCode": "400-0205",
    "address": "山梨県南アルプス市野牛島2727",
    "city": "みなみあるぷす",
    "image": "",
    "url": "https://www.city.minami-alps.yamanashi.jp/sisetsu/shisetsu/bunkazai-densyokan/",
    "latlng": "[35.6696247, 138.4792334]",
    "lat": 35.6696247,
    "lng": 138.4792334,
    "isClosed": ""
  },
  {
    "id": "yamanashi-museum-11",
    "type": "museum",
    "name": "甲斐黄金村・湯之奥金山博物館",
    "prefecture": "山梨県",
    "postCode": "409-2947",
    "address": "山梨県南巨摩郡身延町上之平1787",
    "city": "みのぶ",
    "image": "",
    "url": "https://www.town.minobu.lg.jp/kinzan/",
    "latlng": "[35.4239472, 138.4730157]",
    "lat": 35.4239472,
    "lng": 138.4730157,
    "isClosed": ""
  },
  {
    "id": "yamanashi-museum-12",
    "type": "museum",
    "name": "美枝きもの資料館",
    "prefecture": "山梨県",
    "postCode": "409-3117",
    "address": "山梨県南巨摩郡身延町三澤274",
    "city": "みのぶ",
    "image": "",
    "url": "https://mie-kimonomuseum.or.jp/",
    "latlng": "[35.482209, 138.4798921]",
    "lat": 35.482209,
    "lng": 138.4798921,
    "isClosed": ""
  },
  {
    "id": "yamanashi-museum-13",
    "type": "museum",
    "name": "山梨県立科学館",
    "prefecture": "山梨県",
    "postCode": "400-0023",
    "address": "山梨県甲府市愛宕町358−1",
    "city": "こうふ",
    "image": "",
    "url": "https://www.kagakukan.pref.yamanashi.jp/",
    "latlng": "[35.6692348, 138.5804127]",
    "lat": 35.6692348,
    "lng": 138.5804127,
    "isClosed": ""
  },
  {
    "id": "yamanashi-museum-14",
    "type": "museum",
    "name": "帝京大学やまなし伝統工芸館",
    "prefecture": "山梨県",
    "postCode": "406-0032",
    "address": "山梨県笛吹市石和町四日市場1566",
    "city": "ふえふき",
    "image": "",
    "url": "http://www.teikyo.jp/crafts-yamanashi/",
    "latlng": "[35.6425665, 138.6296081]",
    "lat": 35.6425665,
    "lng": 138.6296081,
    "isClosed": ""
  },
  {
    "id": "yamanashi-museum-15",
    "type": "museum",
    "name": "サントリーウイスキー博物館",
    "prefecture": "山梨県",
    "postCode": "408-0316",
    "address": "山梨県北杜市白州町鳥原2913−1",
    "city": "ほくと",
    "image": "",
    "url": "https://www.suntory.co.jp/factory/hakushu/facility/",
    "latlng": "[35.8269335, 138.3013777]",
    "lat": 35.8269335,
    "lng": 138.3013777,
    "isClosed": ""
  },
  {
    "id": "yamanashi-museum-16",
    "type": "museum",
    "name": "清泉寮やまねミュージアム",
    "prefecture": "山梨県",
    "postCode": "407-0301",
    "address": "山梨県北杜市高根町清里3545 公益財団法人キープ協会内",
    "city": "ほくと",
    "image": "",
    "url": "https://www.seisenryo.jp/spot_yamane1.html",
    "latlng": "[35.9211896, 138.4292277]",
    "lat": 35.9211896,
    "lng": 138.4292277,
    "isClosed": ""
  },
  {
    "id": "yamanashi-museum-17",
    "type": "museum",
    "name": "身延山宝物館",
    "prefecture": "山梨県",
    "postCode": "409-2524",
    "address": "山梨県南巨摩郡身延町身延3567",
    "city": "みのぶ",
    "image": "",
    "url": "https://www.kuonji.jp/precincts/m-muse/",
    "latlng": "[35.3814394, 138.4281851]",
    "lat": 35.3814394,
    "lng": 138.4281851,
    "isClosed": ""
  }
]