[
  {
    "id": "kagawa-art-1",
    "type": "art",
    "name": "地中美術館",
    "prefecture": "香川県",
    "postCode": "761-3110",
    "address": "香川県香川郡直島町3449−1",
    "city": "なおしま",
    "image": "",
    "url": "https://benesse-artsite.jp/art/chichu.html",
    "latlng": "[34.4597802, 133.9956414]",
    "lat": 34.4597802,
    "lng": 133.9956414,
    "isClosed": ""
  },
  {
    "id": "kagawa-art-2",
    "type": "art",
    "name": "李禹煥美術館",
    "prefecture": "香川県",
    "postCode": "761-3110",
    "address": "香川県香川郡直島町 字倉浦1390",
    "city": "なおしま",
    "image": "",
    "url": "https://benesse-artsite.jp/art/lee-ufan.html",
    "latlng": "[34.4597802, 133.9956414]",
    "lat": 34.4597802,
    "lng": 133.9956414,
    "isClosed": ""
  },
  {
    "id": "kagawa-art-3",
    "type": "art",
    "name": "イサム・ノグチ庭園美術館",
    "prefecture": "香川県",
    "postCode": "761-0121",
    "address": "香川県高松市牟礼町牟礼3519",
    "city": "たかまつ",
    "image": "",
    "url": "http://www.isamunoguchi.or.jp/",
    "latlng": "[34.355382, 134.1263328]",
    "lat": 34.355382,
    "lng": 134.1263328,
    "isClosed": ""
  },
  {
    "id": "kagawa-art-4",
    "type": "art",
    "name": "高松市美術館",
    "prefecture": "香川県",
    "postCode": "760-0027",
    "address": "香川県高松市紺屋町10−4",
    "city": "たかまつ",
    "image": "",
    "url": "https://www.city.takamatsu.kagawa.jp/museum/takamatsu/",
    "latlng": "[34.3440813, 134.0491755]",
    "lat": 34.3440813,
    "lng": 134.0491755,
    "isClosed": ""
  },
  {
    "id": "kagawa-art-5",
    "type": "art",
    "name": "ナガレスタジオ「流政之美術館」",
    "prefecture": "香川県",
    "postCode": "761-0130",
    "address": "香川県高松市庵治町3183",
    "city": "たかまつ",
    "image": "",
    "url": "https://nagarestudio.jp/#1",
    "latlng": "[34.3698194, 134.1589835]",
    "lat": 34.3698194,
    "lng": 134.1589835,
    "isClosed": ""
  },
  {
    "id": "kagawa-art-6",
    "type": "art",
    "name": "美術館「川島猛アートファクトリー」",
    "prefecture": "香川県",
    "postCode": "761-8001",
    "address": "香川県高松市亀水町1411",
    "city": "たかまつ",
    "image": "",
    "url": "https://kawashima-af.com/",
    "latlng": "[34.3765303, 133.936886]",
    "lat": 34.3765303,
    "lng": 133.936886,
    "isClosed": ""
  },
  {
    "id": "kagawa-art-7",
    "type": "art",
    "name": "池川彫刻美術館",
    "prefecture": "香川県",
    "postCode": "761-0612",
    "address": "香川県木田郡三木町氷上4852−1",
    "city": "みき",
    "image": "",
    "url": "",
    "latlng": "[34.2431934, 134.1287146]",
    "lat": 34.2431934,
    "lng": 134.1287146,
    "isClosed": ""
  }
]