[
  {
    "id": "kagawa-museum-1",
    "type": "museum",
    "name": "鎌田共済会郷土博物館",
    "prefecture": "香川県",
    "postCode": "762-0044",
    "address": "香川県坂出市本町1丁目1−24",
    "city": "さかいで",
    "image": "",
    "url": "https://kamahaku.jp/",
    "latlng": "[34.3132967, 133.8520437]",
    "lat": 34.3132967,
    "lng": 133.8520437,
    "isClosed": ""
  },
  {
    "id": "kagawa-museum-2",
    "type": "museum",
    "name": "香川県立ミュージアム",
    "prefecture": "香川県",
    "postCode": "760-0030",
    "address": "香川県高松市玉藻町5−5",
    "city": "たかまつ",
    "image": "",
    "url": "https://www.pref.kagawa.lg.jp/kmuseum/kmuseum/index.html",
    "latlng": "[34.3498733, 134.0533241]",
    "lat": 34.3498733,
    "lng": 134.0533241,
    "isClosed": ""
  },
  {
    "id": "kagawa-museum-3",
    "type": "museum",
    "name": "四国民家博物館",
    "prefecture": "香川県",
    "postCode": "761-0112",
    "address": "香川県高松市屋島中町91",
    "city": "たかまつ",
    "image": "",
    "url": "https://www.shikokumura.or.jp/",
    "latlng": "[34.344694, 134.1087538]",
    "lat": 34.344694,
    "lng": 134.1087538,
    "isClosed": ""
  },
  {
    "id": "kagawa-museum-4",
    "type": "museum",
    "name": "高松市石の民俗資料館",
    "prefecture": "香川県",
    "postCode": "761-0121",
    "address": "香川県高松市牟礼町牟礼1810",
    "city": "たかまつ",
    "image": "",
    "url": "https://www.city.takamatsu.kagawa.jp/kurashi/kosodate/bunka/ishimin/index.html",
    "latlng": "[34.3522414, 134.133325]",
    "lat": 34.3522414,
    "lng": 134.133325,
    "isClosed": ""
  },
  {
    "id": "kagawa-museum-5",
    "type": "museum",
    "name": "琴平海洋博物館",
    "prefecture": "香川県",
    "postCode": "766-0001",
    "address": "香川県仲多度郡琴平町953番地",
    "city": "ことひら",
    "image": "",
    "url": "https://kotohira.kaiyohakubutukan.or.jp/",
    "latlng": "[34.1914394, 133.823306]",
    "lat": 34.1914394,
    "lng": 133.823306,
    "isClosed": ""
  },
  {
    "id": "kagawa-museum-6",
    "type": "museum",
    "name": "金刀比羅宮博物館",
    "prefecture": "香川県",
    "postCode": "766-8501",
    "address": "香川県仲多度郡琴平町892−1",
    "city": "ことひら",
    "image": "",
    "url": "http://www.konpira.or.jp/",
    "latlng": "[34.1914394, 133.823306]",
    "lat": 34.1914394,
    "lng": 133.823306,
    "isClosed": ""
  },
  {
    "id": "kagawa-museum-7",
    "type": "museum",
    "name": "高松市歴史資料館",
    "prefecture": "香川県",
    "postCode": "760-0014",
    "address": "香川県高松市昭和町1丁目2−20",
    "city": "たかまつ",
    "image": "",
    "url": "http://www.city.takamatsu.kagawa.jp/kurashi/kosodate/bunka/rekishi/index.html",
    "latlng": "[34.3440097, 134.0343117]",
    "lat": 34.3440097,
    "lng": 134.0343117,
    "isClosed": ""
  }
]