[
  {
    "id": "miyagi-art-1",
    "type": "art",
    "name": "リアス・アーク美術館",
    "prefecture": "宮城県",
    "postCode": "988-0171",
    "address": "宮城県気仙沼市赤岩牧沢138−5",
    "city": "けせんぬま",
    "image": "",
    "url": "http://rias-ark.sakura.ne.jp/2/",
    "latlng": "[38.8810248, 141.5500754]",
    "lat": 38.8810248,
    "lng": 141.5500754,
    "isClosed": ""
  },
  {
    "id": "miyagi-art-2",
    "type": "art",
    "name": "塩竃市杉村惇美術館",
    "prefecture": "宮城県",
    "postCode": "985-0052",
    "address": "宮城県塩竈市本町8−1",
    "city": "しおがま",
    "image": "",
    "url": "https://sugimurajun.shiomo.jp/",
    "latlng": "[38.3158253, 141.0165989]",
    "lat": 38.3158253,
    "lng": 141.0165989,
    "isClosed": ""
  },
  {
    "id": "miyagi-art-3",
    "type": "art",
    "name": "長井勝一漫画美術館",
    "prefecture": "宮城県",
    "postCode": "985-0036",
    "address": "宮城県塩竈市東玉川町9−1",
    "city": "しおがま",
    "image": "",
    "url": "https://www.city.shiogama.miyagi.jp/soshiki/38/3567.html",
    "latlng": "[38.310651, 141.011568]",
    "lat": 38.310651,
    "lng": 141.011568,
    "isClosed": ""
  },
  {
    "id": "miyagi-art-4",
    "type": "art",
    "name": "カメイ美術館",
    "prefecture": "宮城県",
    "postCode": "980-0022",
    "address": "宮城県仙台市青葉区五橋1丁目1−23 カメイ五橋ビル",
    "city": "せんだい",
    "image": "",
    "url": "https://kameimuseum.or.jp/",
    "latlng": "[38.25471659999999, 140.881344]",
    "lat": 38.25471659999999,
    "lng": 140.881344,
    "isClosed": ""
  },
  {
    "id": "miyagi-art-5",
    "type": "art",
    "name": "宮城県美術館",
    "prefecture": "宮城県",
    "postCode": "980-0861",
    "address": "宮城県仙台市青葉区川内元支倉34−1",
    "city": "せんだい",
    "image": "",
    "url": "https://www.pref.miyagi.jp/site/mmoa/",
    "latlng": "[38.2638769, 140.8552023]",
    "lat": 38.2638769,
    "lng": 140.8552023,
    "isClosed": ""
  },
  {
    "id": "miyagi-art-6",
    "type": "art",
    "name": "東北福祉大学 芹沢銈介美術工芸館",
    "prefecture": "宮城県",
    "postCode": "981-0943",
    "address": "宮城県仙台市青葉区国見1丁目8−1",
    "city": "せんだい",
    "image": "",
    "url": "https://www.tfu.ac.jp/kogeikan/",
    "latlng": "[38.28004079999999, 140.8479539]",
    "lat": 38.28004079999999,
    "lng": 140.8479539,
    "isClosed": ""
  },
  {
    "id": "miyagi-art-7",
    "type": "art",
    "name": "長井勝一漫画美術館",
    "prefecture": "宮城県",
    "postCode": "985-0036",
    "address": "宮城県塩竈市東玉川町9−1",
    "city": "しおがま",
    "image": "",
    "url": "https://www.city.shiogama.miyagi.jp/soshiki/38/3567.html",
    "latlng": "[38.310651, 141.011568]",
    "lat": 38.310651,
    "lng": 141.011568,
    "isClosed": ""
  },
  {
    "id": "miyagi-art-8",
    "type": "art",
    "name": "菅野美術館",
    "prefecture": "宮城県",
    "postCode": "985-0042",
    "address": "宮城県塩竈市玉川3-4-15",
    "city": "しおがま",
    "image": "",
    "url": "http://www.kanno-museum.jp/",
    "latlng": "[38.3114184, 141.005615]",
    "lat": 38.3114184,
    "lng": 141.005615,
    "isClosed": ""
  },
  {
    "id": "miyagi-art-9",
    "type": "art",
    "name": "観慶丸本店丸寿美術館",
    "prefecture": "宮城県",
    "postCode": "986-0822",
    "address": "宮城県石巻市中央2-8-1",
    "city": "いしのまき",
    "image": "",
    "url": "http://homepage3.nifty.com/kankeimaru/",
    "latlng": "[38.4309182, 141.3085118]",
    "lat": 38.4309182,
    "lng": 141.3085118,
    "isClosed": ""
  },
  {
    "id": "miyagi-art-10",
    "type": "art",
    "name": "赤門美術館",
    "prefecture": "宮城県",
    "postCode": "980-0845",
    "address": "宮城県仙台市青葉区荒巻青葉山33-1",
    "city": "せんだい",
    "image": "",
    "url": "",
    "latlng": "[38.262815, 140.83862]",
    "lat": 38.262815,
    "lng": 140.83862,
    "isClosed": ""
  },
  {
    "id": "miyagi-art-11",
    "type": "art",
    "name": "海とガラスと庭園のミュージアム・藤田喬平ガラス美術館",
    "prefecture": "宮城県",
    "postCode": "981-0215",
    "address": "宮城県松島町松島海岸",
    "city": "まつしま",
    "image": "",
    "url": "http://www.ichinobo.com/museum/",
    "latlng": "[38.368053, 141.0588152]",
    "lat": 38.368053,
    "lng": 141.0588152,
    "isClosed": ""
  },
  {
    "id": "miyagi-art-12",
    "type": "art",
    "name": "成瀬美術記念館",
    "prefecture": "宮城県",
    "postCode": "981-0943",
    "address": "宮城県仙台市青葉区国見1－6－25",
    "city": "せんだい",
    "image": "",
    "url": "",
    "latlng": "[38.27913220000001, 140.8476668]",
    "lat": 38.27913220000001,
    "lng": 140.8476668,
    "isClosed": ""
  },
  {
    "id": "miyagi-art-13",
    "type": "art",
    "name": "墨雪墨絵美術館",
    "prefecture": "宮城県",
    "postCode": "981-4252",
    "address": "宮城県加美町西田1-33",
    "city": "かみ",
    "image": "",
    "url": "",
    "latlng": "[38.5820795, 140.8202411]",
    "lat": 38.5820795,
    "lng": 140.8202411,
    "isClosed": ""
  },
  {
    "id": "miyagi-art-14",
    "type": "art",
    "name": "大衡村ふるさと美術館",
    "prefecture": "宮城県",
    "postCode": "981-3602",
    "address": "宮城県大衡村大衡平林39-12",
    "city": "おおひら",
    "image": "",
    "url": "http://www.village.ohira.miyagi.jp/",
    "latlng": "[38.4691952, 140.8820319]",
    "lat": 38.4691952,
    "lng": 140.8820319,
    "isClosed": ""
  },
  {
    "id": "miyagi-art-15",
    "type": "art",
    "name": "七ヶ浜の藤田昭子美術館",
    "prefecture": "宮城県",
    "postCode": "985-0812",
    "address": "宮城県七ヶ浜町松ヶ浜神明裏1－1",
    "city": "しちがはま",
    "image": "",
    "url": "",
    "latlng": "[38.284294, 141.0531755]",
    "lat": 38.284294,
    "lng": 141.0531755,
    "isClosed": ""
  },
  {
    "id": "miyagi-art-16",
    "type": "art",
    "name": "丸寿美術館",
    "prefecture": "宮城県",
    "postCode": "986-0822",
    "address": "宮城県石巻市中央2－8－1 観慶丸本店",
    "city": "いしのまき",
    "image": "",
    "url": "",
    "latlng": "[38.4309972, 141.3084104]",
    "lat": 38.4309972,
    "lng": 141.3084104,
    "isClosed": ""
  },
  {
    "id": "miyagi-art-17",
    "type": "art",
    "name": "仙台万華鏡美術館",
    "prefecture": "宮城県",
    "postCode": "982-0251",
    "address": "宮城県仙台市太白区茂庭松場1-2",
    "city": "せんだい",
    "image": "",
    "url": "http://www.iyashisekai.com/sendai/",
    "latlng": "[38.2213652, 140.7400674]",
    "lat": 38.2213652,
    "lng": 140.7400674,
    "isClosed": ""
  }
]