[
  {
    "id": "miyagi-museum-1",
    "type": "museum",
    "name": "塩竈神社博物館",
    "prefecture": "宮城県",
    "postCode": "985-0074",
    "address": "宮城県塩竈市一森山1−1",
    "city": "しおがま",
    "image": "/img/miyagi/museum/shiogama-jinja-hakubutsukan.jpg",
    "url": "http://www.shiogamajinja.jp/museum/",
    "latlng": "[38.3187984, 141.0130412]",
    "lat": 38.3187984,
    "lng": 141.0130412,
    "isClosed": ""
  },
  {
    "id": "miyagi-museum-2",
    "type": "museum",
    "name": "スリーエム仙台市科学館",
    "prefecture": "宮城県",
    "postCode": "981-0903",
    "address": "宮城県仙台市青葉区台原森林公園4−1 仙台市科学館",
    "city": "せんだい",
    "image": "/img/miyagi/museum/suriiemu-sendaishi-kagakukan.jpg",
    "url": "http://www.kagakukan.sendai-c.ed.jp/",
    "latlng": "[38.2985561, 140.8833]",
    "lat": 38.2985561,
    "lng": 140.8833,
    "isClosed": ""
  },
  {
    "id": "miyagi-museum-3",
    "type": "museum",
    "name": "仙台市天文台",
    "prefecture": "宮城県",
    "postCode": "989-3123",
    "address": "宮城県仙台市青葉区錦ケ丘9丁目29−32",
    "city": "せんだい",
    "image": "/img/miyagi/museum/sendaishi-tenmondai.jpg",
    "url": "http://www.sendai-astro.jp/",
    "latlng": "[38.2568734, 140.7553569]",
    "lat": 38.2568734,
    "lng": 140.7553569,
    "isClosed": ""
  },
  {
    "id": "miyagi-museum-4",
    "type": "museum",
    "name": "仙台市博物館",
    "prefecture": "宮城県",
    "postCode": "980-0862",
    "address": "宮城県仙台市青葉区川内26",
    "city": "せんだい",
    "image": "/img/miyagi/museum/sendaishi-hakubutsukan.jpg",
    "url": "https://www.city.sendai.jp/museum/",
    "latlng": "[38.2559956, 140.8568549]",
    "lat": 38.2559956,
    "lng": 140.8568549,
    "isClosed": ""
  },
  {
    "id": "miyagi-museum-5",
    "type": "museum",
    "name": "歴史博物館青葉城資料展示館",
    "prefecture": "宮城県",
    "postCode": "980-0862",
    "address": "宮城県仙台市青葉区川内1",
    "city": "せんだい",
    "image": "/img/miyagi/museum/rekishi-hakubutsukan-aobajou-shiryou-tenjikan.jpg",
    "url": "https://honmarukaikan.com/s/docs/tenji/",
    "latlng": "[38.25233650000001, 140.8559556]",
    "lat": 38.25233650000001,
    "lng": 140.8559556,
    "isClosed": ""
  },
  {
    "id": "miyagi-museum-6",
    "type": "museum",
    "name": "東北歴史博物館",
    "prefecture": "宮城県",
    "postCode": "985-0862",
    "address": "宮城県多賀城市高崎1丁目22−1",
    "city": "たがじょう",
    "image": "/img/miyagi/museum/touhoku-rekishi-hakubutsukan.jpg",
    "url": "https://www.thm.pref.miyagi.jp/",
    "latlng": "[38.2999997, 140.9944438]",
    "lat": 38.2999997,
    "lng": 140.9944438,
    "isClosed": ""
  },
  {
    "id": "miyagi-museum-7",
    "type": "museum",
    "name": "瑞巌寺宝物館",
    "prefecture": "宮城県",
    "postCode": "981-0213",
    "address": "宮城県宮城郡松島町松島町内91",
    "city": "まつしま",
    "image": "/img/miyagi/museum/zuigan-jihou-mono-kan.jpg",
    "url": "https://zuiganji.or.jp/museum/",
    "latlng": "[38.3722675, 141.0602408]",
    "lat": 38.3722675,
    "lng": 141.0602408,
    "isClosed": ""
  },
  {
    "id": "miyagi-museum-8",
    "type": "museum",
    "name": "宮城県慶長使節船ミュージアム（サン・ファン館）",
    "prefecture": "宮城県",
    "postCode": "986-2135",
    "address": "宮城県石巻市渡波大森30−2",
    "city": "いしのまき",
    "image": "",
    "url": "https://www.santjuan.or.jp/",
    "latlng": "[38.4095706, 141.3695511]",
    "lat": 38.4095706,
    "lng": 141.3695511,
    "isClosed": ""
  },
  {
    "id": "miyagi-museum-9",
    "type": "museum",
    "name": "大崎市松山ふるさと歴史館",
    "prefecture": "宮城県",
    "postCode": "987-1304",
    "address": "宮城県大崎市松山千石松山428",
    "city": "おおさき",
    "image": "/img/miyagi/museum/oosaki-ichimatsu-yama-furusato-rekishikan.jpg",
    "url": "https://www.city.osaki.miyagi.jp/shisei/soshikikarasagasu/kyoikuiinkaijimukyoku/matsuyamakominkan/1/1/2682.html",
    "latlng": "[38.5118606, 141.0514965]",
    "lat": 38.5118606,
    "lng": 141.0514965,
    "isClosed": ""
  },
  {
    "id": "miyagi-museum-11",
    "type": "museum",
    "name": "東北学院大学博物館",
    "prefecture": "宮城県",
    "postCode": "980-0065",
    "address": "宮城県仙台市青葉区土樋1丁目1−3",
    "city": "せんだい",
    "image": "",
    "url": "https://www.tohoku-gakuin.ac.jp/facilities/museum/",
    "latlng": "[38.2488325, 140.8799299]",
    "lat": 38.2488325,
    "lng": 140.8799299,
    "isClosed": ""
  },
  {
    "id": "miyagi-museum-12",
    "type": "museum",
    "name": "奥松島縄文村歴史資料館",
    "prefecture": "宮城県",
    "postCode": "981-0412",
    "address": "宮城県東松島市宮戸里81−18",
    "city": "ひがしまつしま",
    "image": "",
    "url": "http://www.satohama-jomon.jp/",
    "latlng": "[38.3374907, 141.1465021]",
    "lat": 38.3374907,
    "lng": 141.1465021,
    "isClosed": ""
  },
  {
    "id": "miyagi-museum-13",
    "type": "museum",
    "name": "阿部次郎記念館",
    "prefecture": "宮城県",
    "postCode": "980-0813",
    "address": "宮城県仙台市青葉区米ヶ袋3－4－29",
    "city": "せんだい",
    "image": "",
    "url": "",
    "latlng": "[38.2478832, 140.8720554]",
    "lat": 38.2478832,
    "lng": 140.8720554,
    "isClosed": ""
  },
  {
    "id": "miyagi-museum-14",
    "type": "museum",
    "name": "陸奥国分寺宝物館",
    "prefecture": "宮城県",
    "postCode": "984-0047",
    "address": "宮城県仙台市若林区木ノ下2－8－28",
    "city": "せんだい",
    "image": "",
    "url": "",
    "latlng": "[38.2507933, 140.9005037]",
    "lat": 38.2507933,
    "lng": 140.9005037,
    "isClosed": ""
  },
  {
    "id": "miyagi-museum-15",
    "type": "museum",
    "name": "雄勝硯伝統産業会館",
    "prefecture": "宮城県",
    "postCode": "986-1333",
    "address": "宮城県石巻市雄勝町雄勝字寺53-1",
    "city": "いしのまき",
    "image": "",
    "url": "",
    "latlng": "[38.5126387, 141.4625626]",
    "lat": 38.5126387,
    "lng": 141.4625626,
    "isClosed": ""
  },
  {
    "id": "miyagi-museum-16",
    "type": "museum",
    "name": "風の沢ミュージアム",
    "prefecture": "宮城県",
    "postCode": "987-2302",
    "address": "宮城県栗原市一迫片子沢外の沢11",
    "city": "くりはら",
    "image": "",
    "url": "http://www.kazenosawa.jp/",
    "latlng": "[38.7810807, 140.9571945]",
    "lat": 38.7810807,
    "lng": 140.9571945,
    "isClosed": ""
  },
  {
    "id": "miyagi-museum-17",
    "type": "museum",
    "name": "鬼首展示館",
    "prefecture": "宮城県",
    "postCode": "989-6941",
    "address": "宮城県大崎市鳴子温泉鬼首字 荒雄岳2-5",
    "city": "おおさき",
    "image": "",
    "url": "",
    "latlng": "[38.8107131, 140.708107]",
    "lat": 38.8107131,
    "lng": 140.708107,
    "isClosed": ""
  },
  {
    "id": "miyagi-museum-18",
    "type": "museum",
    "name": "麹屋コレクション",
    "prefecture": "宮城県",
    "postCode": "989-1603",
    "address": "宮城県柴田町船岡西1－3－2",
    "city": "しばた",
    "image": "",
    "url": "",
    "latlng": "[38.0553551, 140.7649914]",
    "lat": 38.0553551,
    "lng": 140.7649914,
    "isClosed": ""
  },
  {
    "id": "miyagi-museum-19",
    "type": "museum",
    "name": "秋保大滝植物園",
    "prefecture": "宮城県",
    "postCode": "982-0244",
    "address": "宮城県仙台市太白区秋保町馬場大滝5番地",
    "city": "せんだい",
    "image": "",
    "url": "",
    "latlng": "[38.2738165, 140.602025]",
    "lat": 38.2738165,
    "lng": 140.602025,
    "isClosed": ""
  },
  {
    "id": "miyagi-museum-20",
    "type": "museum",
    "name": "竹駒神社馬事博物館",
    "prefecture": "宮城県",
    "postCode": "989-2443",
    "address": "宮城県岩沼市稲荷町1－1 竹駒神社内",
    "city": "いわぬま",
    "image": "",
    "url": "",
    "latlng": "[38.1046292, 140.8618194]",
    "lat": 38.1046292,
    "lng": 140.8618194,
    "isClosed": ""
  },
  {
    "id": "miyagi-museum-21",
    "type": "museum",
    "name": "細倉マインパーク",
    "prefecture": "宮城県",
    "postCode": "989-5402",
    "address": "宮城県栗原市鶯沢南郷柳沢2-3",
    "city": "くりはら",
    "image": "",
    "url": "",
    "latlng": "[38.8032068, 140.9057158]",
    "lat": 38.8032068,
    "lng": 140.9057158,
    "isClosed": ""
  },
  {
    "id": "miyagi-museum-22",
    "type": "museum",
    "name": "細倉鉱山資料館",
    "prefecture": "宮城県",
    "postCode": "989-5402",
    "address": "宮城県栗原市鶯沢南郷北沢向6-1",
    "city": "くりはら",
    "image": "",
    "url": "",
    "latlng": "[38.80250890000001, 140.8989618]",
    "lat": 38.80250890000001,
    "lng": 140.8989618,
    "isClosed": ""
  },
  {
    "id": "miyagi-museum-23",
    "type": "museum",
    "name": "縄文芸術館",
    "prefecture": "宮城県",
    "postCode": "981-4241",
    "address": "宮城県加美町南町186-1",
    "city": "かみ",
    "image": "",
    "url": "",
    "latlng": "[38.565324, 140.8577993]",
    "lat": 38.565324,
    "lng": 140.8577993,
    "isClosed": ""
  },
  {
    "id": "miyagi-museum-24",
    "type": "museum",
    "name": "茅葺き民家",
    "prefecture": "宮城県",
    "postCode": "981-4401",
    "address": "宮城県加美町宮崎切込2-70",
    "city": "かみ",
    "image": "",
    "url": "",
    "latlng": "[38.63223139999999, 140.7135458]",
    "lat": 38.63223139999999,
    "lng": 140.7135458,
    "isClosed": ""
  },
  {
    "id": "miyagi-museum-25",
    "type": "museum",
    "name": "荒沢自然館",
    "prefecture": "宮城県",
    "postCode": "981-4355",
    "address": "宮城県加美町鹿原田谷地1-2",
    "city": "かみ",
    "image": "",
    "url": "",
    "latlng": "[38.5550658, 140.6806277]",
    "lat": 38.5550658,
    "lng": 140.6806277,
    "isClosed": ""
  },
  {
    "id": "miyagi-museum-26",
    "type": "museum",
    "name": "蔵の郷土館　齋理屋敷",
    "prefecture": "宮城県",
    "postCode": "981-2165",
    "address": "宮城県丸森町町西25",
    "city": "まるもり",
    "image": "",
    "url": "",
    "latlng": "[37.9135757, 140.7619443]",
    "lat": 37.9135757,
    "lng": 140.7619443,
    "isClosed": ""
  },
  {
    "id": "miyagi-museum-27",
    "type": "museum",
    "name": "蔵王酒造展示館",
    "prefecture": "宮城県",
    "postCode": "989-0253",
    "address": "宮城県白石市東小路120－1",
    "city": "しろいし",
    "image": "",
    "url": "",
    "latlng": "[38.0039983, 140.6209696]",
    "lat": 38.0039983,
    "lng": 140.6209696,
    "isClosed": ""
  },
  {
    "id": "miyagi-museum-28",
    "type": "museum",
    "name": "観瀾亭松島博物館",
    "prefecture": "宮城県",
    "postCode": "981-0213",
    "address": "宮城県松島町松島町内56",
    "city": "まつしま",
    "image": "",
    "url": "http://www.town.miyagi-matsushima.lg.jp/index.cfm/9,1825,51,138,html",
    "latlng": "[38.3693675, 141.0617273]",
    "lat": 38.3693675,
    "lng": 141.0617273,
    "isClosed": ""
  },
  {
    "id": "miyagi-museum-29",
    "type": "museum",
    "name": "角田ロケット開発センター　宇宙開発展示室",
    "prefecture": "宮城県",
    "postCode": "981-1526",
    "address": "宮城県角田市神次郎高久蔵1",
    "city": "かくだ",
    "image": "",
    "url": "",
    "latlng": "[38.0379131, 140.770962]",
    "lat": 38.0379131,
    "lng": 140.770962,
    "isClosed": ""
  },
  {
    "id": "miyagi-museum-30",
    "type": "museum",
    "name": "角田市スペースタワー・コスモハウス",
    "prefecture": "宮城県",
    "postCode": "981-1505",
    "address": "宮城県角田市角田牛館100",
    "city": "かくだ",
    "image": "",
    "url": "",
    "latlng": "[37.9693282, 140.777834]",
    "lat": 37.9693282,
    "lng": 140.777834,
    "isClosed": ""
  },
  {
    "id": "miyagi-museum-31",
    "type": "museum",
    "name": "角田市郷土資料館",
    "prefecture": "宮城県",
    "postCode": "981-1505",
    "address": "宮城県角田市角田町17",
    "city": "かくだ",
    "image": "",
    "url": "http://www.city.kakuda.miyagi.jp/syogai/page00001.shtml",
    "latlng": "[37.9711874, 140.7849605]",
    "lat": 37.9711874,
    "lng": 140.7849605,
    "isClosed": ""
  },
  {
    "id": "miyagi-museum-32",
    "type": "museum",
    "name": "酒ミュージアム",
    "prefecture": "宮城県",
    "postCode": "987-1304",
    "address": "宮城県大崎市松山千石字松山242-1",
    "city": "おおさき",
    "image": "",
    "url": "",
    "latlng": "[38.5116124, 141.0521705]",
    "lat": 38.5116124,
    "lng": 141.0521705,
    "isClosed": ""
  },
  {
    "id": "miyagi-museum-33",
    "type": "museum",
    "name": "金成町歴史民俗資料館",
    "prefecture": "宮城県",
    "postCode": "989-5144",
    "address": "宮城県栗原市金成中町7",
    "city": "くりはら",
    "image": "",
    "url": "",
    "latlng": "[38.8108381, 141.0743951]",
    "lat": 38.8108381,
    "lng": 141.0743951,
    "isClosed": ""
  },
  {
    "id": "miyagi-museum-34",
    "type": "museum",
    "name": "鎌田記念ホール・鎌田三之助展示室",
    "prefecture": "宮城県",
    "postCode": "989-4102",
    "address": "宮城県大崎市鹿島台木間塚字福芦335-1",
    "city": "おおさき",
    "image": "",
    "url": "",
    "latlng": "[38.4726898, 141.1060584]",
    "lat": 38.4726898,
    "lng": 141.1060584,
    "isClosed": ""
  },
  {
    "id": "miyagi-museum-35",
    "type": "museum",
    "name": "鐘崎笹かま館",
    "prefecture": "宮城県",
    "postCode": "984-0001",
    "address": "宮城県仙台市若林区鶴代町6－65",
    "city": "せんだい",
    "image": "",
    "url": "",
    "latlng": "[38.2572812, 140.9557719]",
    "lat": 38.2572812,
    "lng": 140.9557719,
    "isClosed": ""
  },
  {
    "id": "miyagi-museum-36",
    "type": "museum",
    "name": "栗原市一迫埋蔵文化財センター　山王ろまん館",
    "prefecture": "宮城県",
    "postCode": "987-2308",
    "address": "宮城県栗原市一迫真坂46-2",
    "city": "くりはら",
    "image": "",
    "url": "",
    "latlng": "[38.7531831, 140.924842]",
    "lat": 38.7531831,
    "lng": 140.924842,
    "isClosed": ""
  },
  {
    "id": "miyagi-museum-37",
    "type": "museum",
    "name": "栗原市築館出土文化財管理センター",
    "prefecture": "宮城県",
    "postCode": "987-2202",
    "address": "宮城県栗原市築館城生野大堀3",
    "city": "くりはら",
    "image": "",
    "url": "",
    "latlng": "[38.7698009, 141.0370561]",
    "lat": 38.7698009,
    "lng": 141.0370561,
    "isClosed": ""
  },
  {
    "id": "miyagi-museum-38",
    "type": "museum",
    "name": "気仙沼リアスシャークミュージアム",
    "prefecture": "宮城県",
    "postCode": "988-0037",
    "address": "宮城県気仙沼市魚市場前7－13 産業センター2F",
    "city": "けせんぬま",
    "image": "",
    "url": "",
    "latlng": "[38.900099, 141.579536]",
    "lat": 38.900099,
    "lng": 141.579536,
    "isClosed": ""
  },
  {
    "id": "miyagi-museum-39",
    "type": "museum",
    "name": "気仙沼市岩井崎プロムナードセンター",
    "prefecture": "宮城県",
    "postCode": "988-0242",
    "address": "宮城県気仙沼市波路上崎野1－7",
    "city": "けせんぬま",
    "image": "",
    "url": "",
    "latlng": "[38.8296843, 141.5960964]",
    "lat": 38.8296843,
    "lng": 141.5960964,
    "isClosed": ""
  },
  {
    "id": "miyagi-museum-40",
    "type": "museum",
    "name": "泉市民俗資料館",
    "prefecture": "宮城県",
    "postCode": "981-3131",
    "address": "宮城県仙台市泉区七北田東裏53",
    "city": "せんだい",
    "image": "",
    "url": "",
    "latlng": "[38.3227975, 140.8906642]",
    "lat": 38.3227975,
    "lng": 140.8906642,
    "isClosed": ""
  },
  {
    "id": "miyagi-museum-41",
    "type": "museum",
    "name": "津山町郷土文化保存伝習館",
    "prefecture": "宮城県",
    "postCode": "986-0402",
    "address": "宮城県登米市津山町横山細屋24",
    "city": "とめ",
    "image": "",
    "url": "",
    "latlng": "[38.6205903, 141.3260475]",
    "lat": 38.6205903,
    "lng": 141.3260475,
    "isClosed": ""
  },
  {
    "id": "miyagi-museum-42",
    "type": "museum",
    "name": "涌谷町立史料館",
    "prefecture": "宮城県",
    "postCode": "987-0100",
    "address": "宮城県涌谷町下町3－2",
    "city": "わくや",
    "image": "",
    "url": "",
    "latlng": "[38.5443526, 141.1322908]",
    "lat": 38.5443526,
    "lng": 141.1322908,
    "isClosed": ""
  },
  {
    "id": "miyagi-museum-43",
    "type": "museum",
    "name": "温麺の館",
    "prefecture": "宮城県",
    "postCode": "989-0213",
    "address": "宮城県白石市大鷹沢三沢桜田11－6",
    "city": "しろいし",
    "image": "",
    "url": "",
    "latlng": "[37.9951399, 140.6327413]",
    "lat": 37.9951399,
    "lng": 140.6327413,
    "isClosed": ""
  },
  {
    "id": "miyagi-museum-44",
    "type": "museum",
    "name": "登米市歴史博物館",
    "prefecture": "宮城県",
    "postCode": "987-0511",
    "address": "宮城県登米市迫町佐沼内町63-20",
    "city": "とめ",
    "image": "",
    "url": "",
    "latlng": "[38.6939425, 141.194866]",
    "lat": 38.6939425,
    "lng": 141.194866,
    "isClosed": ""
  },
  {
    "id": "miyagi-museum-45",
    "type": "museum",
    "name": "登米市登米町歴史資料館　教育資料館　（旧登米高等尋常小学校校舎）",
    "prefecture": "宮城県",
    "postCode": "987-0702",
    "address": "宮城県登米市登米町寺池桜小路6",
    "city": "とめ",
    "image": "",
    "url": "",
    "latlng": "[38.6559851, 141.27981]",
    "lat": 38.6559851,
    "lng": 141.27981,
    "isClosed": ""
  },
  {
    "id": "miyagi-museum-46",
    "type": "museum",
    "name": "登米市登米町歴史資料館　水沢県庁記念館（旧水沢県庁庁舎）",
    "prefecture": "宮城県",
    "postCode": "987-0702",
    "address": "宮城県登米市登米町寺池桜小路1",
    "city": "とめ",
    "image": "",
    "url": "",
    "latlng": "[38.6542532, 141.2808072]",
    "lat": 38.6542532,
    "lng": 141.2808072,
    "isClosed": ""
  },
  {
    "id": "miyagi-museum-47",
    "type": "museum",
    "name": "登米市登米町歴史資料館　登米懐古館",
    "prefecture": "宮城県",
    "postCode": "987-0702",
    "address": "宮城県登米市登米町寺池桜小路103-9",
    "city": "とめ",
    "image": "",
    "url": "",
    "latlng": "[38.6550583, 141.2819198]",
    "lat": 38.6550583,
    "lng": 141.2819198,
    "isClosed": ""
  },
  {
    "id": "miyagi-museum-48",
    "type": "museum",
    "name": "登米市登米町歴史資料館　登米町伝統芸能伝承館　森舞台",
    "prefecture": "宮城県",
    "postCode": "987-0702",
    "address": "宮城県登米市登米町寺池上町42",
    "city": "とめ",
    "image": "",
    "url": "",
    "latlng": "[38.66083990000001, 141.2818395]",
    "lat": 38.66083990000001,
    "lng": 141.2818395,
    "isClosed": ""
  },
  {
    "id": "miyagi-museum-49",
    "type": "museum",
    "name": "登米市登米町歴史資料館　警察資料館（旧登米警察署庁舎）",
    "prefecture": "宮城県",
    "postCode": "987-0702",
    "address": "宮城県登米市登米町寺池桜小路1",
    "city": "とめ",
    "image": "",
    "url": "",
    "latlng": "[38.6542532, 141.2808072]",
    "lat": 38.6542532,
    "lng": 141.2808072,
    "isClosed": ""
  },
  {
    "id": "miyagi-museum-50",
    "type": "museum",
    "name": "白石城歴史探訪ミュージアム",
    "prefecture": "宮城県",
    "postCode": "989-0251",
    "address": "宮城県白石市益岡町1－16 益岡公園内",
    "city": "しろいし",
    "image": "",
    "url": "",
    "latlng": "[38.0025765, 140.6165781]",
    "lat": 38.0025765,
    "lng": 140.6165781,
    "isClosed": ""
  },
  {
    "id": "miyagi-museum-51",
    "type": "museum",
    "name": "白鳥省吾記念館",
    "prefecture": "宮城県",
    "postCode": "987-2252",
    "address": "宮城県栗原市築館薬師3-3-26",
    "city": "くりはら",
    "image": "",
    "url": "",
    "latlng": "[38.7341726, 141.0175179]",
    "lat": 38.7341726,
    "lng": 141.0175179,
    "isClosed": ""
  },
  {
    "id": "miyagi-museum-52",
    "type": "museum",
    "name": "石ノ森萬画館",
    "prefecture": "宮城県",
    "postCode": "986-0823",
    "address": "宮城県石巻市中瀬2-7",
    "city": "いしのまき",
    "image": "",
    "url": "https://www.mangattan.jp/manga/",
    "latlng": "[38.4295495, 141.3107545]",
    "lat": 38.4295495,
    "lng": 141.3107545,
    "isClosed": ""
  },
  {
    "id": "miyagi-museum-53",
    "type": "museum",
    "name": "石巻市博物館",
    "prefecture": "宮城県",
    "postCode": "986-0032",
    "address": "宮城県石巻市開成1-8",
    "city": "いしのまき",
    "image": "",
    "url": "",
    "latlng": "[38.459176, 141.3060836]",
    "lat": 38.459176,
    "lng": 141.3060836,
    "isClosed": ""
  },
  {
    "id": "miyagi-museum-54",
    "type": "museum",
    "name": "志津川町郷土文化保存伝習館",
    "prefecture": "宮城県",
    "postCode": "986-0782",
    "address": "宮城県南三陸町入谷童子下190-4",
    "city": "みなみさんりく",
    "image": "",
    "url": "http://www.town.minamisanriku.miyagi.jp/modules/museum/index.php?content_id=33",
    "latlng": "[38.7057928, 141.414902]",
    "lat": 38.7057928,
    "lng": 141.414902,
    "isClosed": ""
  },
  {
    "id": "miyagi-museum-55",
    "type": "museum",
    "name": "感覚ミュージアム",
    "prefecture": "宮城県",
    "postCode": "989-6434",
    "address": "宮城県大崎市岩出山字下川原町100",
    "city": "おおさき",
    "image": "",
    "url": "http://www.kankaku.org/",
    "latlng": "[38.6565447, 140.8708131]",
    "lat": 38.6565447,
    "lng": 140.8708131,
    "isClosed": ""
  },
  {
    "id": "miyagi-museum-56",
    "type": "museum",
    "name": "斎藤報恩農業記念館",
    "prefecture": "宮城県",
    "postCode": "987-0004",
    "address": "宮城県美里町牛飼伊勢堂裏30",
    "city": "みさと",
    "image": "",
    "url": "",
    "latlng": "[38.5556572, 141.0548917]",
    "lat": 38.5556572,
    "lng": 141.0548917,
    "isClosed": ""
  },
  {
    "id": "miyagi-museum-57",
    "type": "museum",
    "name": "日本こけし館",
    "prefecture": "宮城県",
    "postCode": "989-6827",
    "address": "宮城県大崎市鳴子温泉字尿前74-2",
    "city": "おおさき",
    "image": "",
    "url": "http://www.kokesikan.com/",
    "latlng": "[38.73674279999999, 140.6978018]",
    "lat": 38.73674279999999,
    "lng": 140.6978018,
    "isClosed": ""
  },
  {
    "id": "miyagi-museum-58",
    "type": "museum",
    "name": "旧有備館",
    "prefecture": "宮城県",
    "postCode": "989-6433",
    "address": "宮城県大崎市岩出山字上川原町6",
    "city": "おおさき",
    "image": "",
    "url": "",
    "latlng": "[38.6576631, 140.8634999]",
    "lat": 38.6576631,
    "lng": 140.8634999,
    "isClosed": ""
  },
  {
    "id": "miyagi-museum-59",
    "type": "museum",
    "name": "村田商人ヤマショウ記念館",
    "prefecture": "宮城県",
    "postCode": "989-1305",
    "address": "宮城県村田町村田町191",
    "city": "むらた",
    "image": "",
    "url": "",
    "latlng": "[38.11643249999999, 140.7232304]",
    "lat": 38.11643249999999,
    "lng": 140.7232304,
    "isClosed": ""
  },
  {
    "id": "miyagi-museum-60",
    "type": "museum",
    "name": "村田町歴史みらい館",
    "prefecture": "宮城県",
    "postCode": "989-1305",
    "address": "宮城県村田町村田迫85",
    "city": "むらた",
    "image": "",
    "url": "",
    "latlng": "[38.1191665, 140.7186344]",
    "lat": 38.1191665,
    "lng": 140.7186344,
    "isClosed": ""
  },
  {
    "id": "miyagi-museum-61",
    "type": "museum",
    "name": "東北大学史料館",
    "prefecture": "宮城県",
    "postCode": "980-8577",
    "address": "宮城県仙台市青葉区片平2-1-1",
    "city": "せんだい",
    "image": "",
    "url": "http://www.archives.tohoku.ac.jp/",
    "latlng": "[38.25155410000001, 140.8755477]",
    "lat": 38.25155410000001,
    "lng": 140.8755477,
    "isClosed": ""
  },
  {
    "id": "miyagi-museum-62",
    "type": "museum",
    "name": "東北大学大学院理学研究科附属植物園",
    "prefecture": "宮城県",
    "postCode": "980-0862",
    "address": "宮城県仙台市青葉区川内",
    "city": "せんだい",
    "image": "",
    "url": "http://www.biology.tohoku.ac.jp/garden/index.html",
    "latlng": "[38.255156, 140.8529929]",
    "lat": 38.255156,
    "lng": 140.8529929,
    "isClosed": ""
  },
  {
    "id": "miyagi-museum-63",
    "type": "museum",
    "name": "東北大学大学院薬学研究科附属　薬用植物園",
    "prefecture": "宮城県",
    "postCode": "980-8578",
    "address": "宮城県仙台市青葉区荒巻青葉",
    "city": "せんだい",
    "image": "",
    "url": "http://www.pharm.tohoku.ac.jp/~yakusoen/index.html",
    "latlng": "[38.2577111, 140.8334081]",
    "lat": 38.2577111,
    "lng": 140.8334081,
    "isClosed": ""
  },
  {
    "id": "miyagi-museum-64",
    "type": "museum",
    "name": "東北大学総合学術博物館（自然史標本館）",
    "prefecture": "宮城県",
    "postCode": "980-8578",
    "address": "宮城県仙台市青葉区荒巻青葉",
    "city": "せんだい",
    "image": "",
    "url": "http://www.museum.tohoku.ac.jp/",
    "latlng": "[38.2577111, 140.8334081]",
    "lat": 38.2577111,
    "lng": 140.8334081,
    "isClosed": ""
  },
  {
    "id": "miyagi-museum-65",
    "type": "museum",
    "name": "東北大学附属図書館",
    "prefecture": "宮城県",
    "postCode": "980-8576",
    "address": "宮城県仙台市青葉区川内27-1",
    "city": "せんだい",
    "image": "",
    "url": "http://www.library.tohoku.ac.jp/",
    "latlng": "[38.2589034, 140.8539601]",
    "lat": 38.2589034,
    "lng": 140.8539601,
    "isClosed": ""
  },
  {
    "id": "miyagi-museum-66",
    "type": "museum",
    "name": "東北陶磁文化館",
    "prefecture": "宮城県",
    "postCode": "981-4261",
    "address": "宮城県加美町字町裏64",
    "city": "かみ",
    "image": "",
    "url": "",
    "latlng": "[38.5681377, 140.8591948]",
    "lat": 38.5681377,
    "lng": 140.8591948,
    "isClosed": ""
  },
  {
    "id": "miyagi-museum-67",
    "type": "museum",
    "name": "東北電力　女川原子力ＰＲセンター",
    "prefecture": "宮城県",
    "postCode": "986-2221",
    "address": "宮城県女川町塚浜前田123",
    "city": "おながわ",
    "image": "",
    "url": "",
    "latlng": "[38.3923199, 141.4980755]",
    "lat": 38.3923199,
    "lng": 141.4980755,
    "isClosed": ""
  },
  {
    "id": "miyagi-museum-68",
    "type": "museum",
    "name": "東北電力株式会社　新仙台火力発電所ふれあい館",
    "prefecture": "宮城県",
    "postCode": "985-0901",
    "address": "宮城県仙台市宮城野区港5－2－1",
    "city": "せんだい",
    "image": "",
    "url": "",
    "latlng": "[38.2776205, 141.0419644]",
    "lat": 38.2776205,
    "lng": 141.0419644,
    "isClosed": ""
  },
  {
    "id": "miyagi-museum-69",
    "type": "museum",
    "name": "松島福浦島自然植物園",
    "prefecture": "宮城県",
    "postCode": "981-0200",
    "address": "宮城県松島町霞ケ浦21－8",
    "city": "まつしま",
    "image": "",
    "url": "",
    "latlng": "[38.3652102, 141.0600087]",
    "lat": 38.3652102,
    "lng": 141.0600087,
    "isClosed": ""
  },
  {
    "id": "miyagi-museum-70",
    "type": "museum",
    "name": "多賀城市埋蔵文化財調査センター・収蔵展示室",
    "prefecture": "宮城県",
    "postCode": "985-0873",
    "address": "宮城県多賀城市中央2－27－1 （多賀城市文化センター内）",
    "city": "たがじょう",
    "image": "",
    "url": "http://www.city.tagajo.miyagi.jp/shiseki/bunkazai/index.html",
    "latlng": "[38.2953724, 141.0049869]",
    "lat": 38.2953724,
    "lng": 141.0049869,
    "isClosed": ""
  },
  {
    "id": "miyagi-museum-71",
    "type": "museum",
    "name": "大塩民俗資料館",
    "prefecture": "宮城県",
    "postCode": "981-0505",
    "address": "宮城県東松島市大塩中沢23-1",
    "city": "ひがしまつしま",
    "image": "",
    "url": "",
    "latlng": "[38.4403397, 141.162219]",
    "lat": 38.4403397,
    "lng": 141.162219,
    "isClosed": ""
  },
  {
    "id": "miyagi-museum-72",
    "type": "museum",
    "name": "大崎市図書館郷土資料室",
    "prefecture": "宮城県",
    "postCode": "989-6172",
    "address": "宮城県大崎市古川前田町2－28",
    "city": "おおさき",
    "image": "",
    "url": "",
    "latlng": "[38.5782456, 140.9593983]",
    "lat": 38.5782456,
    "lng": 140.9593983,
    "isClosed": ""
  },
  {
    "id": "miyagi-museum-73",
    "type": "museum",
    "name": "大崎生涯学習センター（パレットおおさき）　伝統文化室・プラネタリウム館",
    "prefecture": "宮城県",
    "postCode": "989-6135",
    "address": "宮城県大崎市古川穂波3-4-20",
    "city": "おおさき",
    "image": "",
    "url": "",
    "latlng": "[38.5657111, 140.945958]",
    "lat": 38.5657111,
    "lng": 140.945958,
    "isClosed": ""
  },
  {
    "id": "miyagi-museum-74",
    "type": "museum",
    "name": "大野家歴史民俗資料館",
    "prefecture": "宮城県",
    "postCode": "987-0702",
    "address": "宮城県登米市登米町寺池上町157",
    "city": "とめ",
    "image": "",
    "url": "",
    "latlng": "[38.6618395, 141.2763875]",
    "lat": 38.6618395,
    "lng": 141.2763875,
    "isClosed": ""
  },
  {
    "id": "miyagi-museum-75",
    "type": "museum",
    "name": "女流歌人　原阿佐緒記念館",
    "prefecture": "宮城県",
    "postCode": "981-3624",
    "address": "宮城県大和町宮床八坊原19－2",
    "city": "たいわ",
    "image": "",
    "url": "",
    "latlng": "[38.405326, 140.8468654]",
    "lat": 38.405326,
    "lng": 140.8468654,
    "isClosed": ""
  },
  {
    "id": "miyagi-museum-76",
    "type": "museum",
    "name": "姥ヶ懐民話の里 ふるさとおとぎ苑 民話伝承館・産直館",
    "prefecture": "宮城県",
    "postCode": "989-1302",
    "address": "宮城県村田町小泉肬石2",
    "city": "むらた",
    "image": "",
    "url": "http://www.muratamachi.info/",
    "latlng": "[38.1320925, 140.7505771]",
    "lat": 38.1320925,
    "lng": 140.7505771,
    "isClosed": ""
  },
  {
    "id": "miyagi-museum-77",
    "type": "museum",
    "name": "宝ヶ峯縄文記念館",
    "prefecture": "宮城県",
    "postCode": "987-1101",
    "address": "宮城県石巻市河南町前谷地黒沢73-1",
    "city": "いしのまき",
    "image": "",
    "url": "",
    "latlng": "[38.5065237, 141.1934602]",
    "lat": 38.5065237,
    "lng": 141.1934602,
    "isClosed": ""
  },
  {
    "id": "miyagi-museum-78",
    "type": "museum",
    "name": "宮城・仙台口腔保健センター",
    "prefecture": "宮城県",
    "postCode": "980-0804",
    "address": "宮城県仙台市青葉区国分町1－5－1",
    "city": "せんだい",
    "image": "",
    "url": "",
    "latlng": "[38.2613702, 140.8700973]",
    "lat": 38.2613702,
    "lng": 140.8700973,
    "isClosed": ""
  },
  {
    "id": "miyagi-museum-79",
    "type": "museum",
    "name": "宮城県原子力センター広報展示室「あとみーる」【休館中】",
    "prefecture": "宮城県",
    "postCode": "986-2261",
    "address": "宮城県女川町女川浜伊勢12-7",
    "city": "おながわ",
    "image": "",
    "url": "http://www.miyagi-gc.gr.jp/html/",
    "latlng": "[38.4484657, 141.4477995]",
    "lat": 38.4484657,
    "lng": 141.4477995,
    "isClosed": ""
  },
  {
    "id": "miyagi-museum-80",
    "type": "museum",
    "name": "宮城県水産研究開発センター",
    "prefecture": "宮城県",
    "postCode": "986-2135",
    "address": "宮城県石巻市渡波袖の浜97－6",
    "city": "いしのまき",
    "image": "",
    "url": "",
    "latlng": "[38.4151333, 141.3747456]",
    "lat": 38.4151333,
    "lng": 141.3747456,
    "isClosed": ""
  },
  {
    "id": "miyagi-museum-81",
    "type": "museum",
    "name": "宮城県蔵王野鳥の森観察センター・ことりはうす",
    "prefecture": "宮城県",
    "postCode": "989-0916",
    "address": "宮城県蔵王町遠刈田温泉上ノ原162－1",
    "city": "ざおう",
    "image": "",
    "url": "",
    "latlng": "[38.1230704, 140.537849]",
    "lat": 38.1230704,
    "lng": 140.537849,
    "isClosed": ""
  },
  {
    "id": "miyagi-museum-82",
    "type": "museum",
    "name": "小牛田町近代文学館",
    "prefecture": "宮城県",
    "postCode": "987-0005",
    "address": "宮城県美里町北浦待江98",
    "city": "みさと",
    "image": "",
    "url": "",
    "latlng": "[38.5436386, 141.056112]",
    "lat": 38.5436386,
    "lng": 141.056112,
    "isClosed": ""
  },
  {
    "id": "miyagi-museum-83",
    "type": "museum",
    "name": "山元町歴史民俗資料館",
    "prefecture": "宮城県",
    "postCode": "989-2200",
    "address": "宮城県山元町浅生原日向13－5",
    "city": "やまもと",
    "image": "",
    "url": "",
    "latlng": "[37.9622111, 140.8794127]",
    "lat": 37.9622111,
    "lng": 140.8794127,
    "isClosed": ""
  },
  {
    "id": "miyagi-museum-84",
    "type": "museum",
    "name": "川崎町民俗資料家屋",
    "prefecture": "宮城県",
    "postCode": "989-1505",
    "address": "宮城県川崎町小野小屋場山8－9",
    "city": "かわさき",
    "image": "",
    "url": "",
    "latlng": "[38.1958063, 140.6875576]",
    "lat": 38.1958063,
    "lng": 140.6875576,
    "isClosed": ""
  },
  {
    "id": "miyagi-museum-85",
    "type": "museum",
    "name": "志津川町ひころの里　松笠屋敷・シルク館",
    "prefecture": "宮城県",
    "postCode": "986-0682",
    "address": "宮城県南三陸町入谷桜沢422",
    "city": "みなみさんりく",
    "image": "",
    "url": "",
    "latlng": "[38.69969409999999, 141.4188061]",
    "lat": 38.69969409999999,
    "lng": 141.4188061,
    "isClosed": ""
  },
  {
    "id": "miyagi-museum-86",
    "type": "museum",
    "name": "仙台市戦災復興記念館",
    "prefecture": "宮城県",
    "postCode": "980-0804",
    "address": "宮城県仙台市青葉区大町2－12－1",
    "city": "せんだい",
    "image": "",
    "url": "",
    "latlng": "[38.2608564, 140.8670592]",
    "lat": 38.2608564,
    "lng": 140.8670592,
    "isClosed": ""
  },
  {
    "id": "miyagi-museum-87",
    "type": "museum",
    "name": "仙台市歴史民俗資料館",
    "prefecture": "宮城県",
    "postCode": "983-0842",
    "address": "宮城県仙台市宮城野区五輪1-3-7 榴岡公園内",
    "city": "せんだい",
    "image": "",
    "url": "http://www.city.sendai.jp/kyouiku/rekimin/",
    "latlng": "[38.2606741, 140.8970256]",
    "lat": 38.2606741,
    "lng": 140.8970256,
    "isClosed": ""
  },
  {
    "id": "miyagi-museum-88",
    "type": "museum",
    "name": "仙台市水道記念館",
    "prefecture": "宮城県",
    "postCode": "989-3432",
    "address": "宮城県仙台市青葉区熊ケ根大原道18－1",
    "city": "せんだい",
    "image": "",
    "url": "",
    "latlng": "[38.29927840000001, 140.6948625]",
    "lat": 38.29927840000001,
    "lng": 140.6948625,
    "isClosed": ""
  },
  {
    "id": "miyagi-museum-89",
    "type": "museum",
    "name": "仙台市縄文の森広場",
    "prefecture": "宮城県",
    "postCode": "982-0815",
    "address": "宮城県仙台市太白区山田上ノ台町10-1",
    "city": "せんだい",
    "image": "",
    "url": "http://www.city.sendai.jp/kyouiku/jyoumon/",
    "latlng": "[38.2189643, 140.8328116]",
    "lat": 38.2189643,
    "lng": 140.8328116,
    "isClosed": ""
  },
  {
    "id": "miyagi-museum-90",
    "type": "museum",
    "name": "仙台市野草園",
    "prefecture": "宮城県",
    "postCode": "982-0843",
    "address": "宮城県仙台市太白区茂ヶ崎2-1-1",
    "city": "せんだい",
    "image": "",
    "url": "http://www.sendai-park.or.jp/web/info/yasouen/index.html",
    "latlng": "[38.2388122, 140.8739252]",
    "lat": 38.2388122,
    "lng": 140.8739252,
    "isClosed": ""
  },
  {
    "id": "miyagi-museum-91",
    "type": "museum",
    "name": "仙台文学館",
    "prefecture": "宮城県",
    "postCode": "981-0902",
    "address": "宮城県仙台市青葉区北根2－7－1",
    "city": "せんだい",
    "image": "",
    "url": "http://www.sendai-lit.jp/",
    "latlng": "[38.2964648, 140.8762161]",
    "lat": 38.2964648,
    "lng": 140.8762161,
    "isClosed": ""
  },
  {
    "id": "miyagi-museum-92",
    "type": "museum",
    "name": "仙台箪笥伝承館門間箪笥店",
    "prefecture": "宮城県",
    "postCode": "984-0061",
    "address": "宮城県仙台市若林区南鍛冶町143 門間箪笥店",
    "city": "せんだい",
    "image": "",
    "url": "",
    "latlng": "[38.2474846, 140.8887367]",
    "lat": 38.2474846,
    "lng": 140.8887367,
    "isClosed": ""
  },
  {
    "id": "miyagi-museum-93",
    "type": "museum",
    "name": "仙台藩花山村寒湯番所",
    "prefecture": "宮城県",
    "postCode": "987-2511",
    "address": "宮城県栗原市花山本沢温湯15-1",
    "city": "くりはら",
    "image": "",
    "url": "",
    "latlng": "[38.8612145, 140.7781012]",
    "lat": 38.8612145,
    "lng": 140.7781012,
    "isClosed": ""
  },
  {
    "id": "miyagi-museum-94",
    "type": "museum",
    "name": "伊達の村　宮床宝蔵",
    "prefecture": "宮城県",
    "postCode": "981-3624",
    "address": "宮城県大和町宮床下小路64",
    "city": "たいわ",
    "image": "",
    "url": "",
    "latlng": "[38.4030568, 140.8487092]",
    "lat": 38.4030568,
    "lng": 140.8487092,
    "isClosed": ""
  },
  {
    "id": "miyagi-museum-95",
    "type": "museum",
    "name": "伊達政宗公霊屋 瑞鳳殿",
    "prefecture": "宮城県",
    "postCode": "980-0814",
    "address": "宮城県仙台市青葉区霊屋下23-2",
    "city": "せんだい",
    "image": "",
    "url": "http://www.zuihoden.com/",
    "latlng": "[38.2506585, 140.8662156]",
    "lat": 38.2506585,
    "lng": 140.8662156,
    "isClosed": ""
  },
  {
    "id": "miyagi-museum-96",
    "type": "museum",
    "name": "切込焼記念館",
    "prefecture": "宮城県",
    "postCode": "981-4401",
    "address": "宮城県加美町宮崎切込3",
    "city": "かみ",
    "image": "",
    "url": "",
    "latlng": "[38.63223139999999, 140.7135458]",
    "lat": 38.63223139999999,
    "lng": 140.7135458,
    "isClosed": ""
  },
  {
    "id": "miyagi-museum-97",
    "type": "museum",
    "name": "利府町郷土資料館",
    "prefecture": "宮城県",
    "postCode": "981-0112",
    "address": "宮城県利府町中央二丁目１１番地２ 中央児童センター「ぺあくる」３階",
    "city": "りふ",
    "image": "",
    "url": "https://www.town.rifu.miyagi.jp/gyosei/soshikikarasagasu/syougai/bunka/3549.html",
    "latlng": "[38.3295047, 140.9807959]",
    "lat": 38.3295047,
    "lng": 140.9807959,
    "isClosed": ""
  },
  {
    "id": "miyagi-museum-98",
    "type": "museum",
    "name": "創盛館",
    "prefecture": "宮城県",
    "postCode": "987-2308",
    "address": "宮城県栗原市一迫真坂清水小畑前1-2",
    "city": "くりはら",
    "image": "",
    "url": "",
    "latlng": "[38.7320272, 140.9516701]",
    "lat": 38.7320272,
    "lng": 140.9516701,
    "isClosed": ""
  },
  {
    "id": "miyagi-museum-99",
    "type": "museum",
    "name": "北上川・運河交流館　水の洞窟",
    "prefecture": "宮城県",
    "postCode": "086-0803",
    "address": "宮城県石巻市水押",
    "city": "いしのまき",
    "image": "",
    "url": "",
    "latlng": "[38.4463662, 141.2987242]",
    "lat": 38.4463662,
    "lng": 141.2987242,
    "isClosed": ""
  },
  {
    "id": "miyagi-museum-100",
    "type": "museum",
    "name": "南方歴史民俗資料館",
    "prefecture": "宮城県",
    "postCode": "987-0401",
    "address": "宮城県登米市南方町八の森40-1",
    "city": "とめ",
    "image": "",
    "url": "",
    "latlng": "[38.6584744, 141.1585295]",
    "lat": 38.6584744,
    "lng": 141.1585295,
    "isClosed": ""
  },
  {
    "id": "miyagi-museum-101",
    "type": "museum",
    "name": "原阿佐緒記念館",
    "prefecture": "宮城県",
    "postCode": "981-3624",
    "address": "宮城県大和町宮床八坊原19－2",
    "city": "たいわ",
    "image": "",
    "url": "",
    "latlng": "[38.405326, 140.8468654]",
    "lat": 38.405326,
    "lng": 140.8468654,
    "isClosed": ""
  },
  {
    "id": "miyagi-museum-102",
    "type": "museum",
    "name": "吉野作造記念館",
    "prefecture": "宮城県",
    "postCode": "989-6105",
    "address": "宮城県大崎市古川福沼1-2-3",
    "city": "おおさき",
    "image": "",
    "url": "https://www.yoshinosakuzou.info/",
    "latlng": "[38.5815622, 140.9730603]",
    "lat": 38.5815622,
    "lng": 140.9730603,
    "isClosed": ""
  },
  {
    "id": "miyagi-museum-103",
    "type": "museum",
    "name": "唐桑半島ビジターセンター・津波体験館",
    "prefecture": "宮城県",
    "postCode": "988-0554",
    "address": "宮城県気仙沼市唐桑町崎浜4-3",
    "city": "けせんぬま",
    "image": "",
    "url": "",
    "latlng": "[38.8624431, 141.671915]",
    "lat": 38.8624431,
    "lng": 141.671915,
    "isClosed": ""
  },
  {
    "id": "miyagi-museum-104",
    "type": "museum",
    "name": "地底の森ミュージアム（仙台市富沢遺跡保存館）",
    "prefecture": "宮城県",
    "postCode": "982-0012",
    "address": "宮城県仙台市太白区長町南4－3－1",
    "city": "せんだい",
    "image": "",
    "url": "https://www.city.sendai.jp/kyouiku/chiteinomori/",
    "latlng": "[38.2227917, 140.8725777]",
    "lat": 38.2227917,
    "lng": 140.8725777,
    "isClosed": ""
  },
  {
    "id": "miyagi-museum-105",
    "type": "museum",
    "name": "みやぎ蔵王こけし館",
    "prefecture": "宮城県",
    "postCode": "989-0916",
    "address": "宮城県蔵王町遠刈田温泉新地西裏山36-135",
    "city": "ざおう",
    "image": "",
    "url": "http://www1.ocn.ne.jp/~kokeshi/",
    "latlng": "[38.1203838, 140.5732664]",
    "lat": 38.1203838,
    "lng": 140.5732664,
    "isClosed": ""
  },
  {
    "id": "miyagi-museum-106",
    "type": "museum",
    "name": "わくや万葉の里天平ろまん館",
    "prefecture": "宮城県",
    "postCode": "987-0121",
    "address": "宮城県涌谷町涌谷黄金山1-3",
    "city": "わくや",
    "image": "",
    "url": "http://www.tenpyou.jp/index.html",
    "latlng": "[38.5573928, 141.1368797]",
    "lat": 38.5573928,
    "lng": 141.1368797,
    "isClosed": ""
  },
  {
    "id": "miyagi-museum-107",
    "type": "museum",
    "name": "七ケ宿町水と歴史の館",
    "prefecture": "宮城県",
    "postCode": "989-0537",
    "address": "宮城県七ケ宿町上野8-1",
    "city": "しちかしゅく",
    "image": "",
    "url": "http://www.town.shichikashuku.miyagi.jp/fram_top.htm",
    "latlng": "[37.9829386, 140.4672825]",
    "lat": 37.9829386,
    "lng": 140.4672825,
    "isClosed": ""
  },
  {
    "id": "miyagi-museum-108",
    "type": "museum",
    "name": "七ヶ浜町歴史資料館",
    "prefecture": "宮城県",
    "postCode": "985-0824",
    "address": "宮城県七ヶ浜町境山2－1－12",
    "city": "しちがはま",
    "image": "",
    "url": "",
    "latlng": "[38.302625, 141.0449364]",
    "lat": 38.302625,
    "lng": 141.0449364,
    "isClosed": ""
  },
  {
    "id": "miyagi-museum-109",
    "type": "museum",
    "name": "七十七銀行金融資料館",
    "prefecture": "宮城県",
    "postCode": "980-8777",
    "address": "宮城県仙台市青葉区中央3－3－20 七十七銀行本店4F",
    "city": "せんだい",
    "image": "",
    "url": "http://www.77bank.co.jp/museum/index.htm",
    "latlng": "[38.2598106, 140.8759716]",
    "lat": 38.2598106,
    "lng": 140.8759716,
    "isClosed": ""
  },
  {
    "id": "miyagi-museum-110",
    "type": "museum",
    "name": "三居沢電気百年館",
    "prefecture": "宮城県",
    "postCode": "980-0845",
    "address": "宮城県仙台市青葉区荒巻三居沢16",
    "city": "せんだい",
    "image": "",
    "url": "http://www.tohoku-epco.co.jp/fureai/pr/sankyo/index.htm",
    "latlng": "[38.2683951, 140.8388558]",
    "lat": 38.2683951,
    "lng": 140.8388558,
    "isClosed": ""
  },
  {
    "id": "miyagi-museum-111",
    "type": "museum",
    "name": "三本木亜炭記念館",
    "prefecture": "宮城県",
    "postCode": "989-6321",
    "address": "宮城県大崎市三本木字大豆坂63-24",
    "city": "おおさき",
    "image": "",
    "url": "",
    "latlng": "[38.5215793, 140.938396]",
    "lat": 38.5215793,
    "lng": 140.938396,
    "isClosed": ""
  },
  {
    "id": "miyagi-museum-112",
    "type": "museum",
    "name": "不老仙館",
    "prefecture": "宮城県",
    "postCode": "987-0902",
    "address": "宮城県登米市東和町米谷せんか65",
    "city": "とめ",
    "image": "",
    "url": "",
    "latlng": "[38.70424930000001, 141.3308137]",
    "lat": 38.70424930000001,
    "lng": 141.3308137,
    "isClosed": ""
  },
  {
    "id": "miyagi-museum-113",
    "type": "museum",
    "name": "中田町立歴史民俗資料室",
    "prefecture": "宮城県",
    "postCode": "987-0621",
    "address": "宮城県登米市中田町宝江黒沼浦38",
    "city": "とめ",
    "image": "",
    "url": "",
    "latlng": "[38.6976264, 141.2437188]",
    "lat": 38.6976264,
    "lng": 141.2437188,
    "isClosed": ""
  },
  {
    "id": "miyagi-museum-114",
    "type": "museum",
    "name": "丸森町産業伝承館",
    "prefecture": "宮城県",
    "postCode": "981-2185",
    "address": "宮城県丸森町滝ノ上34－13",
    "city": "まるもり",
    "image": "",
    "url": "",
    "latlng": "[37.9134203, 140.685588]",
    "lat": 37.9134203,
    "lng": 140.685588,
    "isClosed": ""
  },
  {
    "id": "miyagi-museum-115",
    "type": "museum",
    "name": "丸森町資料展示収蔵館（まるもりふるさと館）",
    "prefecture": "宮城県",
    "postCode": "981-2152",
    "address": "宮城県丸森町鳥屋83－1",
    "city": "まるもり",
    "image": "",
    "url": "",
    "latlng": "[37.9123848, 140.7645369]",
    "lat": 37.9123848,
    "lng": 140.7645369,
    "isClosed": ""
  },
  {
    "id": "miyagi-museum-116",
    "type": "museum",
    "name": "亘理町立郷土資料館",
    "prefecture": "宮城県",
    "postCode": "989-2351",
    "address": "宮城県亘理町西郷140",
    "city": "わたり",
    "image": "",
    "url": "",
    "latlng": "[38.0402891, 140.8615144]",
    "lat": 38.0402891,
    "lng": 140.8615144,
    "isClosed": ""
  },
  {
    "id": "miyagi-museum-117",
    "type": "museum",
    "name": "仙台市太白山自然観察の森　自然観察センター",
    "prefecture": "宮城県",
    "postCode": "982-0251",
    "address": "宮城県仙台市太白区茂庭生出森東36－63",
    "city": "せんだい",
    "image": "",
    "url": "",
    "latlng": "[38.2345426, 140.8034958]",
    "lat": 38.2345426,
    "lng": 140.8034958,
    "isClosed": ""
  },
  {
    "id": "miyagi-museum-118",
    "type": "museum",
    "name": "歌津町水産振興センター 魚竜館",
    "prefecture": "宮城県",
    "postCode": "988-0451",
    "address": "宮城県南三陸町歌津管の浜194",
    "city": "みなみさんりく",
    "image": "",
    "url": "",
    "latlng": "[38.7170867, 141.5303875]",
    "lat": 38.7170867,
    "lng": 141.5303875,
    "isClosed": ""
  },
  {
    "id": "miyagi-museum-119",
    "type": "museum",
    "name": "ORAGA鳴子の熱帯植物園",
    "prefecture": "宮城県",
    "postCode": "989-6832",
    "address": "宮城県大崎市鳴子温泉字星沼20-12",
    "city": "おおさき",
    "image": "",
    "url": "",
    "latlng": "[38.7263728, 140.6802226]",
    "lat": 38.7263728,
    "lng": 140.6802226,
    "isClosed": ""
  },
  {
    "id": "miyagi-museum-120",
    "type": "museum",
    "name": "エースポート博物館",
    "prefecture": "宮城県",
    "postCode": "988-0018",
    "address": "宮城県気仙沼市南町海岸1－15",
    "city": "けせんぬま",
    "image": "",
    "url": "",
    "latlng": "[38.9059054, 141.5745794]",
    "lat": 38.9059054,
    "lng": 141.5745794,
    "isClosed": ""
  },
  {
    "id": "miyagi-museum-121",
    "type": "museum",
    "name": "ギャラリー　アル・スイラージュ",
    "prefecture": "宮城県",
    "postCode": "989-0225",
    "address": "宮城県白石市東町2－8－36 寿丸合名会社内2F",
    "city": "しろいし",
    "image": "",
    "url": "",
    "latlng": "[37.99759299999999, 140.628013]",
    "lat": 37.99759299999999,
    "lng": 140.628013,
    "isClosed": ""
  },
  {
    "id": "miyagi-museum-122",
    "type": "museum",
    "name": "こもれびの森　森林科学館",
    "prefecture": "宮城県",
    "postCode": "987-2512",
    "address": "宮城県栗原市花山草木沢角間10-7",
    "city": "くりはら",
    "image": "",
    "url": "",
    "latlng": "[38.787145, 140.7882078]",
    "lat": 38.787145,
    "lng": 140.7882078,
    "isClosed": ""
  },
  {
    "id": "miyagi-museum-123",
    "type": "museum",
    "name": "ザ・ミュージアム MATSUSHIMA",
    "prefecture": "宮城県",
    "postCode": "981-0213",
    "address": "宮城県松島町松島普賢堂33-3",
    "city": "まつしま",
    "image": "",
    "url": "http://www.t-museum.jp/",
    "latlng": "[38.3722465, 141.0669627]",
    "lat": 38.3722465,
    "lng": 141.0669627,
    "isClosed": ""
  },
  {
    "id": "miyagi-museum-124",
    "type": "museum",
    "name": "サトル・サトウ・アート・ミュージアム",
    "prefecture": "宮城県",
    "postCode": "987-0602",
    "address": "宮城県登米市中田町上沼字舘43 登米市中田生涯学習センター3F",
    "city": "とめ",
    "image": "",
    "url": "https://www.city.tome.miyagi.jp/satorusatoartmuseum/",
    "latlng": "[38.7188853, 141.2440348]",
    "lat": 38.7188853,
    "lng": 141.2440348,
    "isClosed": ""
  },
  {
    "id": "miyagi-museum-125",
    "type": "museum",
    "name": "サンクチュアリーセンター・つきだて館",
    "prefecture": "宮城県",
    "postCode": "987-2224",
    "address": "宮城県栗原市築館横須賀養田20-1",
    "city": "くりはら",
    "image": "",
    "url": "",
    "latlng": "[38.7137515, 141.0825112]",
    "lat": 38.7137515,
    "lng": 141.0825112,
    "isClosed": ""
  },
  {
    "id": "miyagi-museum-126",
    "type": "museum",
    "name": "しばたの郷土館　資料展示館思源閣",
    "prefecture": "宮城県",
    "postCode": "989-1603",
    "address": "宮城県柴田町船岡西1－6－26",
    "city": "しばた",
    "image": "",
    "url": "",
    "latlng": "[38.0556443, 140.7624721]",
    "lat": 38.0556443,
    "lng": 140.7624721,
    "isClosed": ""
  },
  {
    "id": "miyagi-museum-127",
    "type": "museum",
    "name": "せんだいメディアテーク",
    "prefecture": "宮城県",
    "postCode": "980-0821",
    "address": "宮城県仙台市青葉区春日町2-1",
    "city": "せんだい",
    "image": "",
    "url": "http://www.smt.jp/",
    "latlng": "[38.2655045, 140.8655986]",
    "lat": 38.2655045,
    "lng": 140.8655986,
    "isClosed": ""
  },
  {
    "id": "miyagi-museum-128",
    "type": "museum",
    "name": "タイムシップ塩竃",
    "prefecture": "宮城県",
    "postCode": "985-0052",
    "address": "宮城県塩竈市本町1－1",
    "city": "しおがま",
    "image": "",
    "url": "",
    "latlng": "[38.3173466, 141.0201695]",
    "lat": 38.3173466,
    "lng": 141.0201695,
    "isClosed": ""
  },
  {
    "id": "miyagi-museum-129",
    "type": "museum",
    "name": "ひころの里（松笠屋敷）",
    "prefecture": "宮城県",
    "postCode": "986-0782",
    "address": "宮城県南三陸町入谷桜沢442",
    "city": "みなみさんりく",
    "image": "",
    "url": "",
    "latlng": "[38.7001099, 141.4224592]",
    "lat": 38.7001099,
    "lng": 141.4224592,
    "isClosed": ""
  },
  {
    "id": "miyagi-museum-130",
    "type": "museum",
    "name": "ふるさと研修センター内　山畑横穴古墳展示室",
    "prefecture": "宮城県",
    "postCode": "989-6312",
    "address": "宮城県大崎市三本木蟻ケ袋字山畑9-27",
    "city": "おおさき",
    "image": "",
    "url": "",
    "latlng": "[38.5201201, 140.9261941]",
    "lat": 38.5201201,
    "lng": 140.9261941,
    "isClosed": ""
  },
  {
    "id": "miyagi-museum-131",
    "type": "museum",
    "name": "マリンパル女川　おさかな市場",
    "prefecture": "宮城県",
    "postCode": "986-2243",
    "address": "宮城県女川町浦宿浜篠浜山２",
    "city": "おながわ",
    "image": "",
    "url": "",
    "latlng": "[38.4369782, 141.4015182]",
    "lat": 38.4369782,
    "lng": 141.4015182,
    "isClosed": ""
  },
  {
    "id": "miyagi-museum-132",
    "type": "museum",
    "name": "みちのくそろばん博物館",
    "prefecture": "宮城県",
    "postCode": "980-0001",
    "address": "宮城県仙台市青葉区中江1－16－2 中江珠算学院内",
    "city": "せんだい",
    "image": "",
    "url": "",
    "latlng": "[38.2732934, 140.8923515]",
    "lat": 38.2732934,
    "lng": 140.8923515,
    "isClosed": ""
  },
  {
    "id": "miyagi-museum-133",
    "type": "museum",
    "name": "みちのく伊達政宗歴史館",
    "prefecture": "宮城県",
    "postCode": "981-0213",
    "address": "宮城県松島町松島普賢堂13-13",
    "city": "まつしま",
    "image": "",
    "url": "http://www.date-masamune.jp/",
    "latlng": "[38.3714127, 141.0654214]",
    "lat": 38.3714127,
    "lng": 141.0654214,
    "isClosed": ""
  }
]