[
  {
    "id": "shimane-art-1",
    "type": "art",
    "name": "今岡美術館",
    "prefecture": "島根県",
    "postCode": "693-0005",
    "address": "島根県出雲市天神町856",
    "city": "いずも",
    "image": "",
    "url": "http://www.imaoka-museum.jp/",
    "latlng": "[35.3510678, 132.7443177]",
    "lat": 35.3510678,
    "lng": 132.7443177,
    "isClosed": ""
  },
  {
    "id": "shimane-art-2",
    "type": "art",
    "name": "手錢美術館",
    "prefecture": "島根県",
    "postCode": "699-0751",
    "address": "島根県出雲市大社町杵築西2450−1",
    "city": "いずも",
    "image": "",
    "url": "https://www.tezenmuseum.com/",
    "latlng": "[35.3974124, 132.6787715]",
    "lat": 35.3974124,
    "lng": 132.6787715,
    "isClosed": ""
  },
  {
    "id": "shimane-art-3",
    "type": "art",
    "name": "浜田市世界こども美術館創作活動館",
    "prefecture": "島根県",
    "postCode": "697-0016",
    "address": "島根県浜田市野原町8591",
    "city": "はまだ",
    "image": "",
    "url": "https://www.hamada-kodomo-art.com/",
    "latlng": "[34.8993937, 132.0802638]",
    "lat": 34.8993937,
    "lng": 132.0802638,
    "isClosed": ""
  },
  {
    "id": "shimane-art-4",
    "type": "art",
    "name": "浜田市立石正美術館",
    "prefecture": "島根県",
    "postCode": "699-3225",
    "address": "島根県浜田市三隅町古市場589 三隅中央公園内",
    "city": "はまだ",
    "image": "",
    "url": "http://www.sekisho-art-museum.jp/",
    "latlng": "[34.7818009, 131.9558861]",
    "lat": 34.7818009,
    "lng": 131.9558861,
    "isClosed": ""
  },
  {
    "id": "shimane-art-5",
    "type": "art",
    "name": "島根県立石見美術館",
    "prefecture": "島根県",
    "postCode": "698-0022",
    "address": "島根県益田市有明町5−15",
    "city": "ますだ",
    "image": "",
    "url": "https://www.grandtoit.jp/museum/",
    "latlng": "[34.6728529, 131.8478133]",
    "lat": 34.6728529,
    "lng": 131.8478133,
    "isClosed": ""
  },
  {
    "id": "shimane-art-6",
    "type": "art",
    "name": "島根県立美術館",
    "prefecture": "島根県",
    "postCode": "690-0049",
    "address": "島根県松江市袖師町1−5",
    "city": "まつえ",
    "image": "",
    "url": "https://www.shimane-art-museum.jp/",
    "latlng": "[35.4597187, 133.0522953]",
    "lat": 35.4597187,
    "lng": 133.0522953,
    "isClosed": ""
  },
  {
    "id": "shimane-art-7",
    "type": "art",
    "name": "田部美術館",
    "prefecture": "島根県",
    "postCode": "690-0888",
    "address": "島根県松江市北堀町310−5",
    "city": "まつえ",
    "image": "",
    "url": "https://www.tanabe-museum.or.jp/",
    "latlng": "[35.4791482, 133.0498002]",
    "lat": 35.4791482,
    "lng": 133.0498002,
    "isClosed": ""
  },
  {
    "id": "shimane-art-8",
    "type": "art",
    "name": "足立美術館",
    "prefecture": "島根県",
    "postCode": "692-0064",
    "address": "島根県安来市古川町320",
    "city": "やすぎ",
    "image": "",
    "url": "https://www.adachi-museum.or.jp/",
    "latlng": "[35.3799515, 133.1940513]",
    "lat": 35.3799515,
    "lng": 133.1940513,
    "isClosed": ""
  },
  {
    "id": "shimane-art-9",
    "type": "art",
    "name": "安来市加納美術館",
    "prefecture": "島根県",
    "postCode": "692-0623",
    "address": "島根県安来市広瀬町布部345−27",
    "city": "やすぎ",
    "image": "",
    "url": "https://www.art-kano.jp/",
    "latlng": "[35.3062481, 133.1513692]",
    "lat": 35.3062481,
    "lng": 133.1513692,
    "isClosed": ""
  },
  {
    "id": "shimane-art-10",
    "type": "art",
    "name": "石見安達美術館",
    "prefecture": "島根県",
    "postCode": "697-0004",
    "address": "島根県浜田市久代町1655−28",
    "city": "はまだ",
    "image": "",
    "url": "http://www2.crosstalk.or.jp/shinmachi/a8/",
    "latlng": "[34.9600242, 132.1420743]",
    "lat": 34.9600242,
    "lng": 132.1420743,
    "isClosed": ""
  }
]