[
  {
    "id": "shimane-museum-1",
    "type": "museum",
    "name": "出雲市立平田本陣記念館",
    "prefecture": "島根県",
    "postCode": "691-0001",
    "address": "島根県出雲市平田町515",
    "city": "いずも",
    "image": "",
    "url": "https://www.izumo-zaidan.jp/honjin/",
    "latlng": "[35.43840640000001, 132.8127259]",
    "lat": 35.43840640000001,
    "lng": 132.8127259,
    "isClosed": ""
  },
  {
    "id": "shimane-museum-2",
    "type": "museum",
    "name": "出雲弥生の森博物館",
    "prefecture": "島根県",
    "postCode": "693-0011",
    "address": "島根県出雲市大津町2760",
    "city": "いずも",
    "image": "",
    "url": "https://www.city.izumo.shimane.jp/www/contents/1244161923233/index.html",
    "latlng": "[35.3578962, 132.7813307]",
    "lat": 35.3578962,
    "lng": 132.7813307,
    "isClosed": ""
  },
  {
    "id": "shimane-museum-3",
    "type": "museum",
    "name": "島根県立古代出雲歴史博物館",
    "prefecture": "島根県",
    "postCode": "699-0701",
    "address": "島根県出雲市大社町杵築東99−4",
    "city": "いずも",
    "image": "",
    "url": "https://www.izm.ed.jp/",
    "latlng": "[35.3987572, 132.6885136]",
    "lat": 35.3987572,
    "lng": 132.6885136,
    "isClosed": ""
  },
  {
    "id": "shimane-museum-4",
    "type": "museum",
    "name": "公益財団法人亀井温故館",
    "prefecture": "島根県",
    "postCode": "699-5612",
    "address": "島根県鹿足郡津和野町中座イ906",
    "city": "つわの",
    "image": "",
    "url": "http://www.kamei-onkokan.jp/page001/entrance.html",
    "latlng": "[34.4544402, 131.7667188]",
    "lat": 34.4544402,
    "lng": 131.7667188,
    "isClosed": ""
  },
  {
    "id": "shimane-museum-5",
    "type": "museum",
    "name": "絲原記念館",
    "prefecture": "島根県",
    "postCode": "699-1812",
    "address": "島根県仁多郡奥出雲町大谷856",
    "city": "おくいずも",
    "image": "",
    "url": "http://itoharas.com/",
    "latlng": "[35.1753614, 133.0363773]",
    "lat": 35.1753614,
    "lng": 133.0363773,
    "isClosed": ""
  },
  {
    "id": "shimane-museum-6",
    "type": "museum",
    "name": "奥出雲多根自然博物館",
    "prefecture": "島根県",
    "postCode": "699-1434",
    "address": "島根県仁多郡奥出雲町佐白236−1",
    "city": "おくいずも",
    "image": "",
    "url": "http://tanemuseum.jp/",
    "latlng": "[35.2328317, 132.9876601]",
    "lat": 35.2328317,
    "lng": 132.9876601,
    "isClosed": ""
  },
  {
    "id": "shimane-museum-7",
    "type": "museum",
    "name": "可部屋集成館",
    "prefecture": "島根県",
    "postCode": "699-1621",
    "address": "島根県仁多郡奥出雲町上阿井1655",
    "city": "おくいずも",
    "image": "",
    "url": "http://kabeya-syuseikan.com/",
    "latlng": "[35.1098243, 132.9319657]",
    "lat": 35.1098243,
    "lng": 132.9319657,
    "isClosed": ""
  },
  {
    "id": "shimane-museum-8",
    "type": "museum",
    "name": "安部榮四郎記念館",
    "prefecture": "島根県",
    "postCode": "690-2102",
    "address": "島根県松江市八雲町東岩坂1754",
    "city": "まつえ",
    "image": "",
    "url": "https://izumomingeishi.com/abeeishirou/",
    "latlng": "[35.3916629, 133.1176742]",
    "lat": 35.3916629,
    "lng": 133.1176742,
    "isClosed": ""
  },
  {
    "id": "shimane-museum-9",
    "type": "museum",
    "name": "松江歴史館",
    "prefecture": "島根県",
    "postCode": "690-0887",
    "address": "島根県松江市殿町279",
    "city": "まつえ",
    "image": "",
    "url": "https://matsu-reki.jp/",
    "latlng": "[35.4752428, 133.0535307]",
    "lat": 35.4752428,
    "lng": 133.0535307,
    "isClosed": ""
  },
  {
    "id": "shimane-museum-10",
    "type": "museum",
    "name": "和鋼博物館",
    "prefecture": "島根県",
    "postCode": "692-0011",
    "address": "島根県安来市安来町1058",
    "city": "やすぎ",
    "image": "",
    "url": "http://www.wakou-museum.gr.jp/",
    "latlng": "[35.4353534, 133.2536192]",
    "lat": 35.4353534,
    "lng": 133.2536192,
    "isClosed": ""
  },
  {
    "id": "shimane-museum-11",
    "type": "museum",
    "name": "出雲大社宝物殿",
    "prefecture": "島根県",
    "postCode": "699-0701",
    "address": "島根県出雲市大社町杵築東195",
    "city": "いずも",
    "image": "",
    "url": "https://izumooyashiro.or.jp/precinct/keidai-index/shinkoden",
    "latlng": "[35.4010626, 132.6860985]",
    "lat": 35.4010626,
    "lng": 132.6860985,
    "isClosed": ""
  },
  {
    "id": "shimane-museum-12",
    "type": "museum",
    "name": "島根県立宍道湖自然館（ゴビウス）",
    "prefecture": "島根県",
    "postCode": "691-0076",
    "address": "島根県出雲市園町1659−5",
    "city": "いずも",
    "image": "",
    "url": "https://www.gobius.jp/",
    "latlng": "[35.4471745, 132.8640064]",
    "lat": 35.4471745,
    "lng": 132.8640064,
    "isClosed": ""
  },
  {
    "id": "shimane-museum-13",
    "type": "museum",
    "name": "島根県立三瓶自然館",
    "prefecture": "島根県",
    "postCode": "694-0003",
    "address": "島根県大田市三瓶町多根1121−8",
    "city": "おおだ",
    "image": "",
    "url": "https://www.nature-sanbe.jp/sahimel/",
    "latlng": "[35.1527716, 132.6208628]",
    "lat": 35.1527716,
    "lng": 132.6208628,
    "isClosed": ""
  },
  {
    "id": "shimane-museum-14",
    "type": "museum",
    "name": "島根県立しまね海洋館（アクアス）",
    "prefecture": "島根県",
    "postCode": "697-0004",
    "address": "島根県浜田市久代町1117−2 島根県立しまね海洋館 アクアス",
    "city": "はまだ",
    "image": "",
    "url": "https://aquas.or.jp/",
    "latlng": "[34.9594578, 132.1446342]",
    "lat": 34.9594578,
    "lng": 132.1446342,
    "isClosed": ""
  },
  {
    "id": "shimane-museum-15",
    "type": "museum",
    "name": "島根県立古代出雲博物館",
    "prefecture": "島根県",
    "postCode": "699-0701",
    "address": "島根県出雲市大社町杵築東99−4 古代出雲歴史博物館敷地内",
    "city": "いずも",
    "image": "",
    "url": "https://www.izm.ed.jp/",
    "latlng": "[35.3988089, 132.6887368]",
    "lat": 35.3988089,
    "lng": 132.6887368,
    "isClosed": ""
  }
]