[
  {
    "id": "ibaraki-art-1",
    "type": "art",
    "name": "茨城県陶芸美術館",
    "prefecture": "茨城県",
    "postCode": "309-1611",
    "address": "茨城県笠間市笠間2345",
    "city": "かさま",
    "image": "",
    "url": "https://www.tougei.museum.ibk.ed.jp/index.html",
    "latlng": "[36.3700331, 140.2680895]",
    "lat": 36.3700331,
    "lng": 140.2680895,
    "isClosed": ""
  },
  {
    "id": "ibaraki-art-2",
    "type": "art",
    "name": "笠間日動美術館",
    "prefecture": "茨城県",
    "postCode": "309-1611",
    "address": "茨城県笠間市笠間978−4",
    "city": "かさま",
    "image": "",
    "url": "http://www.nichido-museum.or.jp/",
    "latlng": "[36.3844688, 140.2582904]",
    "lat": 36.3844688,
    "lng": 140.2582904,
    "isClosed": ""
  },
  {
    "id": "ibaraki-art-3",
    "type": "art",
    "name": "しもだて美術館",
    "prefecture": "茨城県",
    "postCode": "308-0031",
    "address": "茨城県筑西市丙372",
    "city": "ちくせい",
    "image": "",
    "url": "https://www.city.chikusei.lg.jp/page/dir004549.html",
    "latlng": "[36.3092316, 139.9792365]",
    "lat": 36.3092316,
    "lng": 139.9792365,
    "isClosed": ""
  },
  {
    "id": "ibaraki-art-4",
    "type": "art",
    "name": "茨城県近代美術館",
    "prefecture": "茨城県",
    "postCode": "310-0851",
    "address": "茨城県水戸市千波町 東久保 666−1",
    "city": "みと",
    "image": "",
    "url": "http://www.modernart.museum.ibk.ed.jp/",
    "latlng": "[36.3596094, 140.4555214]",
    "lat": 36.3596094,
    "lng": 140.4555214,
    "isClosed": ""
  },
  {
    "id": "ibaraki-art-5",
    "type": "art",
    "name": "水戸芸術館",
    "prefecture": "茨城県",
    "postCode": "310-0063",
    "address": "茨城県水戸市五軒町1丁目6−8",
    "city": "みと",
    "image": "",
    "url": "https://www.arttowermito.or.jp/",
    "latlng": "[36.3804615, 140.4654392]",
    "lat": 36.3804615,
    "lng": 140.4654392,
    "isClosed": ""
  },
  {
    "id": "ibaraki-art-6",
    "type": "art",
    "name": "鹿嶋市大野潮騒はまなす公園　美術館・資料館",
    "prefecture": "茨城県",
    "postCode": "311-2212",
    "address": "茨城県鹿嶋市角折忠2096",
    "city": "かしま",
    "image": "",
    "url": "http://www.city.kashima.ibaraki.jp/info/detail.php?no=1064",
    "latlng": "[36.0326659, 140.6249187]",
    "lat": 36.0326659,
    "lng": 140.6249187,
    "isClosed": ""
  },
  {
    "id": "ibaraki-art-7",
    "type": "art",
    "name": "篆刻美術館",
    "prefecture": "茨城県",
    "postCode": "306-0033",
    "address": "茨城県古河市中央町2-4-18",
    "city": "こが",
    "image": "",
    "url": "https://www.city.ibaraki-koga.lg.jp/soshiki/tenkoku/top.html",
    "latlng": "[36.1946911, 139.7029158]",
    "lat": 36.1946911,
    "lng": 139.7029158,
    "isClosed": ""
  },
  {
    "id": "ibaraki-art-8",
    "type": "art",
    "name": "茨城県つくば美術館",
    "prefecture": "茨城県",
    "postCode": "305-0031",
    "address": "茨城県つくば市吾妻2-8",
    "city": "つくば",
    "image": "",
    "url": "http://www.tsukuba.museum.ibk.ed.jp/",
    "latlng": "[36.0846949, 140.1125192]",
    "lat": 36.0846949,
    "lng": 140.1125192,
    "isClosed": ""
  },
  {
    "id": "ibaraki-art-9",
    "type": "art",
    "name": "茨城県天心記念五浦美術館",
    "prefecture": "茨城県",
    "postCode": "319-1703",
    "address": "茨城県北茨城市大津町椿2083",
    "city": "きたいばらき",
    "image": "",
    "url": "http://www.tenshin.museum.ibk.ed.jp/",
    "latlng": "[36.8365731, 140.7910311]",
    "lat": 36.8365731,
    "lng": 140.7910311,
    "isClosed": ""
  },
  {
    "id": "ibaraki-art-10",
    "type": "art",
    "name": "笠間稲荷美術館",
    "prefecture": "茨城県",
    "postCode": "309-1611",
    "address": "茨城県笠間市笠間1",
    "city": "かさま",
    "image": "",
    "url": "http://www.city.kasama.lg.jp/kankou/01miru/cnt/11inari.html",
    "latlng": "[36.3869429, 140.2544071]",
    "lat": 36.3869429,
    "lng": 140.2544071,
    "isClosed": ""
  },
  {
    "id": "ibaraki-art-11",
    "type": "art",
    "name": "月山寺美術館",
    "prefecture": "茨城県",
    "postCode": "309-1451",
    "address": "茨城県桜川市西小塙1677",
    "city": "さくらがわ",
    "image": "",
    "url": "http://www006.upp.so-net.ne.jp/youkouzan/page009.html",
    "latlng": "[36.3647542, 140.1463078]",
    "lat": 36.3647542,
    "lng": 140.1463078,
    "isClosed": ""
  },
  {
    "id": "ibaraki-art-12",
    "type": "art",
    "name": "東京藝術大学大学美術館取手館",
    "prefecture": "茨城県",
    "postCode": "302-0001",
    "address": "茨城県取手市小文間5000",
    "city": "とりで",
    "image": "",
    "url": "http://www.geidai.ac.jp/museum/concept/toridekan_ja.htm",
    "latlng": "[35.8802087, 140.1175702]",
    "lat": 35.8802087,
    "lng": 140.1175702,
    "isClosed": ""
  },
  {
    "id": "ibaraki-art-13",
    "type": "art",
    "name": "﻿古河街角美術館",
    "prefecture": "茨城県",
    "postCode": "306-0033",
    "address": "茨城県古河市中央町2-6-60",
    "city": "こが",
    "image": "",
    "url": "http://www.city.koga.ibaraki.jp/machikado/",
    "latlng": "[36.1946523, 139.7025865]",
    "lat": 36.1946523,
    "lng": 139.7025865,
    "isClosed": ""
  },
  {
    "id": "ibaraki-art-14",
    "type": "art",
    "name": "大洗美術館",
    "prefecture": "茨城県",
    "postCode": "311-1301",
    "address": "茨城県大洗町磯浜町8249-1",
    "city": "おおあらい",
    "image": "",
    "url": "",
    "latlng": "[36.3152317, 140.5888426]",
    "lat": 36.3152317,
    "lng": 140.5888426,
    "isClosed": ""
  },
  {
    "id": "ibaraki-art-15",
    "type": "art",
    "name": "奥久慈茶の里公園 和紙人形美術館 山岡草常設館",
    "prefecture": "茨城県",
    "postCode": "319-3543",
    "address": "茨城県大子町左貫1920",
    "city": "だいご",
    "image": "",
    "url": "http://chanosato.blogzine.jp/washi/",
    "latlng": "[36.8273153, 140.2804013]",
    "lat": 36.8273153,
    "lng": 140.2804013,
    "isClosed": ""
  },
  {
    "id": "ibaraki-art-16",
    "type": "art",
    "name": "ひょうたん美術館",
    "prefecture": "茨城県",
    "postCode": "319-0107",
    "address": "茨城県小美玉市小岩戸1677",
    "city": "おみたま",
    "image": "",
    "url": "http://www.hyotan-m.com/index.shtml",
    "latlng": "[36.2479203, 140.3584863]",
    "lat": 36.2479203,
    "lng": 140.3584863,
    "isClosed": ""
  },
  {
    "id": "ibaraki-art-17",
    "type": "art",
    "name": "内原まちかど美術館",
    "prefecture": "茨城県",
    "postCode": "319-0306",
    "address": "茨城県水戸市杉崎町742",
    "city": "みと",
    "image": "",
    "url": "",
    "latlng": "[36.3806318, 140.3511766]",
    "lat": 36.3806318,
    "lng": 140.3511766,
    "isClosed": ""
  },
  {
    "id": "ibaraki-art-18",
    "type": "art",
    "name": "S-Gallery　粛粲寶美術館",
    "prefecture": "茨城県",
    "postCode": "306-0433",
    "address": "茨城県猿島郡境町坂花町1455-1",
    "city": "さかい",
    "image": "",
    "url": "https://www.sakaimachi.co.jp/",
    "latlng": "[36.10471, 139.7924]",
    "lat": 36.10471,
    "lng": 139.7924,
    "isClosed": ""
  },
  {
    "id": "ibaraki-art-19",
    "type": "art",
    "name": "あまびき美術館",
    "prefecture": "茨城県",
    "postCode": "309-1231",
    "address": "茨城県桜川市本木270",
    "city": "さくらがわ",
    "image": "",
    "url": "",
    "latlng": "[36.3261768, 140.117038]",
    "lat": 36.3261768,
    "lng": 140.117038,
    "isClosed": ""
  },
  {
    "id": "ibaraki-art-20",
    "type": "art",
    "name": "あや絵美術館",
    "prefecture": "茨城県",
    "postCode": "303-0042",
    "address": "茨城県常総市坂手町5510－65",
    "city": "じょうそう",
    "image": "",
    "url": "",
    "latlng": "[36.0125477, 139.9493388]",
    "lat": 36.0125477,
    "lng": 139.9493388,
    "isClosed": ""
  },
  {
    "id": "ibaraki-art-21",
    "type": "art",
    "name": "いのちを語り継ぐ美術館",
    "prefecture": "茨城県",
    "postCode": "303-0033",
    "address": "茨城県常総市水海道高野町2153 常和ビル4F～5F",
    "city": "じょうそう",
    "image": "",
    "url": "http://www.kataritsugu.jp/",
    "latlng": "[36.0110856, 139.9821813]",
    "lat": 36.0110856,
    "lng": 139.9821813,
    "isClosed": ""
  }
]