[
  {
    "id": "ibaraki-museum-1",
    "type": "museum",
    "name": "かすみがうら市歴史博物館",
    "prefecture": "茨城県",
    "postCode": "300-0214",
    "address": "茨城県かすみがうら市坂1029",
    "city": "かすみがうら",
    "image": "",
    "url": "https://www.city.kasumigaura.lg.jp/page/dir003355.html",
    "latlng": "[36.0740674, 140.3732493]",
    "lat": 36.0740674,
    "lng": 140.3732493,
    "isClosed": ""
  },
  {
    "id": "ibaraki-museum-2",
    "type": "museum",
    "name": "古河歴史博物館",
    "prefecture": "茨城県",
    "postCode": "306-0033",
    "address": "茨城県古河市中央町3丁目10−56",
    "city": "こが",
    "image": "",
    "url": "https://www.kogakanko.jp/spot/tour/rekihaku",
    "latlng": "[36.1917155, 139.700838]",
    "lat": 36.1917155,
    "lng": 139.700838,
    "isClosed": ""
  },
  {
    "id": "ibaraki-museum-3",
    "type": "museum",
    "name": "つくばエキスポセンター",
    "prefecture": "茨城県",
    "postCode": "305-0031",
    "address": "茨城県つくば市吾妻2丁目9",
    "city": "つくば",
    "image": "",
    "url": "https://www.expocenter.or.jp/",
    "latlng": "[36.0866896, 140.110511]",
    "lat": 36.0866896,
    "lng": 140.110511,
    "isClosed": ""
  },
  {
    "id": "ibaraki-museum-4",
    "type": "museum",
    "name": "上高津貝塚ふるさと歴史の広場",
    "prefecture": "茨城県",
    "postCode": "300-0811",
    "address": "茨城県土浦市上高津1843",
    "city": "つちうら",
    "image": "",
    "url": "https://www.city.tsuchiura.lg.jp/page/dir000569.html",
    "latlng": "[36.074441, 140.170385]",
    "lat": 36.074441,
    "lng": 140.170385,
    "isClosed": ""
  },
  {
    "id": "ibaraki-museum-5",
    "type": "museum",
    "name": "土浦市立博物館",
    "prefecture": "茨城県",
    "postCode": "300-0043",
    "address": "茨城県土浦市中央1丁目15−18",
    "city": "つちうら",
    "image": "",
    "url": "https://www.city.tsuchiura.lg.jp/page/dir000378.html",
    "latlng": "[36.0851894, 140.1971554]",
    "lat": 36.0851894,
    "lng": 140.1971554,
    "isClosed": ""
  },
  {
    "id": "ibaraki-museum-6",
    "type": "museum",
    "name": "原子力科学館",
    "prefecture": "茨城県",
    "postCode": "319-1112",
    "address": "茨城県那珂郡東海村村松225−2",
    "city": "とうかい",
    "image": "",
    "url": "http://www.ibagen.or.jp/",
    "latlng": "[36.4584426, 140.5963904]",
    "lat": 36.4584426,
    "lng": 140.5963904,
    "isClosed": ""
  },
  {
    "id": "ibaraki-museum-7",
    "type": "museum",
    "name": "ミュージアムパーク茨城県自然博物館",
    "prefecture": "茨城県",
    "postCode": "306-0622",
    "address": "茨城県坂東市大崎700",
    "city": "ばんどう",
    "image": "",
    "url": "https://www.nat.museum.ibk.ed.jp/",
    "latlng": "[36.0011784, 139.9140687]",
    "lat": 36.0011784,
    "lng": 139.9140687,
    "isClosed": ""
  },
  {
    "id": "ibaraki-museum-8",
    "type": "museum",
    "name": "大洗町幕末と明治の博物館",
    "prefecture": "茨城県",
    "postCode": "311-1301",
    "address": "茨城県東茨城郡大洗町磯浜町8231−4",
    "city": "おおあらい",
    "image": "",
    "url": "https://www.bakumatsu-meiji.com/",
    "latlng": "[36.3211537, 140.5833433]",
    "lat": 36.3211537,
    "lng": 140.5833433,
    "isClosed": ""
  },
  {
    "id": "ibaraki-museum-9",
    "type": "museum",
    "name": "常陸太田市郷土資料館",
    "prefecture": "茨城県",
    "postCode": "313-0055",
    "address": "茨城県常陸太田市西二町2186",
    "city": "ひたちおおた",
    "image": "",
    "url": "https://www.city.hitachiota.ibaraki.jp/page/dir004387.html",
    "latlng": "[36.5402322, 140.5223635]",
    "lat": 36.5402322,
    "lng": 140.5223635,
    "isClosed": ""
  },
  {
    "id": "ibaraki-museum-10",
    "type": "museum",
    "name": "日立市郷土博物館",
    "prefecture": "茨城県",
    "postCode": "317-0055",
    "address": "茨城県日立市宮田町5丁目2−22",
    "city": "ひたち",
    "image": "",
    "url": "https://www.city.hitachi.lg.jp/museum/",
    "latlng": "[36.6101064, 140.6555834]",
    "lat": 36.6101064,
    "lng": 140.6555834,
    "isClosed": ""
  },
  {
    "id": "ibaraki-museum-11",
    "type": "museum",
    "name": "茨城県立歴史館",
    "prefecture": "茨城県",
    "postCode": "310-0034",
    "address": "茨城県水戸市緑町2丁目1−15",
    "city": "みと",
    "image": "",
    "url": "https://rekishikan-ibk.jp/",
    "latlng": "[36.3792125, 140.4499581]",
    "lat": 36.3792125,
    "lng": 140.4499581,
    "isClosed": ""
  },
  {
    "id": "ibaraki-museum-12",
    "type": "museum",
    "name": "徳川ミュージアム",
    "prefecture": "茨城県",
    "postCode": "310-0912",
    "address": "茨城県水戸市見川1丁目1215−1",
    "city": "みと",
    "image": "",
    "url": "https://www.tokugawa.gr.jp/",
    "latlng": "[36.3698572, 140.4412941]",
    "lat": 36.3698572,
    "lng": 140.4412941,
    "isClosed": ""
  },
  {
    "id": "ibaraki-museum-13",
    "type": "museum",
    "name": "水戸市立博物館",
    "prefecture": "茨城県",
    "postCode": "310-0062",
    "address": "茨城県水戸市大町3丁目3−20",
    "city": "みと",
    "image": "",
    "url": "http://shihaku1.hs.plala.or.jp/",
    "latlng": "[36.3800655, 140.4688365]",
    "lat": 36.3800655,
    "lng": 140.4688365,
    "isClosed": ""
  },
  {
    "id": "ibaraki-museum-14",
    "type": "museum",
    "name": "ツムラ漢方記念館",
    "prefecture": "茨城県",
    "postCode": "300-1155",
    "address": "茨城県稲敷郡阿見町吉原",
    "city": "あみ",
    "image": "",
    "url": "https://www.tsumura.co.jp/hellotsumura/",
    "latlng": "[35.9938523, 140.2218676]",
    "lat": 35.9938523,
    "lng": 140.2218676,
    "isClosed": ""
  },
  {
    "id": "ibaraki-museum-15",
    "type": "museum",
    "name": "茨城県霞ケ浦環境科学センター",
    "prefecture": "茨城県",
    "postCode": "300-0023",
    "address": "茨城県土浦市沖宿町1853",
    "city": "つちうら",
    "image": "",
    "url": "https://www.pref.ibaraki.jp/soshiki/seikatsukankyo/kasumigauraesc/",
    "latlng": "[36.0757722, 140.2659356]",
    "lat": 36.0757722,
    "lng": 140.2659356,
    "isClosed": ""
  },
  {
    "id": "ibaraki-museum-16",
    "type": "museum",
    "name": "大洗海洋博物館",
    "prefecture": "茨城県",
    "postCode": "311-1301",
    "address": "茨城県東茨城郡大洗町磯浜町",
    "city": "おおあらい",
    "image": "",
    "url": "https://www.oarai-isosakijinja.net/hakubutukan/",
    "latlng": "[36.3144131, 140.5758878]",
    "lat": 36.3144131,
    "lng": 140.5758878,
    "isClosed": ""
  },
  {
    "id": "ibaraki-museum-17",
    "type": "museum",
    "name": "常磐神社・義烈館（水戸黄門宝物館）",
    "prefecture": "茨城県",
    "postCode": "310-0033",
    "address": "茨城県水戸市常磐町1丁目3−1 常盤神社 義烈館 常磐神社 義烈館",
    "city": "みと",
    "image": "",
    "url": "https://komonsan.jp/giretsukan/",
    "latlng": "[36.3747055, 140.4561476]",
    "lat": 36.3747055,
    "lng": 140.4561476,
    "isClosed": ""
  },
  {
    "id": "ibaraki-museum-18",
    "type": "museum",
    "name": "﻿重要無形文化財 本場結城紬染織資料館「手緒里」",
    "prefecture": "茨城県",
    "postCode": "307-0001",
    "address": "茨城県結城市結城12-2 奥順株式会社内",
    "city": "ゆうき",
    "image": "",
    "url": "http://www.okujun.co.jp/",
    "latlng": "[36.3039962, 139.8776656]",
    "lat": 36.3039962,
    "lng": 139.8776656,
    "isClosed": ""
  },
  {
    "id": "ibaraki-museum-19",
    "type": "museum",
    "name": "野口雨情生家資料館",
    "prefecture": "茨城県",
    "postCode": "319-1541",
    "address": "茨城県北茨城市磯原町磯原103",
    "city": "きたいばらき",
    "image": "",
    "url": "http://www.city-kitaibaraki.jp/modules/sight/index.php?content_id=36",
    "latlng": "[36.7980138, 140.7566461]",
    "lat": 36.7980138,
    "lng": 140.7566461,
    "isClosed": ""
  },
  {
    "id": "ibaraki-museum-20",
    "type": "museum",
    "name": "長勝寺宝物陳列室",
    "prefecture": "茨城県",
    "postCode": "311-2424",
    "address": "茨城県潮来市潮来428",
    "city": "いたこ",
    "image": "",
    "url": "",
    "latlng": "[35.9418191, 140.5455767]",
    "lat": 35.9418191,
    "lng": 140.5455767,
    "isClosed": ""
  },
  {
    "id": "ibaraki-museum-21",
    "type": "museum",
    "name": "間宮林蔵記念館",
    "prefecture": "茨城県",
    "postCode": "300-2335",
    "address": "茨城県つくばみらい市上平柳64",
    "city": "つくばみらい",
    "image": "",
    "url": "http://www.asahi-net.or.jp/~XC8M-MMY/kinenkan.htm",
    "latlng": "[35.94036120000001, 140.033634]",
    "lat": 35.94036120000001,
    "lng": 140.033634,
    "isClosed": ""
  },
  {
    "id": "ibaraki-museum-22",
    "type": "museum",
    "name": "食と農の科学館",
    "prefecture": "茨城県",
    "postCode": "305-8517",
    "address": "茨城県つくば市観音台3-1-1",
    "city": "つくば",
    "image": "",
    "url": "http://trg.affrc.go.jp/",
    "latlng": "[36.0265196, 140.1025926]",
    "lat": 36.0265196,
    "lng": 140.1025926,
    "isClosed": ""
  },
  {
    "id": "ibaraki-museum-23",
    "type": "museum",
    "name": "高萩市歴史民俗資料館",
    "prefecture": "茨城県",
    "postCode": "318-0034",
    "address": "茨城県高萩市高萩8－1",
    "city": "たかはぎ",
    "image": "",
    "url": "http://www.jsdi.or.jp/~taka-kyo/74rekimin.htm",
    "latlng": "[36.7118085, 140.7080011]",
    "lat": 36.7118085,
    "lng": 140.7080011,
    "isClosed": ""
  },
  {
    "id": "ibaraki-museum-24",
    "type": "museum",
    "name": "鹿島神宮宝物館",
    "prefecture": "茨城県",
    "postCode": "314-0031",
    "address": "茨城県鹿嶋市宮中2306－1",
    "city": "かしま",
    "image": "",
    "url": "http://www.bokuden.or.jp/~kashimaj/quiz.htm",
    "latlng": "[35.9702907, 140.6304231]",
    "lat": 35.9702907,
    "lng": 140.6304231,
    "isClosed": ""
  },
  {
    "id": "ibaraki-museum-25",
    "type": "museum",
    "name": "黒沢止幾子の資料館",
    "prefecture": "茨城県",
    "postCode": "311-4335",
    "address": "茨城県城里町錫高野2224",
    "city": "しろさと",
    "image": "",
    "url": "",
    "latlng": "[36.5005303, 140.323962]",
    "lat": 36.5005303,
    "lng": 140.323962,
    "isClosed": ""
  },
  {
    "id": "ibaraki-museum-26",
    "type": "museum",
    "name": "龍ケ崎市歴史民俗資料館",
    "prefecture": "茨城県",
    "postCode": "301-0004",
    "address": "茨城県龍ケ崎市馴馬町2488",
    "city": "りゅうがさき",
    "image": "",
    "url": "http://www.city.ryugasaki.ibaraki.jp/view.php?pageId=1936",
    "latlng": "[35.9165151, 140.1763295]",
    "lat": 35.9165151,
    "lng": 140.1763295,
    "isClosed": ""
  },
  {
    "id": "ibaraki-museum-27",
    "type": "museum",
    "name": "﻿筑波大学附属図書館 貴重書展示室",
    "prefecture": "茨城県",
    "postCode": "305-8577",
    "address": "茨城県つくば市天王台1－1－1",
    "city": "つくば",
    "image": "",
    "url": "https://www.tulips.tsukuba.ac.jp/lib/ja/support/permanent-exhibition",
    "latlng": "[36.1089044, 140.0997479]",
    "lat": 36.1089044,
    "lng": 140.0997479,
    "isClosed": ""
  },
  {
    "id": "ibaraki-museum-28",
    "type": "museum",
    "name": "納豆展示館",
    "prefecture": "茨城県",
    "postCode": "310-0011",
    "address": "茨城県水戸市三の丸3－4－30 笹沼五郎商店",
    "city": "みと",
    "image": "",
    "url": "http://www.tengunatto.jp/pavilion/index.html",
    "latlng": "[36.370902, 140.482046]",
    "lat": 36.370902,
    "lng": 140.482046,
    "isClosed": ""
  },
  {
    "id": "ibaraki-museum-29",
    "type": "museum",
    "name": "紙のさと和紙資料館",
    "prefecture": "茨城県",
    "postCode": "319-3107",
    "address": "茨城県常陸大宮市舟生88",
    "city": "ひたちおおみや",
    "image": "",
    "url": "http://www.greenful.jp/cgi-bin/upsys/view_hp.cgi?mode=sec&mode2=detail&s_no=310",
    "latlng": "[36.643538, 140.3919537]",
    "lat": 36.643538,
    "lng": 140.3919537,
    "isClosed": ""
  },
  {
    "id": "ibaraki-museum-30",
    "type": "museum",
    "name": "結城三百石記念館",
    "prefecture": "茨城県",
    "postCode": "300-2337",
    "address": "茨城県つくばみらい市谷井田1647",
    "city": "つくばみらい",
    "image": "",
    "url": "http://www.city.tsukubamirai.lg.jp/bunka/07.htm",
    "latlng": "[35.9560286, 140.0461384]",
    "lat": 35.9560286,
    "lng": 140.0461384,
    "isClosed": ""
  },
  {
    "id": "ibaraki-museum-31",
    "type": "museum",
    "name": "茨城県きのこ博士館",
    "prefecture": "茨城県",
    "postCode": "311-0122",
    "address": "茨城県那珂市戸4603",
    "city": "なか",
    "image": "",
    "url": "http://www.ibaraki-shokubutuen.jp/",
    "latlng": "[36.4716375, 140.4362864]",
    "lat": 36.4716375,
    "lng": 140.4362864,
    "isClosed": ""
  },
  {
    "id": "ibaraki-museum-32",
    "type": "museum",
    "name": "茨城県フラワーパーク",
    "prefecture": "茨城県",
    "postCode": "315-0153",
    "address": "茨城県石岡市下青柳200",
    "city": "いしおか",
    "image": "",
    "url": "http://flowerpark.or.jp/",
    "latlng": "[36.2145582, 140.1710934]",
    "lat": 36.2145582,
    "lng": 140.1710934,
    "isClosed": ""
  },
  {
    "id": "ibaraki-museum-33",
    "type": "museum",
    "name": "茨城県植物園・熱帯植物館",
    "prefecture": "茨城県",
    "postCode": "311-0122",
    "address": "茨城県那珂市戸4589",
    "city": "なか",
    "image": "",
    "url": "http://www.ibaraki-shokubutuen.jp/",
    "latlng": "[36.476004, 140.4356499]",
    "lat": 36.476004,
    "lng": 140.4356499,
    "isClosed": ""
  },
  {
    "id": "ibaraki-museum-34",
    "type": "museum",
    "name": "茨城県立さしま少年自然の家",
    "prefecture": "茨城県",
    "postCode": "306-0416",
    "address": "茨城県境町伏木2095－3",
    "city": "さかい",
    "image": "",
    "url": "http://www.sashima.gakusyu.ibk.ed.jp/",
    "latlng": "[36.0883489, 139.8412103]",
    "lat": 36.0883489,
    "lng": 139.8412103,
    "isClosed": ""
  },
  {
    "id": "ibaraki-museum-35",
    "type": "museum",
    "name": "菊池寛実記念高萩炭礦資料館",
    "prefecture": "茨城県",
    "postCode": "318-0034",
    "address": "茨城県高萩市高萩624",
    "city": "たかはぎ",
    "image": "",
    "url": "http://www.takahagitanko.org/",
    "latlng": "[36.726845, 140.6752316]",
    "lat": 36.726845,
    "lng": 140.6752316,
    "isClosed": ""
  },
  {
    "id": "ibaraki-museum-36",
    "type": "museum",
    "name": "蔵元ギャラリー",
    "prefecture": "茨城県",
    "postCode": "315-0014",
    "address": "茨城県石岡市国府5－9－32",
    "city": "いしおか",
    "image": "",
    "url": "http://www.huchuhomare.com/",
    "latlng": "[36.18561700000001, 140.2749561]",
    "lat": 36.18561700000001,
    "lng": 140.2749561,
    "isClosed": ""
  },
  {
    "id": "ibaraki-museum-37",
    "type": "museum",
    "name": "西金砂そばの郷　民俗資料展示館",
    "prefecture": "茨城県",
    "postCode": "313-0102",
    "address": "茨城県常陸太田市赤土町2408",
    "city": "ひたちおおた",
    "image": "",
    "url": "",
    "latlng": "[36.6295426, 140.4531869]",
    "lat": 36.6295426,
    "lng": 140.4531869,
    "isClosed": ""
  },
  {
    "id": "ibaraki-museum-38",
    "type": "museum",
    "name": "豊田城（石下町地域交流センター）",
    "prefecture": "茨城県",
    "postCode": "300-2706",
    "address": "茨城県常総市新石下2010",
    "city": "じょうそう",
    "image": "",
    "url": "",
    "latlng": "[36.11291629999999, 139.9803922]",
    "lat": 36.11291629999999,
    "lng": 139.9803922,
    "isClosed": ""
  },
  {
    "id": "ibaraki-museum-39",
    "type": "museum",
    "name": "豊里ゆかりの森昆虫館",
    "prefecture": "茨城県",
    "postCode": "300-2633",
    "address": "茨城県つくば市遠東676",
    "city": "つくば",
    "image": "",
    "url": "http://www.tsukubaykr.jp/other/other.html",
    "latlng": "[36.1081953, 140.065594]",
    "lat": 36.1081953,
    "lng": 140.065594,
    "isClosed": ""
  },
  {
    "id": "ibaraki-museum-40",
    "type": "museum",
    "name": "那珂市歴史民俗資料館",
    "prefecture": "茨城県",
    "postCode": "311-0121",
    "address": "茨城県那珂市戸崎428－2",
    "city": "なか",
    "image": "",
    "url": "",
    "latlng": "[36.4661008, 140.4389722]",
    "lat": 36.4661008,
    "lng": 140.4389722,
    "isClosed": ""
  },
  {
    "id": "ibaraki-museum-41",
    "type": "museum",
    "name": "﻿歴史民俗資料館 山方館",
    "prefecture": "茨城県",
    "postCode": "319-3111",
    "address": "茨城県常陸大宮市山方969－2",
    "city": "ひたちおおみや",
    "image": "",
    "url": "http://www.city.hitachiomiya.lg.jp/sisetsu/rekisi/yamagata.html",
    "latlng": "[36.6261405, 140.4037748]",
    "lat": 36.6261405,
    "lng": 140.4037748,
    "isClosed": ""
  },
  {
    "id": "ibaraki-museum-42",
    "type": "museum",
    "name": "民俗資料増渕茂民俗記念館",
    "prefecture": "茨城県",
    "postCode": "309-1231",
    "address": "茨城県桜川市本木1591 大和村立雨引小学校内",
    "city": "さくらがわ",
    "image": "",
    "url": "",
    "latlng": "[36.3239026, 140.1056513]",
    "lat": 36.3239026,
    "lng": 140.1056513,
    "isClosed": ""
  },
  {
    "id": "ibaraki-museum-43",
    "type": "museum",
    "name": "水戸市内原郷土史義勇軍資料館",
    "prefecture": "茨城県",
    "postCode": "319-0315",
    "address": "茨城県水戸市内原町1497-16",
    "city": "みと",
    "image": "",
    "url": "http://www.mitokoumon.com/shisetsu/kankou/giyuugun.html",
    "latlng": "[36.360055, 140.3586419]",
    "lat": 36.360055,
    "lng": 140.3586419,
    "isClosed": ""
  },
  {
    "id": "ibaraki-museum-44",
    "type": "museum",
    "name": "水戸市大串貝塚ふれあい公園・縄文くらしの四季館",
    "prefecture": "茨城県",
    "postCode": "311-1114",
    "address": "茨城県水戸市塩崎町1010",
    "city": "みと",
    "image": "",
    "url": "http://www.city.mito.lg.jp/view.rbz?cd=1478",
    "latlng": "[36.3337582, 140.5456782]",
    "lat": 36.3337582,
    "lng": 140.5456782,
    "isClosed": ""
  },
  {
    "id": "ibaraki-museum-45",
    "type": "museum",
    "name": "水戸市植物公園",
    "prefecture": "茨城県",
    "postCode": "310-0914",
    "address": "茨城県水戸市小吹町504",
    "city": "みと",
    "image": "",
    "url": "http://www.mito-botanical-park.com/",
    "latlng": "[36.3401842, 140.4212472]",
    "lat": 36.3401842,
    "lng": 140.4212472,
    "isClosed": ""
  },
  {
    "id": "ibaraki-museum-46",
    "type": "museum",
    "name": "水郷まちかどギャラリー",
    "prefecture": "茨城県",
    "postCode": "311-2424",
    "address": "茨城県潮来市潮来182－3",
    "city": "いたこ",
    "image": "",
    "url": "http://suibiken.jp/",
    "latlng": "[35.9395371, 140.5442318]",
    "lat": 35.9395371,
    "lng": 140.5442318,
    "isClosed": ""
  },
  {
    "id": "ibaraki-museum-47",
    "type": "museum",
    "name": "牛久シャトーワイン資料館",
    "prefecture": "茨城県",
    "postCode": "300-1234",
    "address": "茨城県牛久市中央3－21－1",
    "city": "うしく",
    "image": "",
    "url": "http://www.ch-kamiya.jp/index.html",
    "latlng": "[35.9794506, 140.1447359]",
    "lat": 35.9794506,
    "lng": 140.1447359,
    "isClosed": ""
  },
  {
    "id": "ibaraki-museum-48",
    "type": "museum",
    "name": "特別史跡旧弘道館",
    "prefecture": "茨城県",
    "postCode": "310-0011",
    "address": "茨城県水戸市三の丸1-6-29",
    "city": "みと",
    "image": "",
    "url": "http://www.koen.pref.ibaraki.jp/p_kabetsu/index.php?detail=true&page=kodo&ind=741",
    "latlng": "[36.3754052, 140.4773049]",
    "lat": 36.3754052,
    "lng": 140.4773049,
    "isClosed": ""
  },
  {
    "id": "ibaraki-museum-49",
    "type": "museum",
    "name": "田中嘉三記念館",
    "prefecture": "茨城県",
    "postCode": "309-1626",
    "address": "茨城県笠間市下市毛向山1377－2",
    "city": "かさま",
    "image": "",
    "url": "http://www.kogyosha.co.jp/gallery/index.html",
    "latlng": "[36.3682781, 140.252778]",
    "lat": 36.3682781,
    "lng": 140.252778,
    "isClosed": ""
  },
  {
    "id": "ibaraki-museum-50",
    "type": "museum",
    "name": "真壁伝承館歴史資料館",
    "prefecture": "茨城県",
    "postCode": "300-4408",
    "address": "茨城県桜川市真壁町真壁198",
    "city": "さくらがわ",
    "image": "",
    "url": "http://www.city.sakuragawa.lg.jp/page/page002212.html",
    "latlng": "[36.2778147, 140.1005712]",
    "lat": 36.2778147,
    "lng": 140.1005712,
    "isClosed": ""
  },
  {
    "id": "ibaraki-museum-51",
    "type": "museum",
    "name": "石岡市民俗資料館",
    "prefecture": "茨城県",
    "postCode": "315-0016",
    "address": "茨城県石岡市総社1－2－10",
    "city": "いしおか",
    "image": "",
    "url": "http://www.city.ishioka.lg.jp/index.php?oid=1&dtype=1004&pid=152",
    "latlng": "[36.18882260000001, 140.2684304]",
    "lat": 36.18882260000001,
    "lng": 140.2684304,
    "isClosed": ""
  },
  {
    "id": "ibaraki-museum-52",
    "type": "museum",
    "name": "石岡市立図書館　郷土資料室",
    "prefecture": "茨城県",
    "postCode": "315-0017",
    "address": "茨城県石岡市若宮1－6－31",
    "city": "いしおか",
    "image": "",
    "url": "http://lib.city.ishioka.lg.jp/index.php",
    "latlng": "[36.1933142, 140.2716729]",
    "lat": 36.1933142,
    "lng": 140.2716729,
    "isClosed": ""
  },
  {
    "id": "ibaraki-museum-53",
    "type": "museum",
    "name": "神栖市歴史民俗資料館",
    "prefecture": "茨城県",
    "postCode": "314-0144",
    "address": "茨城県神栖市大野原4-8-5",
    "city": "かみす",
    "image": "",
    "url": "http://www.city.kamisu.ibaraki.jp/dd.aspx?menuid=1883",
    "latlng": "[35.8970872, 140.6365245]",
    "lat": 35.8970872,
    "lng": 140.6365245,
    "isClosed": ""
  },
  {
    "id": "ibaraki-museum-54",
    "type": "museum",
    "name": "稲敷市立歴史民俗資料館",
    "prefecture": "茨城県",
    "postCode": "300-0736",
    "address": "茨城県稲敷市八千石18－1",
    "city": "いなしき",
    "image": "",
    "url": "http://www.city.inashiki.lg.jp/index.php?code=756",
    "latlng": "[35.9332137, 140.4265505]",
    "lat": 35.9332137,
    "lng": 140.4265505,
    "isClosed": ""
  },
  {
    "id": "ibaraki-museum-55",
    "type": "museum",
    "name": "笠間市立歴史民俗資料館",
    "prefecture": "茨城県",
    "postCode": "309-1722",
    "address": "茨城県笠間市平町29",
    "city": "かさま",
    "image": "",
    "url": "http://www.city.kasama.lg.jp/kankou/04manabu/kyoudo.html",
    "latlng": "[36.3399148, 140.2875306]",
    "lat": 36.3399148,
    "lng": 140.2875306,
    "isClosed": ""
  },
  {
    "id": "ibaraki-museum-56",
    "type": "museum",
    "name": "筑波大学 朝永記念室",
    "prefecture": "茨城県",
    "postCode": "305-0006",
    "address": "茨城県つくば市天王台1－1－1 筑波大学大学会館",
    "city": "つくば",
    "image": "",
    "url": "http://tomonaga.tsukuba.ac.jp/",
    "latlng": "[36.1112342, 140.1007171]",
    "lat": 36.1112342,
    "lng": 140.1007171,
    "isClosed": ""
  },
  {
    "id": "ibaraki-museum-57",
    "type": "museum",
    "name": "﻿常総市民俗資料館",
    "prefecture": "茨城県",
    "postCode": "300-2744",
    "address": "茨城県常総市杉山687",
    "city": "じょうそう",
    "image": "",
    "url": "",
    "latlng": "[36.1197051, 139.9537798]",
    "lat": 36.1197051,
    "lng": 139.9537798,
    "isClosed": ""
  },
  {
    "id": "ibaraki-museum-58",
    "type": "museum",
    "name": "常陸大宮市立山方淡水魚館",
    "prefecture": "茨城県",
    "postCode": "319-3111",
    "address": "茨城県常陸大宮市山方535",
    "city": "ひたちおおみや",
    "image": "",
    "url": "",
    "latlng": "[36.6257193, 140.4039934]",
    "lat": 36.6257193,
    "lng": 140.4039934,
    "isClosed": ""
  },
  {
    "id": "ibaraki-museum-59",
    "type": "museum",
    "name": "常陸風土記の丘",
    "prefecture": "茨城県",
    "postCode": "315-0007",
    "address": "茨城県石岡市染谷1646",
    "city": "いしおか",
    "image": "",
    "url": "http://business2.plala.or.jp/fudoki/",
    "latlng": "[36.1967954, 140.2476252]",
    "lat": 36.1967954,
    "lng": 140.2476252,
    "isClosed": ""
  },
  {
    "id": "ibaraki-museum-60",
    "type": "museum",
    "name": "常陽史料館",
    "prefecture": "茨城県",
    "postCode": "310-0024",
    "address": "茨城県水戸市備前町6-71",
    "city": "みと",
    "image": "",
    "url": "http://www.joyogeibun.or.jp/",
    "latlng": "[36.3738935, 140.4633853]",
    "lat": 36.3738935,
    "lng": 140.4633853,
    "isClosed": ""
  },
  {
    "id": "ibaraki-museum-61",
    "type": "museum",
    "name": "常陽藝文センター 藝文ギャラリー",
    "prefecture": "茨城県",
    "postCode": "310-0011",
    "address": "茨城県水戸市三の丸1-5-18 常陽郷土会館内",
    "city": "みと",
    "image": "",
    "url": "https://www.joyogeibun.or.jp/",
    "latlng": "[36.3750078, 140.4739517]",
    "lat": 36.3750078,
    "lng": 140.4739517,
    "isClosed": ""
  },
  {
    "id": "ibaraki-museum-62",
    "type": "museum",
    "name": "徳川ミュージアム分館 西山荘",
    "prefecture": "茨城県",
    "postCode": "313-0007",
    "address": "茨城県常陸太田市新宿町590",
    "city": "ひたちおおた",
    "image": "",
    "url": "http://tokugawa.gr.jp/seizanso/",
    "latlng": "[36.5418486, 140.5065854]",
    "lat": 36.5418486,
    "lng": 140.5065854,
    "isClosed": ""
  },
  {
    "id": "ibaraki-museum-63",
    "type": "museum",
    "name": "日立シビックセンター科学館",
    "prefecture": "茨城県",
    "postCode": "317-0073",
    "address": "茨城県日立市幸町1-21-1",
    "city": "ひたち",
    "image": "",
    "url": "http://www.civic.jp/science/",
    "latlng": "[36.5901394, 140.6595088]",
    "lat": 36.5901394,
    "lng": 140.6595088,
    "isClosed": ""
  },
  {
    "id": "ibaraki-museum-64",
    "type": "museum",
    "name": "日鉱記念館",
    "prefecture": "茨城県",
    "postCode": "317-0055",
    "address": "茨城県日立市宮田町3585－2",
    "city": "ひたち",
    "image": "",
    "url": "http://www.nmm.jx-group.co.jp/museum/",
    "latlng": "[36.6310563, 140.5998685]",
    "lat": 36.6310563,
    "lng": 140.5998685,
    "isClosed": ""
  },
  {
    "id": "ibaraki-museum-65",
    "type": "museum",
    "name": "旧取手宿本陣染野家住宅",
    "prefecture": "茨城県",
    "postCode": "302-0004",
    "address": "茨城県取手市取手2－16－41",
    "city": "とりで",
    "image": "",
    "url": "http://www.city.toride.ibaraki.jp/index.cfm/9",
    "latlng": "[35.8913644, 140.065353]",
    "lat": 35.8913644,
    "lng": 140.065353,
    "isClosed": ""
  },
  {
    "id": "ibaraki-museum-66",
    "type": "museum",
    "name": "東海原子力館　（東海テラパーク）",
    "prefecture": "茨城県",
    "postCode": "319-1106",
    "address": "茨城県東海村白方1－1",
    "city": "とうかい",
    "image": "",
    "url": "http://www.japc.co.jp/gendenkan/tokai/index.html",
    "latlng": "[36.46806979999999, 140.6044437]",
    "lat": 36.46806979999999,
    "lng": 140.6044437,
    "isClosed": ""
  },
  {
    "id": "ibaraki-museum-67",
    "type": "museum",
    "name": "松本楓湖資料館・大久保楓閣記念館",
    "prefecture": "茨城県",
    "postCode": "300-0503",
    "address": "茨城県稲敷市稲波165",
    "city": "いなしき",
    "image": "",
    "url": "",
    "latlng": "[35.975189, 140.3344657]",
    "lat": 35.975189,
    "lng": 140.3344657,
    "isClosed": ""
  },
  {
    "id": "ibaraki-museum-68",
    "type": "museum",
    "name": "板谷波山記念館",
    "prefecture": "茨城県",
    "postCode": "308-0021",
    "address": "茨城県筑西市田町甲866",
    "city": "ちくせい",
    "image": "",
    "url": "http://www.city.chikusei.lg.jp/data/hazan/top.html",
    "latlng": "[36.311341, 139.9799463]",
    "lat": 36.311341,
    "lng": 139.9799463,
    "isClosed": ""
  },
  {
    "id": "ibaraki-museum-69",
    "type": "museum",
    "name": "森林総合研究所 第１樹木園",
    "prefecture": "茨城県",
    "postCode": "305-8687",
    "address": "茨城県つくば市松の里1 林業試験場",
    "city": "つくば",
    "image": "",
    "url": "http://www.ffpri.affrc.go.jp/facilities/jumokuen/1st-jumokuen.html",
    "latlng": "[36.0084796, 140.1314427]",
    "lat": 36.0084796,
    "lng": 140.1314427,
    "isClosed": ""
  },
  {
    "id": "ibaraki-museum-70",
    "type": "museum",
    "name": "和鶏館",
    "prefecture": "茨城県",
    "postCode": "300-2615",
    "address": "茨城県つくば市田倉5246 日本農産工業株式会社研究開発センター",
    "city": "つくば",
    "image": "",
    "url": "http://www.nosan.co.jp/corp/office/wakeikan.htm",
    "latlng": "[36.1181331, 140.0173506]",
    "lat": 36.1181331,
    "lng": 140.0173506,
    "isClosed": ""
  },
  {
    "id": "ibaraki-museum-71",
    "type": "museum",
    "name": "国立公文書館つくば分館",
    "prefecture": "茨城県",
    "postCode": "300-4246",
    "address": "茨城県つくば市上沢6－6",
    "city": "つくば",
    "image": "",
    "url": "http://www.archives.go.jp/",
    "latlng": "[36.1573289, 140.0657673]",
    "lat": 36.1573289,
    "lng": 140.0657673,
    "isClosed": ""
  },
  {
    "id": "ibaraki-museum-72",
    "type": "museum",
    "name": "国立科学博物館 筑波実験植物園（つくば植物園）",
    "prefecture": "茨城県",
    "postCode": "305-0005",
    "address": "茨城県つくば市天久保4－1－1",
    "city": "つくば",
    "image": "",
    "url": "http://www.tbg.kahaku.go.jp/",
    "latlng": "[36.1032344, 140.110911]",
    "lat": 36.1032344,
    "lng": 140.110911,
    "isClosed": ""
  },
  {
    "id": "ibaraki-museum-73",
    "type": "museum",
    "name": "土浦市民ギャラリー",
    "prefecture": "茨城県",
    "postCode": "300-0036",
    "address": "茨城県土浦市大和町1-1",
    "city": "つちうら",
    "image": "",
    "url": "https://www.city.tsuchiura.lg.jp/gallery/",
    "latlng": "[36.0788833, 140.2057219]",
    "lat": 36.0788833,
    "lng": 140.2057219,
    "isClosed": ""
  },
  {
    "id": "ibaraki-museum-74",
    "type": "museum",
    "name": "地図と測量の科学館",
    "prefecture": "茨城県",
    "postCode": "305-0811",
    "address": "茨城県つくば市北郷1 国土交通省国土地理院",
    "city": "つくば",
    "image": "",
    "url": "http://www.gsi.go.jp/MUSEUM/index.html",
    "latlng": "[36.1051596, 140.0853534]",
    "lat": 36.1051596,
    "lng": 140.0853534,
    "isClosed": ""
  },
  {
    "id": "ibaraki-museum-75",
    "type": "museum",
    "name": "地質標本館",
    "prefecture": "茨城県",
    "postCode": "305-8567",
    "address": "茨城県つくば市東1-1-1 中央事業所7群",
    "city": "つくば",
    "image": "",
    "url": "https://www.gsj.jp/Muse/",
    "latlng": "[36.0594253, 140.1298725]",
    "lat": 36.0594253,
    "lng": 140.1298725,
    "isClosed": ""
  },
  {
    "id": "ibaraki-museum-76",
    "type": "museum",
    "name": "境町歴史民俗資料館",
    "prefecture": "茨城県",
    "postCode": "306-0431",
    "address": "茨城県境町西泉田1326－1",
    "city": "さかい",
    "image": "",
    "url": "http://www.town.sakai.ibaraki.jp/contents_detail.php?co=kak&frmId=158",
    "latlng": "[36.1206874, 139.8084918]",
    "lat": 36.1206874,
    "lng": 139.8084918,
    "isClosed": ""
  },
  {
    "id": "ibaraki-museum-77",
    "type": "museum",
    "name": "大塚農民館",
    "prefecture": "茨城県",
    "postCode": "311-4143",
    "address": "茨城県水戸市大塚町1223－2",
    "city": "みと",
    "image": "",
    "url": "http://www.mito-kouiki.com/sisetu/mito/g-otsuka.htm",
    "latlng": "[36.384602, 140.3888364]",
    "lat": 36.384602,
    "lng": 140.3888364,
    "isClosed": ""
  },
  {
    "id": "ibaraki-museum-78",
    "type": "museum",
    "name": "小平記念館",
    "prefecture": "茨城県",
    "postCode": "317-0073",
    "address": "茨城県日立市幸町3-1-1 日立製作所日立工場内",
    "city": "ひたち",
    "image": "",
    "url": "http://www.city.hitachi.ibaraki.jp/viewer/info.html1.id=983",
    "latlng": "[36.5829384, 140.6565109]",
    "lat": 36.5829384,
    "lng": 140.6565109,
    "isClosed": ""
  },
  {
    "id": "ibaraki-museum-79",
    "type": "museum",
    "name": "小町の館",
    "prefecture": "茨城県",
    "postCode": "300-4108",
    "address": "茨城県土浦市小野491 小町ふれあい広場内",
    "city": "つちうら",
    "image": "",
    "url": "http://www.city.tsuchiura.lg.jp/index.php?code=1997",
    "latlng": "[36.165341, 140.1605359]",
    "lat": 36.165341,
    "lng": 140.1605359,
    "isClosed": ""
  },
  {
    "id": "ibaraki-museum-80",
    "type": "museum",
    "name": "小美玉市玉里史料館",
    "prefecture": "茨城県",
    "postCode": "311-3433",
    "address": "茨城県小美玉市高崎291-3 生涯学習センター コスモス内",
    "city": "おみたま",
    "image": "",
    "url": "http://www.city.omitama.lg.jp/237.html",
    "latlng": "[36.15471429999999, 140.3315431]",
    "lat": 36.15471429999999,
    "lng": 140.3315431,
    "isClosed": ""
  },
  {
    "id": "ibaraki-museum-81",
    "type": "museum",
    "name": "小貝川ふれあい公園・ネイチャーセンター",
    "prefecture": "茨城県",
    "postCode": "304-0000",
    "address": "茨城県下妻市堀込大日前1650－1",
    "city": "しもつま",
    "image": "",
    "url": "http://www.eimiya.com/kagaku/sub9.html",
    "latlng": "[36.1843331, 139.9673895]",
    "lat": 36.1843331,
    "lng": 139.9673895,
    "isClosed": ""
  },
  {
    "id": "ibaraki-museum-82",
    "type": "museum",
    "name": "小貝川激特事業民俗資料館",
    "prefecture": "茨城県",
    "postCode": "308-0836",
    "address": "茨城県筑西市旭ケ丘2911-7",
    "city": "ちくせい",
    "image": "",
    "url": "",
    "latlng": "[36.2628512, 139.9862755]",
    "lat": 36.2628512,
    "lng": 139.9862755,
    "isClosed": ""
  },
  {
    "id": "ibaraki-museum-83",
    "type": "museum",
    "name": "常磐神社義烈館",
    "prefecture": "茨城県",
    "postCode": "310-0033",
    "address": "茨城県水戸市常磐町1－3－1",
    "city": "みと",
    "image": "",
    "url": "http://komonsan.on.arena.ne.jp/",
    "latlng": "[36.3747015, 140.4559315]",
    "lat": 36.3747015,
    "lng": 140.4559315,
    "isClosed": ""
  },
  {
    "id": "ibaraki-museum-84",
    "type": "museum",
    "name": "﻿パークアルカディア　プラネタリウム館",
    "prefecture": "茨城県",
    "postCode": "319-3111",
    "address": "茨城県常陸大宮市山方5672-12",
    "city": "ひたちおおみや",
    "image": "",
    "url": "http://www5.ocn.ne.jp/~purakan/index2.html",
    "latlng": "[36.6296606, 140.3822266]",
    "lat": 36.6296606,
    "lng": 140.3822266,
    "isClosed": ""
  },
  {
    "id": "ibaraki-museum-85",
    "type": "museum",
    "name": "ひたちなか市埋蔵文化財調査センター",
    "prefecture": "茨城県",
    "postCode": "312-0011",
    "address": "茨城県ひたちなか市中根3499",
    "city": "ひたちなか",
    "image": "",
    "url": "http://www.city.hitachinaka.ibaraki.jp/soshiki/56/hitachinaka-maibun.html",
    "latlng": "[36.3745451, 140.5704831]",
    "lat": 36.3745451,
    "lng": 140.5704831,
    "isClosed": ""
  },
  {
    "id": "ibaraki-museum-86",
    "type": "museum",
    "name": "ふるさと館・さけ展示館",
    "prefecture": "茨城県",
    "postCode": "319-2201",
    "address": "茨城県常陸大宮市辰ノ口1339-2",
    "city": "ひたちおおみや",
    "image": "",
    "url": "",
    "latlng": "[36.5920103, 140.4206616]",
    "lat": 36.5920103,
    "lng": 140.4206616,
    "isClosed": ""
  },
  {
    "id": "ibaraki-museum-87",
    "type": "museum",
    "name": "下妻市ふるさと博物館",
    "prefecture": "茨城県",
    "postCode": "304-0056",
    "address": "茨城県下妻市長塚乙77",
    "city": "しもつま",
    "image": "",
    "url": "https://www.city.shimotsuma.lg.jp/shimotsumakankomonogatari/rekishi-bunka/page000951.html",
    "latlng": "[36.1948642, 139.9424288]",
    "lat": 36.1948642,
    "lng": 139.9424288,
    "isClosed": ""
  },
  {
    "id": "ibaraki-museum-88",
    "type": "museum",
    "name": "世界の焼物博物館",
    "prefecture": "茨城県",
    "postCode": "309-1626",
    "address": "茨城県笠間市下市毛754 製陶ふくだ内",
    "city": "かさま",
    "image": "",
    "url": "http://www.seitou-fukuda.com/scene/introom/index.html",
    "latlng": "[36.3695942, 140.2519326]",
    "lat": 36.3695942,
    "lng": 140.2519326,
    "isClosed": ""
  },
  {
    "id": "ibaraki-museum-89",
    "type": "museum",
    "name": "予科練平和記念館",
    "prefecture": "茨城県",
    "postCode": "300-0302",
    "address": "茨城県稲敷郡阿見町大字廻戸5-1",
    "city": "あみ",
    "image": "",
    "url": "http://www.yokaren-heiwa.jp/",
    "latlng": "[36.0456198, 140.2234097]",
    "lat": 36.0456198,
    "lng": 140.2234097,
    "isClosed": ""
  },
  {
    "id": "ibaraki-museum-90",
    "type": "museum",
    "name": "偕楽園好文亭",
    "prefecture": "茨城県",
    "postCode": "310-0033",
    "address": "茨城県水戸市常磐町1－3－3",
    "city": "みと",
    "image": "",
    "url": "http://www.koen.pref.ibaraki.jp/park/kairakuen11.html",
    "latlng": "[36.3746111, 140.4565501]",
    "lat": 36.3746111,
    "lng": 140.4565501,
    "isClosed": ""
  },
  {
    "id": "ibaraki-museum-91",
    "type": "museum",
    "name": "八千代町歴史民俗資料館",
    "prefecture": "茨城県",
    "postCode": "300-3572",
    "address": "茨城県八千代町菅谷1017－1",
    "city": "やちよ",
    "image": "",
    "url": "http://www1.town.yachiyo.ibaraki.jp/sisetsu/rekishi/",
    "latlng": "[36.179444, 139.8895871]",
    "lat": 36.179444,
    "lng": 139.8895871,
    "isClosed": ""
  },
  {
    "id": "ibaraki-museum-92",
    "type": "museum",
    "name": "利根町立柳田國男記念公苑",
    "prefecture": "茨城県",
    "postCode": "300-1622",
    "address": "茨城県利根町布川1787－1",
    "city": "とね",
    "image": "",
    "url": "http://www.town.tone.ibaraki.jp/index.php1.code=169",
    "latlng": "[35.85729329999999, 140.1481561]",
    "lat": 35.85729329999999,
    "lng": 140.1481561,
    "isClosed": ""
  },
  {
    "id": "ibaraki-museum-93",
    "type": "museum",
    "name": "利根町立歴史民俗資料館",
    "prefecture": "茨城県",
    "postCode": "300-1615",
    "address": "茨城県利根町中谷967",
    "city": "とね",
    "image": "",
    "url": "http://www.town.tone.ibaraki.jp/index.php?code=168",
    "latlng": "[35.8619275, 140.1806851]",
    "lat": 35.8619275,
    "lng": 140.1806851,
    "isClosed": ""
  },
  {
    "id": "ibaraki-museum-94",
    "type": "museum",
    "name": "北茨城市歴史民俗資料館・野口雨情記念館",
    "prefecture": "茨城県",
    "postCode": "319-1541",
    "address": "茨城県北茨城市磯原町磯原130－1",
    "city": "きたいばらき",
    "image": "",
    "url": "http://www.ujokinenkan.jp/",
    "latlng": "[36.7973616, 140.7573203]",
    "lat": 36.7973616,
    "lng": 140.7573203,
    "isClosed": ""
  },
  {
    "id": "ibaraki-museum-95",
    "type": "museum",
    "name": "取手市埋蔵文化財センター",
    "prefecture": "茨城県",
    "postCode": "302-0007",
    "address": "茨城県取手市吉田383",
    "city": "とりで",
    "image": "",
    "url": "http://www.city.toride.ibaraki.jp/index.cfm/9",
    "latlng": "[35.8900847, 140.0827636]",
    "lat": 35.8900847,
    "lng": 140.0827636,
    "isClosed": ""
  },
  {
    "id": "ibaraki-museum-96",
    "type": "museum",
    "name": "古河市三和図書館資料館「燦SUN館」",
    "prefecture": "茨城県",
    "postCode": "306-0125",
    "address": "茨城県古河市三和町仁連2042-1",
    "city": "こが",
    "image": "",
    "url": "http://www.city.ibaraki-koga.lg.jp/06renewal/fc/shosai/15.htm",
    "latlng": "[36.1854054, 139.8193895]",
    "lat": 36.1854054,
    "lng": 139.8193895,
    "isClosed": ""
  },
  {
    "id": "ibaraki-museum-97",
    "type": "museum",
    "name": "古河文学館",
    "prefecture": "茨城県",
    "postCode": "306-0033",
    "address": "茨城県古河市中央町3-10-21",
    "city": "こが",
    "image": "",
    "url": "http://www.city.ibaraki-koga.lg.jp/bungaku/index.html",
    "latlng": "[36.1917039, 139.7019261]",
    "lat": 36.1917039,
    "lng": 139.7019261,
    "isClosed": ""
  },
  {
    "id": "ibaraki-museum-98",
    "type": "museum",
    "name": "﻿ARTS ISOZAKI",
    "prefecture": "茨城県",
    "postCode": "310-0011",
    "address": "茨城県水戸市三の丸1丁目4−17",
    "city": "みと",
    "image": "",
    "url": "http://artsisozaki.main.jp/",
    "latlng": "[36.3739537, 140.4741432]",
    "lat": 36.3739537,
    "lng": 140.4741432,
    "isClosed": ""
  },
  {
    "id": "ibaraki-museum-99",
    "type": "museum",
    "name": "お菓子博物館",
    "prefecture": "茨城県",
    "postCode": "310-0913",
    "address": "茨城県水戸市見川町2139－5",
    "city": "みと",
    "image": "",
    "url": "http://www.kamejirushi.co.jp/factory/",
    "latlng": "[36.3559522, 140.4227011]",
    "lat": 36.3559522,
    "lng": 140.4227011,
    "isClosed": ""
  },
  {
    "id": "ibaraki-museum-100",
    "type": "museum",
    "name": "カシマサッカーミュージアム",
    "prefecture": "茨城県",
    "postCode": "314-0007",
    "address": "茨城県鹿嶋市神向寺後山26-2 カシマサッカースタジアム内",
    "city": "かしま",
    "image": "",
    "url": "http://www.so-net.ne.jp/antlers/museum/index.html",
    "latlng": "[35.9920169, 140.6401679]",
    "lat": 35.9920169,
    "lng": 140.6401679,
    "isClosed": ""
  },
  {
    "id": "ibaraki-museum-101",
    "type": "museum",
    "name": "かすみがうら市郷土資料館",
    "prefecture": "茨城県",
    "postCode": "300-0214",
    "address": "茨城県かすみがうら市坂1029",
    "city": "かすみがうら",
    "image": "",
    "url": "http://edu.city.kasumigaura.ibaraki.jp/shiryokan/",
    "latlng": "[36.0740674, 140.3732493]",
    "lat": 36.0740674,
    "lng": 140.3732493,
    "isClosed": ""
  },
  {
    "id": "ibaraki-museum-102",
    "type": "museum",
    "name": "さしま郷土館ミューズ(坂東市立猿島資料館）",
    "prefecture": "茨城県",
    "postCode": "306-0502",
    "address": "茨城県坂東市山2726",
    "city": "ばんどう",
    "image": "",
    "url": "http://www.city.bando.lg.jp/facilities/culture/muse/sm_index.html",
    "latlng": "[36.1174354, 139.8836828]",
    "lat": 36.1174354,
    "lng": 139.8836828,
    "isClosed": ""
  },
  {
    "id": "ibaraki-museum-103",
    "type": "museum",
    "name": "タカノフーズ納豆博物館",
    "prefecture": "茨城県",
    "postCode": "311-3411",
    "address": "茨城県小美玉市野田1542",
    "city": "おみたま",
    "image": "",
    "url": "http://www.takanofoods.co.jp/okame/museum.html",
    "latlng": "[36.20987840000001, 140.3799231]",
    "lat": 36.20987840000001,
    "lng": 140.3799231,
    "isClosed": ""
  },
  {
    "id": "ibaraki-museum-104",
    "type": "museum",
    "name": "たばこ資料館",
    "prefecture": "茨城県",
    "postCode": "300-4403",
    "address": "茨城県桜川市真壁町長岡891",
    "city": "さくらがわ",
    "image": "",
    "url": "",
    "latlng": "[36.2920623, 140.1205327]",
    "lat": 36.2920623,
    "lng": 140.1205327,
    "isClosed": ""
  },
  {
    "id": "ibaraki-museum-105",
    "type": "museum",
    "name": "つくば市桜歴史民俗資料館",
    "prefecture": "茨城県",
    "postCode": "305-0018",
    "address": "茨城県つくば市金田1658－1",
    "city": "つくば",
    "image": "",
    "url": "http://www.city.tsukuba.ibaraki.jp/53/370/000242.html",
    "latlng": "[36.0997516, 140.1330874]",
    "lat": 36.0997516,
    "lng": 140.1330874,
    "isClosed": ""
  },
  {
    "id": "ibaraki-museum-106",
    "type": "museum",
    "name": "つくば市立谷田部郷土資料館",
    "prefecture": "茨城県",
    "postCode": "305-0861",
    "address": "茨城県つくば市谷田部4774－18 保健文教センター3F",
    "city": "つくば",
    "image": "",
    "url": "http://www.city.tsukuba.ibaraki.jp/53/370/000242.html",
    "latlng": "[36.036965, 140.0746867]",
    "lat": 36.036965,
    "lng": 140.0746867,
    "isClosed": ""
  },
  {
    "id": "ibaraki-museum-107",
    "type": "museum",
    "name": "つくば科学万博記念館",
    "prefecture": "茨城県",
    "postCode": "300-4352",
    "address": "茨城県つくば市筑波1 筑波山神社",
    "city": "つくば",
    "image": "",
    "url": "",
    "latlng": "[36.2137806, 140.1013225]",
    "lat": 36.2137806,
    "lng": 140.1013225,
    "isClosed": ""
  },
  {
    "id": "ibaraki-museum-108",
    "type": "museum",
    "name": "つむぎの館",
    "prefecture": "茨城県",
    "postCode": "307-0001",
    "address": "茨城県結城市大字結城12-2",
    "city": "ゆうき",
    "image": "",
    "url": "http://www.yukitumugi.co.jp/",
    "latlng": "[36.3036128, 139.8773481]",
    "lat": 36.3036128,
    "lng": 139.8773481,
    "isClosed": ""
  },
  {
    "id": "ibaraki-museum-109",
    "type": "museum",
    "name": "テクノ大洗（動力炉・核燃料開発事業団　大洗工学センター展示館）",
    "prefecture": "茨城県",
    "postCode": "311-1313",
    "address": "茨城県大洗町成田町4002",
    "city": "おおあらい",
    "image": "",
    "url": "",
    "latlng": "[36.2618637, 140.5457689]",
    "lat": 36.2618637,
    "lng": 140.5457689,
    "isClosed": ""
  }
]