[
  {
    "id": "gunma-art-1",
    "type": "art",
    "name": "太田市美術館・図書館",
    "prefecture": "群馬県",
    "postCode": "373-0026",
    "address": "群馬県太田市東本町16−30",
    "city": "おおた",
    "image": "",
    "url": "https://www.artmuseumlibraryota.jp/",
    "latlng": "[36.2944803, 139.3785017]",
    "lat": 36.2944803,
    "lng": 139.3785017,
    "isClosed": ""
  },
  {
    "id": "gunma-art-2",
    "type": "art",
    "name": "大川美術館",
    "prefecture": "群馬県",
    "postCode": "376-0043",
    "address": "群馬県桐生市小曾根町3−69",
    "city": "きりゅう",
    "image": "",
    "url": "http://okawamuseum.jp/",
    "latlng": "[36.41675180000001, 139.333886]",
    "lat": 36.41675180000001,
    "lng": 139.333886,
    "isClosed": ""
  },
  {
    "id": "gunma-art-3",
    "type": "art",
    "name": "原美術館 ARC",
    "prefecture": "群馬県",
    "postCode": "377-0027",
    "address": "群馬県渋川市金井2855−1",
    "city": "しぶかわ",
    "image": "",
    "url": "https://www.haramuseum.or.jp/jp/arc/",
    "latlng": "[36.5030309, 138.9453539]",
    "lat": 36.5030309,
    "lng": 138.9453539,
    "isClosed": ""
  },
  {
    "id": "gunma-art-4",
    "type": "art",
    "name": "群馬県立近代美術館",
    "prefecture": "群馬県",
    "postCode": "370-1293",
    "address": "群馬県高崎市綿貫町992−1 群馬の森公園内",
    "city": "たかさき",
    "image": "",
    "url": "https://mmag.pref.gunma.jp/",
    "latlng": "[36.2983733, 139.0818189]",
    "lat": 36.2983733,
    "lng": 139.0818189,
    "isClosed": ""
  },
  {
    "id": "gunma-art-5",
    "type": "art",
    "name": "群馬県立館林美術館",
    "prefecture": "群馬県",
    "postCode": "374-0076",
    "address": "群馬県館林市日向町2003",
    "city": "たてばやし",
    "image": "",
    "url": "http://www.gmat.pref.gunma.jp/",
    "latlng": "[36.265815, 139.5051534]",
    "lat": 36.265815,
    "lng": 139.5051534,
    "isClosed": ""
  },
  {
    "id": "gunma-art-6",
    "type": "art",
    "name": "天一美術館",
    "prefecture": "群馬県",
    "postCode": "379-1619",
    "address": "群馬県利根郡みなかみ町谷川508−2",
    "city": "みなかみ",
    "image": "",
    "url": "http://tenichi-museum.com/",
    "latlng": "[36.7901915, 138.9548745]",
    "lat": 36.7901915,
    "lng": 138.9548745,
    "isClosed": ""
  },
  {
    "id": "gunma-art-7",
    "type": "art",
    "name": "富岡市立美術博物館・福沢一郎記念美術館",
    "prefecture": "群馬県",
    "postCode": "370-2344",
    "address": "群馬県富岡市黒川351−1",
    "city": "とみおか",
    "image": "",
    "url": "https://www.city.tomioka.lg.jp/www/genre/0000000000000/1387242529968/index.html",
    "latlng": "[36.2682272, 138.8648188]",
    "lat": 36.2682272,
    "lng": 138.8648188,
    "isClosed": ""
  },
  {
    "id": "gunma-art-8",
    "type": "art",
    "name": "富弘美術館",
    "prefecture": "群馬県",
    "postCode": "376-0302",
    "address": "群馬県みどり市東町草木86",
    "city": "みどり",
    "image": "",
    "url": "https://www.city.midori.gunma.jp/tomihiro/",
    "latlng": "[36.5525753, 139.372801]",
    "lat": 36.5525753,
    "lng": 139.372801,
    "isClosed": ""
  },
  {
    "id": "gunma-art-9",
    "type": "art",
    "name": "高崎市タワー美術館",
    "prefecture": "群馬県",
    "postCode": "370-0841",
    "address": "群馬県高崎市栄町3−23",
    "city": "たかさき",
    "image": "",
    "url": "https://www.city.takasaki.gunma.jp/docs/2014021900025/",
    "latlng": "[36.3224677, 139.0150513]",
    "lat": 36.3224677,
    "lng": 139.0150513,
    "isClosed": ""
  },
  {
    "id": "gunma-art-10",
    "type": "art",
    "name": "高崎市美術館",
    "prefecture": "群馬県",
    "postCode": "370-0849",
    "address": "群馬県高崎市八島町110−27",
    "city": "たかさき",
    "image": "",
    "url": "https://www.city.takasaki.gunma.jp/docs/2014011000353/",
    "latlng": "[36.3208068, 139.0105772]",
    "lat": 36.3208068,
    "lng": 139.0105772,
    "isClosed": ""
  },
  {
    "id": "gunma-art-11",
    "type": "art",
    "name": "高崎市山田かまち美術館",
    "prefecture": "群馬県",
    "postCode": "370-0862",
    "address": "群馬県高崎市片岡町3－23－5",
    "city": "たかさき",
    "image": "",
    "url": "http://www.city.takasaki.gunma.jp/docs/2014040100192/",
    "latlng": "[36.317876, 138.9903257]",
    "lat": 36.317876,
    "lng": 138.9903257,
    "isClosed": ""
  },
  {
    "id": "gunma-art-12",
    "type": "art",
    "name": "草津 片岡鶴太郎美術館",
    "prefecture": "群馬県",
    "postCode": "377-1711",
    "address": "群馬県草津町479",
    "city": "くさつ",
    "image": "",
    "url": "http://www.kusatsuhotel.com/tsuru/",
    "latlng": "[36.6207181, 138.5960945]",
    "lat": 36.6207181,
    "lng": 138.5960945,
    "isClosed": ""
  },
  {
    "id": "gunma-art-13",
    "type": "art",
    "name": "石沢久夫幽玄派美術館",
    "prefecture": "群馬県",
    "postCode": "370-2604",
    "address": "群馬県下仁田町吉崎438－2",
    "city": "しもにた",
    "image": "",
    "url": "",
    "latlng": "[36.2117689, 138.7994864]",
    "lat": 36.2117689,
    "lng": 138.7994864,
    "isClosed": ""
  },
  {
    "id": "gunma-art-14",
    "type": "art",
    "name": "群馬ガラス工芸美術館",
    "prefecture": "群馬県",
    "postCode": "377-0000",
    "address": "群馬県渋川市渋川4204",
    "city": "しぶかわ",
    "image": "",
    "url": "http://www.ggart.co.jp/",
    "latlng": "[36.50132019999999, 138.9882016]",
    "lat": 36.50132019999999,
    "lng": 138.9882016,
    "isClosed": ""
  },
  {
    "id": "gunma-art-15",
    "type": "art",
    "name": "渋川市美術館・桑原巨守彫刻美術館",
    "prefecture": "群馬県",
    "postCode": "377-0017",
    "address": "群馬県渋川市新町1907",
    "city": "しぶかわ",
    "image": "",
    "url": "http://www.city.shibukawa.gunma.jp/kankou/bijutsu/kuwahara_koku.html",
    "latlng": "[36.489471, 139.000443]",
    "lat": 36.489471,
    "lng": 139.000443,
    "isClosed": ""
  },
  {
    "id": "gunma-art-16",
    "type": "art",
    "name": "広瀬川美術館",
    "prefecture": "群馬県",
    "postCode": "371-0022",
    "address": "群馬県前橋市千代田町3-3-10 広瀬川厩橋畔",
    "city": "まえばし",
    "image": "",
    "url": "http://www31.ocn.ne.jp/~hirosegawa/index.html",
    "latlng": "[36.3953616, 139.0685847]",
    "lat": 36.3953616,
    "lng": 139.0685847,
    "isClosed": ""
  },
  {
    "id": "gunma-art-17",
    "type": "art",
    "name": "朝妻美術館",
    "prefecture": "群馬県",
    "postCode": "379-0135",
    "address": "群馬県安中市郷原130",
    "city": "あんなか",
    "image": "",
    "url": "",
    "latlng": "[36.30490229999999, 138.8476061]",
    "lat": 36.30490229999999,
    "lng": 138.8476061,
    "isClosed": ""
  },
  {
    "id": "gunma-art-18",
    "type": "art",
    "name": "太田市立大隅俊平美術館",
    "prefecture": "群馬県",
    "postCode": "373-0036",
    "address": "群馬県太田市由良町3051",
    "city": "おおた",
    "image": "",
    "url": "http://www.oosumi-museum.jp/",
    "latlng": "[36.2824404, 139.340299]",
    "lat": 36.2824404,
    "lng": 139.340299,
    "isClosed": ""
  },
  {
    "id": "gunma-art-19",
    "type": "art",
    "name": "妙義山麓美術館",
    "prefecture": "群馬県",
    "postCode": "379-0226",
    "address": "群馬県安中市松井田町行田822－1",
    "city": "あんなか",
    "image": "",
    "url": "http://www.myogisanroku-museum.jp/",
    "latlng": "[36.30731660000001, 138.7813129]",
    "lat": 36.30731660000001,
    "lng": 138.7813129,
    "isClosed": ""
  },
  {
    "id": "gunma-art-20",
    "type": "art",
    "name": "妙義町立ふるさと美術館",
    "prefecture": "群馬県",
    "postCode": "379-0201",
    "address": "群馬県妙義町妙義1－5",
    "city": "みょうぎ",
    "image": "",
    "url": "http://www.city.tomioka.lg.jp/facility/003/",
    "latlng": "[36.2980171, 138.7657256]",
    "lat": 36.2980171,
    "lng": 138.7657256,
    "isClosed": ""
  },
  {
    "id": "gunma-art-21",
    "type": "art",
    "name": "伊香保保科美術館",
    "prefecture": "群馬県",
    "postCode": "377-0100",
    "address": "群馬県渋川市伊香保町伊香保208-1",
    "city": "しぶかわ",
    "image": "",
    "url": "http://1hp.jp/?id=museum3226",
    "latlng": "[36.5026461, 138.9221744]",
    "lat": 36.5026461,
    "lng": 138.9221744,
    "isClosed": ""
  },
  {
    "id": "gunma-art-22",
    "type": "art",
    "name": "伊香保切り絵美術館",
    "prefecture": "群馬県",
    "postCode": "377-0102",
    "address": "群馬県渋川市伊香保町伊香保530-108",
    "city": "しぶかわ",
    "image": "",
    "url": "http://www5.wind.ne.jp/iyo/",
    "latlng": "[36.5033721, 138.931413]",
    "lat": 36.5033721,
    "lng": 138.931413,
    "isClosed": ""
  },
  {
    "id": "gunma-art-23",
    "type": "art",
    "name": "切り絵 緑の美術館",
    "prefecture": "群馬県",
    "postCode": "370-3606",
    "address": "群馬県吉岡町大字上野田3361-5",
    "city": "よしおか",
    "image": "",
    "url": "http://www.kirie-ankodo.com/kirie/kirie.htm",
    "latlng": "[36.4677056, 138.9638828]",
    "lat": 36.4677056,
    "lng": 138.9638828,
    "isClosed": ""
  },
  {
    "id": "gunma-art-24",
    "type": "art",
    "name": "千明美術民芸館",
    "prefecture": "群馬県",
    "postCode": "378-0414",
    "address": "群馬県片品村東小川2878",
    "city": "かたしな",
    "image": "",
    "url": "",
    "latlng": "[36.7845602, 139.2462319]",
    "lat": 36.7845602,
    "lng": 139.2462319,
    "isClosed": ""
  },
  {
    "id": "gunma-art-25",
    "type": "art",
    "name": "オノサト・トシノブ美術館",
    "prefecture": "群馬県",
    "postCode": "376-0601",
    "address": "群馬県桐生市梅田町1-182",
    "city": "きりゅう",
    "image": "",
    "url": "",
    "latlng": "[36.4349178, 139.3581197]",
    "lat": 36.4349178,
    "lng": 139.3581197,
    "isClosed": ""
  },
  {
    "id": "gunma-art-26",
    "type": "art",
    "name": "中之沢美術館",
    "prefecture": "群馬県",
    "postCode": "371-0201",
    "address": "群馬県前橋市粕川町中之沢249",
    "city": "まえばし",
    "image": "",
    "url": "http://www13.plala.or.jp/nakanosawa/",
    "latlng": "[36.4796389, 139.1974889]",
    "lat": 36.4796389,
    "lng": 139.1974889,
    "isClosed": ""
  }
]