[
  {
    "id": "gunma-museum-1",
    "type": "museum",
    "name": "中之条町歴史と民俗の博物館「ミュゼ」",
    "prefecture": "群馬県",
    "postCode": "377-0424",
    "address": "群馬県吾妻郡中之条町947−1",
    "city": "なかのじょう",
    "image": "",
    "url": "https://www.town.nakanojo.gunma.jp/site/myuze/",
    "latlng": "[36.5894115, 138.8428786]",
    "lat": 36.5894115,
    "lng": 138.8428786,
    "isClosed": ""
  },
  {
    "id": "gunma-museum-2",
    "type": "museum",
    "name": "安中市学習の森ふるさと学習館",
    "prefecture": "群馬県",
    "postCode": "379-0123",
    "address": "群馬県安中市上間仁田951",
    "city": "あんなか",
    "image": "",
    "url": "https://www.city.annaka.lg.jp/gakushuunomori/",
    "latlng": "[36.2917506, 138.8943358]",
    "lat": 36.2917506,
    "lng": 138.8943358,
    "isClosed": ""
  },
  {
    "id": "gunma-museum-3",
    "type": "museum",
    "name": "相川考古館",
    "prefecture": "群馬県",
    "postCode": "372-0046",
    "address": "群馬県伊勢崎市三光町6−10",
    "city": "いせさき",
    "image": "",
    "url": "http://aam.or.jp/",
    "latlng": "[36.3186697, 139.1913458]",
    "lat": 36.3186697,
    "lng": 139.1913458,
    "isClosed": ""
  },
  {
    "id": "gunma-museum-4",
    "type": "museum",
    "name": "下仁田町自然史館",
    "prefecture": "群馬県",
    "postCode": "370-2611",
    "address": "群馬県甘楽郡下仁田町青倉158−1",
    "city": "しもにた",
    "image": "",
    "url": "https://www.shimonita-geopark.jp/shizenshikan/index.html",
    "latlng": "[36.2019605, 138.775924]",
    "lat": 36.2019605,
    "lng": 138.775924,
    "isClosed": ""
  },
  {
    "id": "gunma-museum-5",
    "type": "museum",
    "name": "竹久夢二伊香保記念館",
    "prefecture": "群馬県",
    "postCode": "377-0102",
    "address": "群馬県渋川市伊香保町伊香保544−119",
    "city": "しぶかわ",
    "image": "",
    "url": "http://yumeji.or.jp/",
    "latlng": "[36.4997078, 138.9271508]",
    "lat": 36.4997078,
    "lng": 138.9271508,
    "isClosed": ""
  },
  {
    "id": "gunma-museum-6",
    "type": "museum",
    "name": "かみつけの里博物館",
    "prefecture": "群馬県",
    "postCode": "370-3534",
    "address": "群馬県高崎市井出町1514",
    "city": "たかさき",
    "image": "",
    "url": "https://www.city.takasaki.gunma.jp/docs/2014010701664/",
    "latlng": "[36.378827, 138.9860997]",
    "lat": 36.378827,
    "lng": 138.9860997,
    "isClosed": ""
  },
  {
    "id": "gunma-museum-7",
    "type": "museum",
    "name": "群馬県立土屋文明記念文学館",
    "prefecture": "群馬県",
    "postCode": "370-3533",
    "address": "群馬県高崎市保渡田町2000",
    "city": "たかさき",
    "image": "",
    "url": "https://bungaku.pref.gunma.jp/",
    "latlng": "[36.3823223, 138.9852566]",
    "lat": 36.3823223,
    "lng": 138.9852566,
    "isClosed": ""
  },
  {
    "id": "gunma-museum-8",
    "type": "museum",
    "name": "群馬県立歴史博物館",
    "prefecture": "群馬県",
    "postCode": "370-1207",
    "address": "群馬県高崎市綿貫町992−1",
    "city": "たかさき",
    "image": "",
    "url": "https://grekisi.pref.gunma.jp/",
    "latlng": "[36.2987118, 139.0784027]",
    "lat": 36.2987118,
    "lng": 139.0784027,
    "isClosed": ""
  },
  {
    "id": "gunma-museum-9",
    "type": "museum",
    "name": "与謝野晶子紀行文学館",
    "prefecture": "群馬県",
    "postCode": "379-1403",
    "address": "群馬県利根郡みなかみ町猿ヶ京温泉1175-1",
    "city": "みなかみ",
    "image": "",
    "url": "https://sarugakyo-navi.jp/culture/%e4%b8%89%e5%9b%bd%e8%b7%af%e4%b8%8e%e8%ac%9d%e9%87%8e%e6%99%b6%e5%ad%90%e7%b4%80%e8%a1%8c%e6%96%87%e5%ad%a6%e9%a4%a8%e3%80%80",
    "latlng": "[36.7303432, 138.8940702]",
    "lat": 36.7303432,
    "lng": 138.8940702,
    "isClosed": ""
  },
  {
    "id": "gunma-museum-10",
    "type": "museum",
    "name": "群馬県立自然史博物館",
    "prefecture": "群馬県",
    "postCode": "370-2345",
    "address": "群馬県富岡市上黒岩1674−1",
    "city": "とみおか",
    "image": "",
    "url": "http://www.gmnh.pref.gunma.jp/",
    "latlng": "[36.2711349, 138.8667749]",
    "lat": 36.2711349,
    "lng": 138.8667749,
    "isClosed": ""
  },
  {
    "id": "gunma-museum-11",
    "type": "museum",
    "name": "岩宿博物館",
    "prefecture": "群馬県",
    "postCode": "379-2311",
    "address": "群馬県みどり市笠懸町阿左美1790−1",
    "city": "みどり",
    "image": "",
    "url": "https://www.city.midori.gunma.jp/iwajuku/",
    "latlng": "[36.3989995, 139.2855293]",
    "lat": 36.3989995,
    "lng": 139.2855293,
    "isClosed": ""
  },
  {
    "id": "gunma-museum-12",
    "type": "museum",
    "name": "みどり市大間々博物館（コノドント館）",
    "prefecture": "群馬県",
    "postCode": "376-0101",
    "address": "群馬県みどり市大間々町大間々1030",
    "city": "みどり",
    "image": "",
    "url": "https://www.city.midori.gunma.jp/conodont/",
    "latlng": "[36.4352887, 139.2745418]",
    "lat": 36.4352887,
    "lng": 139.2745418,
    "isClosed": ""
  },
  {
    "id": "gunma-museum-13",
    "type": "museum",
    "name": "館林市立資料館",
    "prefecture": "群馬県",
    "postCode": "374-0018",
    "address": "群馬県館林市城町3-1",
    "city": "たてばやし",
    "image": "",
    "url": "https://www.city.tatebayashi.gunma.jp/sp004/",
    "latlng": "[36.2447017, 139.5407488]",
    "lat": 36.2447017,
    "lng": 139.5407488,
    "isClosed": ""
  },
  {
    "id": "gunma-museum-14",
    "type": "museum",
    "name": "富岡市立岡部温故館",
    "prefecture": "群馬県",
    "postCode": "370-2461",
    "address": "群馬県富岡市上丹生2395",
    "city": "とみおか",
    "image": "",
    "url": "https://www.city.tomioka.lg.jp/www/genre/0000000000000/1387242518888/index.html",
    "latlng": "[36.2703304, 138.817019]",
    "lat": 36.2703304,
    "lng": 138.817019,
    "isClosed": ""
  },
  {
    "id": "gunma-museum-15",
    "type": "museum",
    "name": "アーツ前橋",
    "prefecture": "群馬県",
    "postCode": "371-0022",
    "address": "群馬県前橋市千代田町5丁目1−16",
    "city": "まえばし",
    "image": "",
    "url": "https://www.artsmaebashi.jp/",
    "latlng": "[36.3906235, 139.0713728]",
    "lat": 36.3906235,
    "lng": 139.0713728,
    "isClosed": ""
  },
  {
    "id": "gunma-museum-16",
    "type": "museum",
    "name": "萩原朔太郎記念・水と緑と詩のまち前橋文学館",
    "prefecture": "群馬県",
    "postCode": "371-0022",
    "address": "群馬県前橋市千代田町3丁目12−10 前橋文学館 1F",
    "city": "まえばし",
    "image": "",
    "url": "https://www.maebashibungakukan.jp/",
    "latlng": "[36.3938998, 139.0722015]",
    "lat": 36.3938998,
    "lng": 139.0722015,
    "isClosed": ""
  },
  {
    "id": "gunma-museum-17",
    "type": "museum",
    "name": "﻿草津高山植物資料館・ベルツ記念館",
    "prefecture": "群馬県",
    "postCode": "377-1711",
    "address": "群馬県草津町草津2－1",
    "city": "くさつ",
    "image": "",
    "url": "",
    "latlng": "[36.6146383, 138.590611]",
    "lat": 36.6146383,
    "lng": 138.590611,
    "isClosed": ""
  },
  {
    "id": "gunma-museum-18",
    "type": "museum",
    "name": "華蔵寺公園水生植物園",
    "prefecture": "群馬県",
    "postCode": "372-0003",
    "address": "群馬県伊勢崎市華蔵寺町1",
    "city": "いせさき",
    "image": "",
    "url": "http://www8.wind.jp/kezouji/",
    "latlng": "[36.3422392, 139.1975087]",
    "lat": 36.3422392,
    "lng": 139.1975087,
    "isClosed": ""
  },
  {
    "id": "gunma-museum-19",
    "type": "museum",
    "name": "藤原の里ふるさと村郷土館",
    "prefecture": "群馬県",
    "postCode": "379-1721",
    "address": "群馬県みなかみ町藤原明川",
    "city": "みなかみ",
    "image": "",
    "url": "",
    "latlng": "[36.8464252, 139.0603904]",
    "lat": 36.8464252,
    "lng": 139.0603904,
    "isClosed": ""
  },
  {
    "id": "gunma-museum-20",
    "type": "museum",
    "name": "製粉ミュージアム",
    "prefecture": "群馬県",
    "postCode": "374-0052",
    "address": "群馬県館林市栄町６－１",
    "city": "たてばやし",
    "image": "",
    "url": "http://www.nisshin.com/museum/",
    "latlng": "[36.2458004, 139.5260612]",
    "lat": 36.2458004,
    "lng": 139.5260612,
    "isClosed": ""
  },
  {
    "id": "gunma-museum-21",
    "type": "museum",
    "name": "赤城村歴史資料館",
    "prefecture": "群馬県",
    "postCode": "379-1122",
    "address": "群馬県渋川市赤城町勝保沢110",
    "city": "しぶかわ",
    "image": "",
    "url": "http://www.city.shibukawa.gunma.jp/kankou/rekishi/akagi.html",
    "latlng": "[36.5212901, 139.0436684]",
    "lat": 36.5212901,
    "lng": 139.0436684,
    "isClosed": ""
  },
  {
    "id": "gunma-museum-22",
    "type": "museum",
    "name": "重監房資料館",
    "prefecture": "群馬県",
    "postCode": "377-1711",
    "address": "群馬県吾妻郡草津町草津白根464番1533",
    "city": "くさつ",
    "image": "",
    "url": "https://www.nhdm.jp/sjpm/",
    "latlng": "[36.62, 138.535]",
    "lat": 36.62,
    "lng": 138.535,
    "isClosed": ""
  },
  {
    "id": "gunma-museum-23",
    "type": "museum",
    "name": "須川宿資料館",
    "prefecture": "群馬県",
    "postCode": "379-1418",
    "address": "群馬県みなかみ町須川755－1",
    "city": "みなかみ",
    "image": "",
    "url": "",
    "latlng": "[36.6994894, 138.9062582]",
    "lat": 36.6994894,
    "lng": 138.9062582,
    "isClosed": ""
  },
  {
    "id": "gunma-museum-24",
    "type": "museum",
    "name": "高崎市少年科学館",
    "prefecture": "群馬県",
    "postCode": "370-0065",
    "address": "群馬県高崎市末広町23－1",
    "city": "たかさき",
    "image": "",
    "url": "http://www.t-kagakukan.or.jp/",
    "latlng": "[36.3328304, 139.0064581]",
    "lat": 36.3328304,
    "lng": 139.0064581,
    "isClosed": ""
  },
  {
    "id": "gunma-museum-25",
    "type": "museum",
    "name": "高崎市染料植物園",
    "prefecture": "群馬県",
    "postCode": "370-0865",
    "address": "群馬県高崎市寺尾町2302-11",
    "city": "たかさき",
    "image": "",
    "url": "http://www.city.takasaki.gunma.jp/docs/2017082200011/",
    "latlng": "[36.3055905, 138.9814381]",
    "lat": 36.3055905,
    "lng": 138.9814381,
    "isClosed": ""
  },
  {
    "id": "gunma-museum-26",
    "type": "museum",
    "name": "高崎市榛名歴史民俗資料館",
    "prefecture": "群馬県",
    "postCode": "370-3341",
    "address": "群馬県高崎市榛名山町138-1",
    "city": "たかさき",
    "image": "",
    "url": "http://www.city.takasaki.gunma.jp/soshiki/harureki/",
    "latlng": "[36.4529967, 138.8480961]",
    "lat": 36.4529967,
    "lng": 138.8480961,
    "isClosed": ""
  },
  {
    "id": "gunma-museum-27",
    "type": "museum",
    "name": "高崎市歴史民俗資料館",
    "prefecture": "群馬県",
    "postCode": "370-0027",
    "address": "群馬県高崎市上滝町1058",
    "city": "たかさき",
    "image": "",
    "url": "http://www.city.takasaki.gunma.jp/soshiki/rekimin/index.htm",
    "latlng": "[36.3211317, 139.0695863]",
    "lat": 36.3211317,
    "lng": 139.0695863,
    "isClosed": ""
  },
  {
    "id": "gunma-museum-28",
    "type": "museum",
    "name": "高崎市水道記念館",
    "prefecture": "群馬県",
    "postCode": "370-0885",
    "address": "群馬県高崎市若田町309－2 若田浄水場内",
    "city": "たかさき",
    "image": "",
    "url": "http://www.city.takasaki.gunma.jp/soshiki/s-jousui/kinenkan/kinenkan.htm",
    "latlng": "[36.3471475, 138.9414877]",
    "lat": 36.3471475,
    "lng": 138.9414877,
    "isClosed": ""
  },
  {
    "id": "gunma-museum-29",
    "type": "museum",
    "name": "高崎市観音塚考古資料館",
    "prefecture": "群馬県",
    "postCode": "370-0884",
    "address": "群馬県高崎市八幡町800－144",
    "city": "たかさき",
    "image": "",
    "url": "http://www.city.takasaki.gunma.jp/soshiki/kannonzuka/",
    "latlng": "[36.340213, 138.9401486]",
    "lat": 36.340213,
    "lng": 138.9401486,
    "isClosed": ""
  },
  {
    "id": "gunma-museum-30",
    "type": "museum",
    "name": "鬼石町体験学習館ＭＡＧ（道の駅上州おにし）",
    "prefecture": "群馬県",
    "postCode": "370-1402",
    "address": "群馬県藤岡市譲原1089-2",
    "city": "ふじおか",
    "image": "",
    "url": "",
    "latlng": "[36.1430471, 139.0403645]",
    "lat": 36.1430471,
    "lng": 139.0403645,
    "isClosed": ""
  },
  {
    "id": "gunma-museum-31",
    "type": "museum",
    "name": "群馬県さくらの里・きのこ館",
    "prefecture": "群馬県",
    "postCode": "370-2621",
    "address": "群馬県下仁田町上小坂1258",
    "city": "しもにた",
    "image": "",
    "url": "http://www.grk.or.jp/park/pasaku.htm",
    "latlng": "[36.286408, 138.7452053]",
    "lat": 36.286408,
    "lng": 138.7452053,
    "isClosed": ""
  },
  {
    "id": "gunma-museum-32",
    "type": "museum",
    "name": "群馬県埋蔵文化財調査センター",
    "prefecture": "群馬県",
    "postCode": "377-0061",
    "address": "群馬県渋川市北橘町下箱田784-2",
    "city": "しぶかわ",
    "image": "",
    "url": "http://www.gunmaibun.org/excavation_info/index.html",
    "latlng": "[36.4596118, 139.0475297]",
    "lat": 36.4596118,
    "lng": 139.0475297,
    "isClosed": ""
  },
  {
    "id": "gunma-museum-33",
    "type": "museum",
    "name": "群馬県政会館",
    "prefecture": "群馬県",
    "postCode": "371-0026",
    "address": "群馬県前橋市大手町1－13－14",
    "city": "まえばし",
    "image": "",
    "url": "http://www.jimin-gunma.jp/prefe/facilities/index.html",
    "latlng": "[36.3894137, 139.0591001]",
    "lat": 36.3894137,
    "lng": 139.0591001,
    "isClosed": ""
  },
  {
    "id": "gunma-museum-34",
    "type": "museum",
    "name": "群馬県森林学習センター",
    "prefecture": "群馬県",
    "postCode": "377-0100",
    "address": "群馬県渋川市伊香保町伊香保大野637",
    "city": "しぶかわ",
    "image": "",
    "url": "http://www.pref.gunma.jp/01/e6100001.html",
    "latlng": "[36.4997883, 138.9239664]",
    "lat": 36.4997883,
    "lng": 138.9239664,
    "isClosed": ""
  },
  {
    "id": "gunma-museum-35",
    "type": "museum",
    "name": "群馬県生涯学習センター少年科学館",
    "prefecture": "群馬県",
    "postCode": "371-0801",
    "address": "群馬県前橋市文京町2－19－18",
    "city": "まえばし",
    "image": "",
    "url": "http://www.manabi.pref.gunma.jp/syonen/",
    "latlng": "[36.3771243, 139.0838436]",
    "lat": 36.3771243,
    "lng": 139.0838436,
    "isClosed": ""
  },
  {
    "id": "gunma-museum-36",
    "type": "museum",
    "name": "群馬県立文書館",
    "prefecture": "群馬県",
    "postCode": "371-0801",
    "address": "群馬県前橋市前橋市文京町三丁目27-26",
    "city": "まえばし",
    "image": "",
    "url": "https://www.pref.gunma.jp/site/monjyokan/",
    "latlng": "[36.3766356, 139.0876331]",
    "lat": 36.3766356,
    "lng": 139.0876331,
    "isClosed": ""
  },
  {
    "id": "gunma-museum-37",
    "type": "museum",
    "name": "群馬県立日本絹の里",
    "prefecture": "群馬県",
    "postCode": "370-3511",
    "address": "群馬県高崎市金古町888-1",
    "city": "たかさき",
    "image": "",
    "url": "http://www.nippon-kinunosato.or.jp/",
    "latlng": "[36.4072383, 138.9897085]",
    "lat": 36.4072383,
    "lng": 138.9897085,
    "isClosed": ""
  },
  {
    "id": "gunma-museum-38",
    "type": "museum",
    "name": "群馬県立榛名公園ビジターセンター",
    "prefecture": "群馬県",
    "postCode": "370-3341",
    "address": "群馬県高崎市榛名湖町845",
    "city": "たかさき",
    "image": "",
    "url": "http://www.pref.gunma.jp/01/e2310244.html",
    "latlng": "[36.4716539, 138.8737838]",
    "lat": 36.4716539,
    "lng": 138.8737838,
    "isClosed": ""
  },
  {
    "id": "gunma-museum-39",
    "type": "museum",
    "name": "群馬県総合体育センター スポーツ資料館",
    "prefecture": "群馬県",
    "postCode": "371-0047",
    "address": "群馬県前橋市関根町800",
    "city": "まえばし",
    "image": "",
    "url": "http://www.pref.gunma.jp/07/x5010015.html",
    "latlng": "[36.4375438, 139.0413918]",
    "lat": 36.4375438,
    "lng": 139.0413918,
    "isClosed": ""
  },
  {
    "id": "gunma-museum-40",
    "type": "museum",
    "name": "羽鳥文化振興財団・日本シャンソン館",
    "prefecture": "群馬県",
    "postCode": "377-0012",
    "address": "群馬県渋川市下郷1277－1",
    "city": "しぶかわ",
    "image": "",
    "url": "http://www.chanson-museum.com/",
    "latlng": "[36.4962453, 139.01311]",
    "lat": 36.4962453,
    "lng": 139.01311,
    "isClosed": ""
  },
  {
    "id": "gunma-museum-41",
    "type": "museum",
    "name": "草津ビジターセンター",
    "prefecture": "群馬県",
    "postCode": "377-1711",
    "address": "群馬県草津町521",
    "city": "くさつ",
    "image": "",
    "url": "",
    "latlng": "[36.6207181, 138.5960945]",
    "lat": 36.6207181,
    "lng": 138.5960945,
    "isClosed": ""
  },
  {
    "id": "gunma-museum-42",
    "type": "museum",
    "name": "草津民俗館",
    "prefecture": "群馬県",
    "postCode": "377-1700",
    "address": "群馬県草津町464－122",
    "city": "くさつ",
    "image": "",
    "url": "",
    "latlng": "[36.6207181, 138.5960945]",
    "lat": 36.6207181,
    "lng": 138.5960945,
    "isClosed": ""
  },
  {
    "id": "gunma-museum-43",
    "type": "museum",
    "name": "草津熱帯圏",
    "prefecture": "群馬県",
    "postCode": "377-1711",
    "address": "群馬県草津町草津593",
    "city": "くさつ",
    "image": "",
    "url": "http://www21.cx/nettaiken/",
    "latlng": "[36.6231149, 138.6005894]",
    "lat": 36.6231149,
    "lng": 138.6005894,
    "isClosed": ""
  },
  {
    "id": "gunma-museum-44",
    "type": "museum",
    "name": "﻿玉村町歴史資料館",
    "prefecture": "群馬県",
    "postCode": "370-1105",
    "address": "群馬県玉村町福島325 玉村町文化センター内",
    "city": "たまむら",
    "image": "",
    "url": "https://www.town.tamamura.lg.jp/",
    "latlng": "[36.305641, 139.122234]",
    "lat": 36.305641,
    "lng": 139.122234,
    "isClosed": ""
  },
  {
    "id": "gunma-museum-45",
    "type": "museum",
    "name": "甘楽古代館",
    "prefecture": "群馬県",
    "postCode": "370-2213",
    "address": "群馬県甘楽町白倉1326",
    "city": "かんら",
    "image": "",
    "url": "http://www.town.kanra.gunma.jp/cgi-bin/odb-get.exe?WIT_template=AC020000&Cc=7d45120e2a340cb",
    "latlng": "[36.2421625, 138.9371252]",
    "lat": 36.2421625,
    "lng": 138.9371252,
    "isClosed": ""
  },
  {
    "id": "gunma-museum-46",
    "type": "museum",
    "name": "甘楽町歴史民俗資料館",
    "prefecture": "群馬県",
    "postCode": "370-2202",
    "address": "群馬県甘楽町大字小幡852－1",
    "city": "かんら",
    "image": "",
    "url": "http://www.town.kanra.gunma.jp/cgi-bin/odb-get.exe?WIT_template=AC020000&WIT_oid=icityv2::Contents::1185",
    "latlng": "[36.2317546, 138.9184971]",
    "lat": 36.2317546,
    "lng": 138.9184971,
    "isClosed": ""
  },
  {
    "id": "gunma-museum-47",
    "type": "museum",
    "name": "生方記念文庫",
    "prefecture": "群馬県",
    "postCode": "378-0047",
    "address": "群馬県沼田市西倉内町821-1",
    "city": "ぬまた",
    "image": "",
    "url": "http://www.city.numata.gunma.jp/introduction/bunko.html",
    "latlng": "[36.644617, 139.042805]",
    "lat": 36.644617,
    "lng": 139.042805,
    "isClosed": ""
  },
  {
    "id": "gunma-museum-48",
    "type": "museum",
    "name": "生方記念資料館",
    "prefecture": "群馬県",
    "postCode": "378-0042",
    "address": "群馬県沼田市西倉内町594 沼田公園内",
    "city": "ぬまた",
    "image": "",
    "url": "http://www.city.numata.gunma.jp/introduction/ubuj.html",
    "latlng": "[36.6484361, 139.0401068]",
    "lat": 36.6484361,
    "lng": 139.0401068,
    "isClosed": ""
  },
  {
    "id": "gunma-museum-49",
    "type": "museum",
    "name": "生方記念資料館・旧生方家住宅",
    "prefecture": "群馬県",
    "postCode": "378-0042",
    "address": "群馬県沼田市西倉内町594 沼田公園内",
    "city": "ぬまた",
    "image": "",
    "url": "http://www.city.numata.gunma.jp/introduction/ubuj.html",
    "latlng": "[36.6484361, 139.0401068]",
    "lat": 36.6484361,
    "lng": 139.0401068,
    "isClosed": ""
  },
  {
    "id": "gunma-museum-50",
    "type": "museum",
    "name": "田山花袋記念文学館",
    "prefecture": "群馬県",
    "postCode": "374-0018",
    "address": "群馬県館林市城町1-3",
    "city": "たてばやし",
    "image": "",
    "url": "http://www.city.tatebayashi.gunma.jp/bunka/06_kine/06_kine.html",
    "latlng": "[36.2438808, 139.5456573]",
    "lat": 36.2438808,
    "lng": 139.5456573,
    "isClosed": ""
  },
  {
    "id": "gunma-museum-51",
    "type": "museum",
    "name": "相沢忠洋記念館",
    "prefecture": "群馬県",
    "postCode": "376-0131",
    "address": "群馬県桐生市新里町奥沢537",
    "city": "きりゅう",
    "image": "",
    "url": "http://www.interq.or.jp/gold/waki/aizawa/",
    "latlng": "[36.4478321, 139.2520868]",
    "lat": 36.4478321,
    "lng": 139.2520868,
    "isClosed": ""
  },
  {
    "id": "gunma-museum-52",
    "type": "museum",
    "name": "県立ぐんま天文台",
    "prefecture": "群馬県",
    "postCode": "377-0702",
    "address": "群馬県高山村中山6860－86",
    "city": "たかやま",
    "image": "",
    "url": "http://www.astron.pref.gunma.jp/",
    "latlng": "[36.5971416, 138.9734287]",
    "lat": 36.5971416,
    "lng": 138.9734287,
    "isClosed": ""
  },
  {
    "id": "gunma-museum-53",
    "type": "museum",
    "name": "碓氷峠鉄道文化むら（碓氷峠ポッポタウン）",
    "prefecture": "群馬県",
    "postCode": "379-0301",
    "address": "群馬県松井田町横川407－16",
    "city": "まついだ",
    "image": "",
    "url": "http://www15.big.or.jp/~club667/info2/info.html",
    "latlng": "[36.3364292, 138.7336355]",
    "lat": 36.3364292,
    "lng": 138.7336355,
    "isClosed": ""
  },
  {
    "id": "gunma-museum-54",
    "type": "museum",
    "name": "碓氷関所資料館",
    "prefecture": "群馬県",
    "postCode": "379-0301",
    "address": "群馬県松井田町横川573",
    "city": "まついだ",
    "image": "",
    "url": "http://www.city.annaka.gunma.jp/kanko_spot/usui_sekisho.html",
    "latlng": "[36.3382448, 138.7322857]",
    "lat": 36.3382448,
    "lng": 138.7322857,
    "isClosed": ""
  },
  {
    "id": "gunma-museum-55",
    "type": "museum",
    "name": "笹沢佐保記念館（かかわりーな）",
    "prefecture": "群馬県",
    "postCode": "379-2301",
    "address": "群馬県薮塚本町薮塚3320 三日月村内",
    "city": "やぶつか",
    "image": "",
    "url": "http://www.mikazukimura.com/",
    "latlng": "[36.362804, 139.3229974]",
    "lat": 36.362804,
    "lng": 139.3229974,
    "isClosed": ""
  },
  {
    "id": "gunma-museum-56",
    "type": "museum",
    "name": "粕川歴史民俗資料館",
    "prefecture": "群馬県",
    "postCode": "371-0204",
    "address": "群馬県前橋市粕川町膳48",
    "city": "まえばし",
    "image": "",
    "url": "http://maebashi.kazetabi.net/03-03.htm",
    "latlng": "[36.4220517, 139.2221075]",
    "lat": 36.4220517,
    "lng": 139.2221075,
    "isClosed": ""
  },
  {
    "id": "gunma-museum-57",
    "type": "museum",
    "name": "織物参考館“紫”ゆかり",
    "prefecture": "群馬県",
    "postCode": "376-0034",
    "address": "群馬県桐生市東4－2－24",
    "city": "きりゅう",
    "image": "",
    "url": "http://www.morihide.co.jp/yukariNEW/indexYK.html",
    "latlng": "[36.4082801, 139.3475488]",
    "lat": 36.4082801,
    "lng": 139.3475488,
    "isClosed": ""
  },
  {
    "id": "gunma-museum-58",
    "type": "museum",
    "name": "美野原高原リフレッシュパーク・薬王園",
    "prefecture": "群馬県",
    "postCode": "377-0433",
    "address": "群馬県中之条町折田2411",
    "city": "なかのじょう",
    "image": "",
    "url": "http://www.yakuouen.com/about.html",
    "latlng": "[36.6014767, 138.8091246]",
    "lat": 36.6014767,
    "lng": 138.8091246,
    "isClosed": ""
  },
  {
    "id": "gunma-museum-59",
    "type": "museum",
    "name": "群馬サイクルセンター・アポロミュージアム",
    "prefecture": "群馬県",
    "postCode": "379-1411",
    "address": "群馬県みなかみ町新巻大峰山",
    "city": "みなかみ",
    "image": "",
    "url": "http://www.gummacsc.com/cschp/proglam/index.html",
    "latlng": "[36.7052573, 138.9353974]",
    "lat": 36.7052573,
    "lng": 138.9353974,
    "isClosed": ""
  },
  {
    "id": "gunma-museum-60",
    "type": "museum",
    "name": "﻿村上鬼城記念館",
    "prefecture": "群馬県",
    "postCode": "370-0802",
    "address": "群馬県高崎市並榎町288",
    "city": "たかさき",
    "image": "",
    "url": "http://www.kijyou.jp/",
    "latlng": "[36.3349645, 138.9932864]",
    "lat": 36.3349645,
    "lng": 138.9932864,
    "isClosed": ""
  },
  {
    "id": "gunma-museum-61",
    "type": "museum",
    "name": "東村童謡ふるさと館",
    "prefecture": "群馬県",
    "postCode": "376-0303",
    "address": "群馬県東村座間367-1",
    "city": "ひがし",
    "image": "",
    "url": "http://www.city.midori.gunma.jp/map_sisetu/museum03.htm",
    "latlng": "[36.5605388, 138.8799972]",
    "lat": 36.5605388,
    "lng": 138.8799972,
    "isClosed": ""
  },
  {
    "id": "gunma-museum-62",
    "type": "museum",
    "name": "松嶋コレクション 陶器と良寛書の館",
    "prefecture": "群馬県",
    "postCode": "376-0301",
    "address": "群馬県東村沢入968-8",
    "city": "ひがし",
    "image": "",
    "url": "http://www.city.midori.gunma.jp/kankoguide/miru/ryoukan.html",
    "latlng": "[36.58043809999999, 139.396311]",
    "lat": 36.58043809999999,
    "lng": 139.396311,
    "isClosed": ""
  },
  {
    "id": "gunma-museum-63",
    "type": "museum",
    "name": "林野庁森林技術展示棟（親機館）",
    "prefecture": "群馬県",
    "postCode": "378-0312",
    "address": "群馬県沼田市利根町根利1445",
    "city": "ぬまた",
    "image": "",
    "url": "",
    "latlng": "[36.6038124, 139.2403725]",
    "lat": 36.6038124,
    "lng": 139.2403725,
    "isClosed": ""
  },
  {
    "id": "gunma-museum-64",
    "type": "museum",
    "name": "桐生市立中央公民館",
    "prefecture": "群馬県",
    "postCode": "376-0022",
    "address": "群馬県桐生市稲荷町1-4",
    "city": "きりゅう",
    "image": "",
    "url": "http://www.city.kiryu.gunma.jp/web/home.nsf/5eab0faad6473e1e49256a0600230630/05cebdea45307fc749256dea000c290b1.OpenDocument",
    "latlng": "[36.4086174, 139.3317964]",
    "lat": 36.4086174,
    "lng": 139.3317964,
    "isClosed": ""
  },
  {
    "id": "gunma-museum-65",
    "type": "museum",
    "name": "桐生市黒保根歴史民俗資料館",
    "prefecture": "群馬県",
    "postCode": "376-0141",
    "address": "群馬県桐生市黒保根町水沼乙175",
    "city": "きりゅう",
    "image": "",
    "url": "http://www.city.kiryu.gunma.jp/web/home.nsf/42fed222e9b38157492568fd002b273a/12c943f6b96ce44f4925700e000c7149?OpenDocument",
    "latlng": "[36.5017676, 139.2827264]",
    "lat": 36.5017676,
    "lng": 139.2827264,
    "isClosed": ""
  },
  {
    "id": "gunma-museum-66",
    "type": "museum",
    "name": "桐生自然観察の森",
    "prefecture": "群馬県",
    "postCode": "376-0041",
    "address": "群馬県桐生市川内町2－902－1",
    "city": "きりゅう",
    "image": "",
    "url": "http://www.city.kiryu.gunma.jp/web/home.nsf/0/660401d01d287d1a49256e5a000e51381.OpenDocument",
    "latlng": "[36.4315655, 139.3044535]",
    "lat": 36.4315655,
    "lng": 139.3044535,
    "isClosed": ""
  },
  {
    "id": "gunma-museum-67",
    "type": "museum",
    "name": "榛東村 耳飾り館",
    "prefecture": "群馬県",
    "postCode": "370-3502",
    "address": "群馬県榛東村山子田1912",
    "city": "しんとう",
    "image": "",
    "url": "http://www.vill.shinto.gunma.jp/sisetu/sisetu03.htm",
    "latlng": "[36.5605388, 138.8799972]",
    "lat": 36.5605388,
    "lng": 138.8799972,
    "isClosed": ""
  },
  {
    "id": "gunma-museum-68",
    "type": "museum",
    "name": "正田記念館",
    "prefecture": "群馬県",
    "postCode": "374-0052",
    "address": "群馬県館林市栄町3－1",
    "city": "たてばやし",
    "image": "",
    "url": "http://www.shoda.co.jp/knowledg/kinenkian.htm",
    "latlng": "[36.2478719, 139.5268616]",
    "lat": 36.2478719,
    "lng": 139.5268616,
    "isClosed": ""
  },
  {
    "id": "gunma-museum-69",
    "type": "museum",
    "name": "歴史の里 三日月村",
    "prefecture": "群馬県",
    "postCode": "379-2301",
    "address": "群馬県太田市薮塚町3320",
    "city": "おおた",
    "image": "",
    "url": "http://www.mikazukimura.com/index.php",
    "latlng": "[36.362804, 139.3229974]",
    "lat": 36.362804,
    "lng": 139.3229974,
    "isClosed": ""
  },
  {
    "id": "gunma-museum-70",
    "type": "museum",
    "name": "水上町歴史民俗資料館",
    "prefecture": "群馬県",
    "postCode": "379-1617",
    "address": "群馬県みなかみ町湯原441",
    "city": "みなかみ",
    "image": "",
    "url": "http://minakami.kazetabi.net/01-04.htm",
    "latlng": "[36.7711459, 138.9684941]",
    "lat": 36.7711459,
    "lng": 138.9684941,
    "isClosed": ""
  },
  {
    "id": "gunma-museum-71",
    "type": "museum",
    "name": "水上町水紀行館 水産学習館",
    "prefecture": "群馬県",
    "postCode": "379-1617",
    "address": "群馬県みなかみ町湯原1681－1",
    "city": "みなかみ",
    "image": "",
    "url": "http://www9.wind.ne.jp/mizukikou/frame.htm",
    "latlng": "[36.7647976, 138.9676563]",
    "lat": 36.7647976,
    "lng": 138.9676563,
    "isClosed": ""
  },
  {
    "id": "gunma-museum-72",
    "type": "museum",
    "name": "浅間火山博物館",
    "prefecture": "群馬県",
    "postCode": "377-1405",
    "address": "群馬県吾妻郡長野原町北軽井沢",
    "city": "ながのはら",
    "image": "",
    "url": "http://www.asamaen.tsumagoi.gunma.jp/index.html",
    "latlng": "[36.4558008, 138.6088222]",
    "lat": 36.4558008,
    "lng": 138.6088222,
    "isClosed": ""
  },
  {
    "id": "gunma-museum-73",
    "type": "museum",
    "name": "渋川市北橘歴史資料館",
    "prefecture": "群馬県",
    "postCode": "377-0062",
    "address": "群馬県渋川市北橘町真壁246-1",
    "city": "しぶかわ",
    "image": "",
    "url": "http://www.city.shibukawa.gunma.jp/kankou/rekishi/kitatachibana.html",
    "latlng": "[36.4800519, 139.0332866]",
    "lat": 36.4800519,
    "lng": 139.0332866,
    "isClosed": ""
  },
  {
    "id": "gunma-museum-74",
    "type": "museum",
    "name": "渋川市有馬郷土館",
    "prefecture": "群馬県",
    "postCode": "377-0005",
    "address": "群馬県渋川市有馬552",
    "city": "しぶかわ",
    "image": "",
    "url": "",
    "latlng": "[36.4675832, 139.0054321]",
    "lat": 36.4675832,
    "lng": 139.0054321,
    "isClosed": ""
  },
  {
    "id": "gunma-museum-75",
    "type": "museum",
    "name": "満徳寺資料館",
    "prefecture": "群馬県",
    "postCode": "370-0425",
    "address": "群馬県太田市徳川町385-1",
    "city": "おおた",
    "image": "",
    "url": "http://www8.wind.ne.jp/mantokuji/shiryoukan/shiryou.html",
    "latlng": "[36.2534113, 139.2861234]",
    "lat": 36.2534113,
    "lng": 139.2861234,
    "isClosed": ""
  },
  {
    "id": "gunma-museum-76",
    "type": "museum",
    "name": "猿ヶ京関所資料館",
    "prefecture": "群馬県",
    "postCode": "379-1403",
    "address": "群馬県みなかみ町猿ヶ京1144",
    "city": "みなかみ",
    "image": "",
    "url": "http://www.sarugakyo.net/sekisyo/index.htm",
    "latlng": "[36.7265627, 138.8884212]",
    "lat": 36.7265627,
    "lng": 138.8884212,
    "isClosed": ""
  },
  {
    "id": "gunma-museum-77",
    "type": "museum",
    "name": "﻿安中市学習の森 ふるさと学習館",
    "prefecture": "群馬県",
    "postCode": "379-0123",
    "address": "群馬県安中市上間仁田９５１",
    "city": "あんなか",
    "image": "",
    "url": "http://www.city.annaka.lg.jp/gakushuunomori/",
    "latlng": "[36.2917506, 138.8943358]",
    "lat": 36.2917506,
    "lng": 138.8943358,
    "isClosed": ""
  },
  {
    "id": "gunma-museum-78",
    "type": "museum",
    "name": "安中市資料館",
    "prefecture": "群馬県",
    "postCode": "379-0102",
    "address": "群馬県安中市東上秋間1533",
    "city": "あんなか",
    "image": "",
    "url": "http://www.city.annaka.gunma.jp/gakushuunomori/bunkazai/shisetsu.html",
    "latlng": "[36.35334650000001, 138.8606318]",
    "lat": 36.35334650000001,
    "lng": 138.8606318,
    "isClosed": ""
  },
  {
    "id": "gunma-museum-79",
    "type": "museum",
    "name": "小根山森林公園野鳥の森 鳥獣資料館",
    "prefecture": "群馬県",
    "postCode": "379-0301",
    "address": "群馬県松井田町横川",
    "city": "まついだ",
    "image": "",
    "url": "",
    "latlng": "[36.3405457, 138.7367134]",
    "lat": 36.3405457,
    "lng": 138.7367134,
    "isClosed": ""
  },
  {
    "id": "gunma-museum-80",
    "type": "museum",
    "name": "少林山達磨寺",
    "prefecture": "群馬県",
    "postCode": "370-0868",
    "address": "群馬県高崎市鼻高町296",
    "city": "たかさき",
    "image": "",
    "url": "http://www.daruma.or.jp/",
    "latlng": "[36.3302777, 138.9573285]",
    "lat": 36.3302777,
    "lng": 138.9573285,
    "isClosed": ""
  },
  {
    "id": "gunma-museum-81",
    "type": "museum",
    "name": "尾瀬山の鼻ビジターセンター",
    "prefecture": "群馬県",
    "postCode": "378-0411",
    "address": "群馬県片品村戸倉中ノ原898－9 日光国立公園内",
    "city": "かたしな",
    "image": "",
    "url": "http://www.oze-fnd.or.jp/main/access/visitorcenter/visitorcenter1.html",
    "latlng": "[36.8822483, 139.2638678]",
    "lat": 36.8822483,
    "lng": 139.2638678,
    "isClosed": ""
  },
  {
    "id": "gunma-museum-82",
    "type": "museum",
    "name": "山徳記念館",
    "prefecture": "群馬県",
    "postCode": "370-0864",
    "address": "群馬県高崎市石原町2857",
    "city": "たかさき",
    "image": "",
    "url": "http://www5.wind.ne.jp/yamatokuen/",
    "latlng": "[36.3055234, 138.9884838]",
    "lat": 36.3055234,
    "lng": 138.9884838,
    "isClosed": ""
  },
  {
    "id": "gunma-museum-83",
    "type": "museum",
    "name": "川場村歴史民俗資料館",
    "prefecture": "群馬県",
    "postCode": "378-0114",
    "address": "群馬県川場村天神1122",
    "city": "かわば",
    "image": "",
    "url": "http://www.vill.kawaba.gunma.jp/kanko/culture.html#shiryou",
    "latlng": "[36.6924064, 139.1055063]",
    "lat": 36.6924064,
    "lng": 139.1055063,
    "isClosed": ""
  },
  {
    "id": "gunma-museum-84",
    "type": "museum",
    "name": "徳富蘆花記念文学館",
    "prefecture": "群馬県",
    "postCode": "377-0102",
    "address": "群馬県渋川市伊香保町伊香保614-8",
    "city": "しぶかわ",
    "image": "",
    "url": "http://www.city.shibukawa.gunma.jp/kankou/bijutsu/tokutomiroka/index.html",
    "latlng": "[36.4992479, 138.9158162]",
    "lat": 36.4992479,
    "lng": 138.9158162,
    "isClosed": ""
  },
  {
    "id": "gunma-museum-85",
    "type": "museum",
    "name": "恐竜王国中里",
    "prefecture": "群馬県",
    "postCode": "370-1602",
    "address": "群馬県神流町神ケ原51-2",
    "city": "かんな",
    "image": "",
    "url": "http://www.dino-nakasato.org/",
    "latlng": "[36.0921612, 138.8210762]",
    "lat": 36.0921612,
    "lng": 138.8210762,
    "isClosed": ""
  },
  {
    "id": "gunma-museum-86",
    "type": "museum",
    "name": "敷島公園ばら園",
    "prefecture": "群馬県",
    "postCode": "371-0036",
    "address": "群馬県前橋市敷島町262",
    "city": "まえばし",
    "image": "",
    "url": "http://www.city.maebashi.gunma.jp/ctg/09000001/09000001.html",
    "latlng": "[36.420427, 139.0482735]",
    "lat": 36.420427,
    "lng": 139.0482735,
    "isClosed": ""
  },
  {
    "id": "gunma-museum-87",
    "type": "museum",
    "name": "新里町郷土資料館",
    "prefecture": "群馬県",
    "postCode": "376-0123",
    "address": "群馬県桐生市新里町武井693−1",
    "city": "きりゅう",
    "image": "",
    "url": "http://www.city.kiryu.lg.jp/kankou/bunkazai/1002119.html",
    "latlng": "[36.4203712, 139.2399799]",
    "lat": 36.4203712,
    "lng": 139.2399799,
    "isClosed": ""
  },
  {
    "id": "gunma-museum-88",
    "type": "museum",
    "name": "旧ハワイ王国公使別邸",
    "prefecture": "群馬県",
    "postCode": "377-0102",
    "address": "群馬県渋川市伊香保町伊香保29-5",
    "city": "しぶかわ",
    "image": "",
    "url": "http://www.city.shibukawa.gunma.jp/kankou/rekishi/koushibettei.html",
    "latlng": "[36.4997883, 138.9239664]",
    "lat": 36.4997883,
    "lng": 138.9239664,
    "isClosed": ""
  },
  {
    "id": "gunma-museum-89",
    "type": "museum",
    "name": "旧廣盛酒造",
    "prefecture": "群馬県",
    "postCode": "377-0424",
    "address": "群馬県吾妻郡中之条町大字中之条町９０９",
    "city": "なかのじょう",
    "image": "",
    "url": "",
    "latlng": "[36.5883146, 138.8405852]",
    "lat": 36.5883146,
    "lng": 138.8405852,
    "isClosed": ""
  },
  {
    "id": "gunma-museum-90",
    "type": "museum",
    "name": "明和町ふるさと産業文化館",
    "prefecture": "群馬県",
    "postCode": "370-0701",
    "address": "群馬県明和町南大島1073－1",
    "city": "めいわ",
    "image": "",
    "url": "http://www.town.meiwa.gunma.jp/shisetsu/culture_hall.html",
    "latlng": "[36.2112523, 139.5360674]",
    "lat": 36.2112523,
    "lng": 139.5360674,
    "isClosed": ""
  },
  {
    "id": "gunma-museum-91",
    "type": "museum",
    "name": "月夜野町立郷土歴史資料館",
    "prefecture": "群馬県",
    "postCode": "379-1313",
    "address": "群馬県みなかみ町月夜野1814－1",
    "city": "みなかみ",
    "image": "",
    "url": "http://minakami.kazetabi.net/01-11.htm",
    "latlng": "[36.694976, 138.9812982]",
    "lat": 36.694976,
    "lng": 138.9812982,
    "isClosed": ""
  },
  {
    "id": "gunma-museum-92",
    "type": "museum",
    "name": "﻿吉井町郷土資料館",
    "prefecture": "群馬県",
    "postCode": "370-2132",
    "address": "群馬県高崎市吉井町吉井285",
    "city": "たかさき",
    "image": "",
    "url": "http://www.city.takasaki.gunma.jp/soshiki/ky-bunkazai/kyoudo/index.htm",
    "latlng": "[36.2534709, 138.9849288]",
    "lat": 36.2534709,
    "lng": 138.9849288,
    "isClosed": ""
  },
  {
    "id": "gunma-museum-93",
    "type": "museum",
    "name": "向井千秋記念子ども科学館",
    "prefecture": "群馬県",
    "postCode": "374-0018",
    "address": "群馬県館林市城町2－2",
    "city": "たてばやし",
    "image": "",
    "url": "http://www.city.tatebayashi.gunma.jp/kagakukan/",
    "latlng": "[36.2440323, 139.5448833]",
    "lat": 36.2440323,
    "lng": 139.5448833,
    "isClosed": ""
  },
  {
    "id": "gunma-museum-94",
    "type": "museum",
    "name": "吾妻公園植物園",
    "prefecture": "群馬県",
    "postCode": "376-0056",
    "address": "群馬県桐生市宮本町3－10－1",
    "city": "きりゅう",
    "image": "",
    "url": "http://kiryu-kanrikyoukai.jp/azuma.html",
    "latlng": "[36.4207967, 139.3347852]",
    "lat": 36.4207967,
    "lng": 139.3347852,
    "isClosed": ""
  },
  {
    "id": "gunma-museum-95",
    "type": "museum",
    "name": "四万せせらぎ資料館",
    "prefecture": "群馬県",
    "postCode": "377-0601",
    "address": "群馬県中之条町四万4400－27",
    "city": "なかのじょう",
    "image": "",
    "url": "http://www.town.nakanojo.gunma.jp/4-keizai/onsen/koshiki.shtml",
    "latlng": "[36.6983187, 138.7811991]",
    "lat": 36.6983187,
    "lng": 138.7811991,
    "isClosed": ""
  },
  {
    "id": "gunma-museum-96",
    "type": "museum",
    "name": "国定忠治遺品館",
    "prefecture": "群馬県",
    "postCode": "376-0300",
    "address": "群馬県伊勢崎市国定町 養寿寺1235",
    "city": "いせさき",
    "image": "",
    "url": "",
    "latlng": "[36.3623499, 139.2520308]",
    "lat": 36.3623499,
    "lng": 139.2520308,
    "isClosed": ""
  },
  {
    "id": "gunma-museum-97",
    "type": "museum",
    "name": "多胡碑記念館",
    "prefecture": "群馬県",
    "postCode": "370-2107",
    "address": "群馬県高崎市吉井町池1085",
    "city": "たかさき",
    "image": "",
    "url": "http://www.city.takasaki.gunma.jp/soshiki/ky-bunkazai/tagohi/index.htm",
    "latlng": "[36.2652867, 138.9969598]",
    "lat": 36.2652867,
    "lng": 138.9969598,
    "isClosed": ""
  },
  {
    "id": "gunma-museum-98",
    "type": "museum",
    "name": "大泉町文化むら生涯学習センター 展示室",
    "prefecture": "群馬県",
    "postCode": "370-0514",
    "address": "群馬県大泉町朝日5－24－1",
    "city": "おおいずみ",
    "image": "",
    "url": "http://www.bunkamura.or.jp/bunka/bunka_top.htm",
    "latlng": "[36.2490231, 139.4180492]",
    "lat": 36.2490231,
    "lng": 139.4180492,
    "isClosed": ""
  },
  {
    "id": "gunma-museum-99",
    "type": "museum",
    "name": "太田市立新田荘歴史資料館",
    "prefecture": "群馬県",
    "postCode": "370-0426",
    "address": "群馬県太田市世良田町3113-9",
    "city": "おおた",
    "image": "",
    "url": "http://www12.wind.ne.jp/tomohm/",
    "latlng": "[36.2610281, 139.274839]",
    "lat": 36.2610281,
    "lng": 139.274839,
    "isClosed": ""
  },
  {
    "id": "gunma-museum-100",
    "type": "museum",
    "name": "太田市藪塚本町歴史民俗資料館",
    "prefecture": "群馬県",
    "postCode": "379-2301",
    "address": "群馬県太田市藪塚町149",
    "city": "おおた",
    "image": "",
    "url": "http://www.city.ota.gunma.jp/020sisetu/04siryo/yabu-rekishi.html",
    "latlng": "[36.3633296, 139.3213526]",
    "lat": 36.3633296,
    "lng": 139.3213526,
    "isClosed": ""
  },
  {
    "id": "gunma-museum-101",
    "type": "museum",
    "name": "太田市高山彦九郎記念館",
    "prefecture": "群馬県",
    "postCode": "373-0842",
    "address": "群馬県太田市細谷町1324-7",
    "city": "おおた",
    "image": "",
    "url": "http://www5.wind.ne.jp/hikokuro/",
    "latlng": "[36.2765421, 139.346954]",
    "lat": 36.2765421,
    "lng": 139.346954,
    "isClosed": ""
  },
  {
    "id": "gunma-museum-102",
    "type": "museum",
    "name": "奥利根民俗集古館",
    "prefecture": "群馬県",
    "postCode": "379-1721",
    "address": "群馬県みなかみ町藤原",
    "city": "みなかみ",
    "image": "",
    "url": "http://minakami.kazetabi.net/01-06.htm",
    "latlng": "[36.8966897, 139.0817124]",
    "lat": 36.8966897,
    "lng": 139.0817124,
    "isClosed": ""
  },
  {
    "id": "gunma-museum-103",
    "type": "museum",
    "name": "妙義神社 宝物殿",
    "prefecture": "群馬県",
    "postCode": "379-0201",
    "address": "群馬県富岡市妙義町妙義6",
    "city": "とみおか",
    "image": "",
    "url": "http://www.city.tomioka.lg.jp/tourism/001/003/",
    "latlng": "[36.300536, 138.7623744]",
    "lat": 36.300536,
    "lng": 138.7623744,
    "isClosed": ""
  },
  {
    "id": "gunma-museum-104",
    "type": "museum",
    "name": "嬬恋郷土資料館",
    "prefecture": "群馬県",
    "postCode": "377-1524",
    "address": "群馬県嬬恋村鎌原494",
    "city": "つまごい",
    "image": "",
    "url": "http://www.vill.tsumagoi.gunma.jp/index.php?id=11",
    "latlng": "[36.5167752, 138.5482315]",
    "lat": 36.5167752,
    "lng": 138.5482315,
    "isClosed": ""
  },
  {
    "id": "gunma-museum-105",
    "type": "museum",
    "name": "﻿伊勢崎市児童センター",
    "prefecture": "群馬県",
    "postCode": "372-0023",
    "address": "群馬県伊勢崎市粕川町1609",
    "city": "いせさき",
    "image": "",
    "url": "http://www.city.isesaki.lg.jp/pcp_portal/PortalServlet?DISPLAY_ID=DIRECT&NEXT_DISPLAY_ID=U000004&CONTENTS_ID=6326",
    "latlng": "[36.3136347, 139.212143]",
    "lat": 36.3136347,
    "lng": 139.212143,
    "isClosed": ""
  },
  {
    "id": "gunma-museum-106",
    "type": "museum",
    "name": "伊勢崎市赤堀歴史民俗資料館",
    "prefecture": "群馬県",
    "postCode": "379-2204",
    "address": "群馬県伊勢崎市西久保町2-98",
    "city": "いせさき",
    "image": "",
    "url": "http://www.city.isesaki.lg.jp/sisetsu/minzoku/",
    "latlng": "[36.3813565, 139.2321317]",
    "lat": 36.3813565,
    "lng": 139.2321317,
    "isClosed": ""
  },
  {
    "id": "gunma-museum-107",
    "type": "museum",
    "name": "伊参スタジオ公園",
    "prefecture": "群馬県",
    "postCode": "377-0432",
    "address": "群馬県中之条町五反田3527－5",
    "city": "なかのじょう",
    "image": "",
    "url": "http://www.town.nakanojo.gunma.jp/2-genki/isama/studio.shtml",
    "latlng": "[36.624371, 138.8336932]",
    "lat": 36.624371,
    "lng": 138.8336932,
    "isClosed": ""
  },
  {
    "id": "gunma-museum-108",
    "type": "museum",
    "name": "伊香保 おもちゃと人形 自動車博物館",
    "prefecture": "群馬県",
    "postCode": "370-3606",
    "address": "群馬県吉岡町上野田2145",
    "city": "よしおか",
    "image": "",
    "url": "http://www.ikaho-omocha.jp/",
    "latlng": "[36.4636521, 138.9693163]",
    "lat": 36.4636521,
    "lng": 138.9693163,
    "isClosed": ""
  },
  {
    "id": "gunma-museum-109",
    "type": "museum",
    "name": "伊香保システィーナ サンエイ＆猿劇場",
    "prefecture": "群馬県",
    "postCode": "377-0008",
    "address": "群馬県渋川市折原3709-8",
    "city": "しぶかわ",
    "image": "",
    "url": "",
    "latlng": "[36.489471, 139.000443]",
    "lat": 36.489471,
    "lng": 139.000443,
    "isClosed": ""
  },
  {
    "id": "gunma-museum-110",
    "type": "museum",
    "name": "伊香保スケート資料室",
    "prefecture": "群馬県",
    "postCode": "377-0102",
    "address": "群馬県渋川市伊香保町伊香保541-4 渋川市伊香保温泉ビジターセンター内",
    "city": "しぶかわ",
    "image": "",
    "url": "",
    "latlng": "[36.4983043, 138.9303368]",
    "lat": 36.4983043,
    "lng": 138.9303368,
    "isClosed": ""
  },
  {
    "id": "gunma-museum-111",
    "type": "museum",
    "name": "伊香保御関所",
    "prefecture": "群馬県",
    "postCode": "377-0102",
    "address": "群馬県渋川市伊香保町伊香保甲34",
    "city": "しぶかわ",
    "image": "",
    "url": "http://www.city.shibukawa.gunma.jp/kankou/rekishi/ikahogosekisho.html",
    "latlng": "[36.4985336, 138.9165818]",
    "lat": 36.4985336,
    "lng": 138.9165818,
    "isClosed": ""
  },
  {
    "id": "gunma-museum-112",
    "type": "museum",
    "name": "全国郷土玩具館",
    "prefecture": "群馬県",
    "postCode": "370-1617",
    "address": "群馬県上野村楢原利根平309－1",
    "city": "うえの",
    "image": "",
    "url": "http://web.kyoto-inet.or.jp/people/hds30/ueno-1.html",
    "latlng": "[36.0695091, 138.6990679]",
    "lat": 36.0695091,
    "lng": 138.6990679,
    "isClosed": ""
  },
  {
    "id": "gunma-museum-113",
    "type": "museum",
    "name": "切り絵百景館",
    "prefecture": "群馬県",
    "postCode": "378-0101",
    "address": "群馬県川場村谷地富士山1496",
    "city": "かわば",
    "image": "",
    "url": "http://kirie-sekai.art.coocan.jp/index.html",
    "latlng": "[36.7169774, 139.1017054]",
    "lat": 36.7169774,
    "lng": 139.1017054,
    "isClosed": ""
  },
  {
    "id": "gunma-museum-114",
    "type": "museum",
    "name": "利根沼田文化会館",
    "prefecture": "群馬県",
    "postCode": "378-0051",
    "address": "群馬県沼田市上原町1801－2",
    "city": "ぬまた",
    "image": "",
    "url": "http://www.oze.or.jp/~kaikan/index.htm",
    "latlng": "[36.6494892, 139.0640893]",
    "lat": 36.6494892,
    "lng": 139.0640893,
    "isClosed": ""
  },
  {
    "id": "gunma-museum-115",
    "type": "museum",
    "name": "前橋市児童文化センター",
    "prefecture": "群馬県",
    "postCode": "371-0013",
    "address": "群馬県前橋市西片貝町5－7",
    "city": "まえばし",
    "image": "",
    "url": "http://www.jbc.menet.ed.jp/",
    "latlng": "[36.3909562, 139.0854792]",
    "lat": 36.3909562,
    "lng": 139.0854792,
    "isClosed": ""
  },
  {
    "id": "gunma-museum-116",
    "type": "museum",
    "name": "前橋市水道資料館",
    "prefecture": "群馬県",
    "postCode": "371-0036",
    "address": "群馬県前橋市敷島町216 敷島浄水場内",
    "city": "まえばし",
    "image": "",
    "url": "http://www.city.maebashi.gunma.jp/kbn/18400001/18400001.html",
    "latlng": "[36.41508470000001, 139.0545852]",
    "lat": 36.41508470000001,
    "lng": 139.0545852,
    "isClosed": ""
  },
  {
    "id": "gunma-museum-117",
    "type": "museum",
    "name": "前橋市総合教育プラザ教育資料展示室",
    "prefecture": "群馬県",
    "postCode": "371-0035",
    "address": "群馬県前橋市岩神町3-1-1",
    "city": "まえばし",
    "image": "",
    "url": "",
    "latlng": "[36.4027349, 139.0591861]",
    "lat": 36.4027349,
    "lng": 139.0591861,
    "isClosed": ""
  },
  {
    "id": "gunma-museum-118",
    "type": "museum",
    "name": "前橋市総社歴史資料館",
    "prefecture": "群馬県",
    "postCode": "371-0852",
    "address": "群馬県前橋市群馬県前橋市総社町総社1584番地1",
    "city": "まえばし",
    "image": "",
    "url": "http://maebashi-bunkazai.jp/soja/",
    "latlng": "[36.4067312, 139.0392102]",
    "lat": 36.4067312,
    "lng": 139.0392102,
    "isClosed": ""
  },
  {
    "id": "gunma-museum-119",
    "type": "museum",
    "name": "前橋市蚕糸記念館",
    "prefecture": "群馬県",
    "postCode": "371-0036",
    "address": "群馬県前橋市敷島町262 敷島公園ばら園内",
    "city": "まえばし",
    "image": "",
    "url": "http://www.city.maebashi.gunma.jp/ctg/14400017/14400017.html",
    "latlng": "[36.4194678, 139.0491583]",
    "lat": 36.4194678,
    "lng": 139.0491583,
    "isClosed": ""
  },
  {
    "id": "gunma-museum-120",
    "type": "museum",
    "name": "﻿「日本の湖」榛名山版画美術館",
    "prefecture": "群馬県",
    "postCode": "370-3341",
    "address": "群馬県高崎市榛名湖町847",
    "city": "たかさき",
    "image": "",
    "url": "",
    "latlng": "[36.4703485, 138.8632525]",
    "lat": 36.4703485,
    "lng": 138.8632525,
    "isClosed": ""
  },
  {
    "id": "gunma-museum-121",
    "type": "museum",
    "name": "あーとほーる鉾座",
    "prefecture": "群馬県",
    "postCode": "376-0031",
    "address": "群馬県桐生市本町4－328",
    "city": "きりゅう",
    "image": "",
    "url": "http://www.city.kiryu.gunma.jp/web/home.nsf/0/3c4e5d30e88825cb49256b27002893691.OpenDocument",
    "latlng": "[36.4130573, 139.3401545]",
    "lat": 36.4130573,
    "lng": 139.3401545,
    "isClosed": ""
  },
  {
    "id": "gunma-museum-122",
    "type": "museum",
    "name": "ぐんまこどもの国児童会館",
    "prefecture": "群馬県",
    "postCode": "373-0054",
    "address": "群馬県太田市長手町480",
    "city": "おおた",
    "image": "",
    "url": "http://www.kodomonokuni.or.jp/",
    "latlng": "[36.3187563, 139.37062]",
    "lat": 36.3187563,
    "lng": 139.37062,
    "isClosed": ""
  },
  {
    "id": "gunma-museum-123",
    "type": "museum",
    "name": "ぐんまフラワーパーク",
    "prefecture": "群馬県",
    "postCode": "371-0246",
    "address": "群馬県前橋市柏倉町2471-7",
    "city": "まえばし",
    "image": "",
    "url": "http://www.flower-park.jp/",
    "latlng": "[36.4574281, 139.1759199]",
    "lat": 36.4574281,
    "lng": 139.1759199,
    "isClosed": ""
  },
  {
    "id": "gunma-museum-124",
    "type": "museum",
    "name": "こんにゃくパーク",
    "prefecture": "群馬県",
    "postCode": "370-2202",
    "address": "群馬県甘楽郡甘楽町小幡204-1",
    "city": "かんら",
    "image": "",
    "url": "https://konnyaku-park.com/",
    "latlng": "[36.2440127, 138.9185572]",
    "lat": 36.2440127,
    "lng": 138.9185572,
    "isClosed": ""
  },
  {
    "id": "gunma-museum-125",
    "type": "museum",
    "name": "ジャパンスネークセンター・日本蛇族学術研究所",
    "prefecture": "群馬県",
    "postCode": "379-2300",
    "address": "群馬県太田市薮塚町3381",
    "city": "おおた",
    "image": "",
    "url": "http://snake-center.com/",
    "latlng": "[36.3679731, 139.3064083]",
    "lat": 36.3679731,
    "lng": 139.3064083,
    "isClosed": ""
  },
  {
    "id": "gunma-museum-126",
    "type": "museum",
    "name": "とんねる館",
    "prefecture": "群馬県",
    "postCode": "379-1600",
    "address": "群馬県みなかみ町阿野川",
    "city": "みなかみ",
    "image": "",
    "url": "",
    "latlng": "[36.6786999, 138.9990292]",
    "lat": 36.6786999,
    "lng": 138.9990292,
    "isClosed": ""
  },
  {
    "id": "gunma-museum-127",
    "type": "museum",
    "name": "ネイチャービュー矢木沢",
    "prefecture": "群馬県",
    "postCode": "379-1721",
    "address": "群馬県みなかみ町藤原矢木沢",
    "city": "みなかみ",
    "image": "",
    "url": "",
    "latlng": "[36.9116121, 139.0542431]",
    "lat": 36.9116121,
    "lng": 139.0542431,
    "isClosed": ""
  },
  {
    "id": "gunma-museum-128",
    "type": "museum",
    "name": "ヒルトップ奈良俣",
    "prefecture": "群馬県",
    "postCode": "379-1721",
    "address": "群馬県みなかみ町藤原字洗ノ沢",
    "city": "みなかみ",
    "image": "",
    "url": "http://www.water.go.jp/kanto/numata/",
    "latlng": "[36.8966897, 139.0817124]",
    "lat": 36.8966897,
    "lng": 139.0817124,
    "isClosed": ""
  },
  {
    "id": "gunma-museum-129",
    "type": "museum",
    "name": "上川淵地区郷土民俗資料館",
    "prefecture": "群馬県",
    "postCode": "371-0816",
    "address": "群馬県前橋市上佐鳥町382－1",
    "city": "まえばし",
    "image": "",
    "url": "",
    "latlng": "[36.3578129, 139.0895676]",
    "lat": 36.3578129,
    "lng": 139.0895676,
    "isClosed": ""
  },
  {
    "id": "gunma-museum-130",
    "type": "museum",
    "name": "上野国分寺館",
    "prefecture": "群馬県",
    "postCode": "370-3514",
    "address": "群馬県高崎市引間町250-1",
    "city": "たかさき",
    "image": "",
    "url": "http://www.pref.gunma.jp/03/x4510005.html",
    "latlng": "[36.3933614, 139.0216351]",
    "lat": 36.3933614,
    "lng": 139.0216351,
    "isClosed": ""
  },
  {
    "id": "gunma-museum-131",
    "type": "museum",
    "name": "下仁田町ふるさとセンター 歴史民俗資料館",
    "prefecture": "群馬県",
    "postCode": "370-2600",
    "address": "群馬県下仁田町小坂71－1",
    "city": "しもにた",
    "image": "",
    "url": "http://www.town.shimonita.lg.jp/kyouiku/m02/m06/04.html",
    "latlng": "[36.2214537, 138.7778464]",
    "lat": 36.2214537,
    "lng": 138.7778464,
    "isClosed": ""
  },
  {
    "id": "gunma-museum-132",
    "type": "museum",
    "name": "世良田東照宮 宝物保管陳列所",
    "prefecture": "群馬県",
    "postCode": "370-0426",
    "address": "群馬県太田市世良田町3119-1",
    "city": "おおた",
    "image": "",
    "url": "http://www.net-you.com/toshogu/top.html",
    "latlng": "[36.2616399, 139.2753822]",
    "lat": 36.2616399,
    "lng": 139.2753822,
    "isClosed": ""
  },
  {
    "id": "gunma-museum-133",
    "type": "museum",
    "name": "中之条町歴史と民俗の博物館 ミュゼ",
    "prefecture": "群馬県",
    "postCode": "377-0424",
    "address": "群馬県吾妻郡中之条町大字中之条町947-1",
    "city": "なかのじょう",
    "image": "",
    "url": "https://www.town.nakanojo.gunma.jp/site/myuze/",
    "latlng": "[36.5894115, 138.8428786]",
    "lat": 36.5894115,
    "lng": 138.8428786,
    "isClosed": ""
  },
  {
    "id": "gunma-museum-134",
    "type": "museum",
    "name": "交通安全学習館（旧：人とくるまの科学館）",
    "prefecture": "群馬県",
    "postCode": "371-0846",
    "address": "群馬県前橋市元総社町80-4 群馬県総合交通センター3階",
    "city": "まえばし",
    "image": "",
    "url": "",
    "latlng": "[36.3800545, 139.04094]",
    "lat": 36.3800545,
    "lng": 139.04094,
    "isClosed": ""
  }
]