[
  {
    "id": "kumamoto-museum-1",
    "type": "museum",
    "name": "阿蘇火山博物館",
    "prefecture": "熊本県",
    "postCode": "869-2231",
    "address": "熊本県阿蘇市赤水1930−1",
    "city": "あそ",
    "image": "",
    "url": "http://www.asomuse.jp/",
    "latlng": "",
    "lat": "",
    "lng": "",
    "isClosed": ""
  },
  {
    "id": "kumamoto-museum-2",
    "type": "museum",
    "name": "御船町恐竜博物館",
    "prefecture": "熊本県",
    "postCode": "861-3207",
    "address": "熊本県上益城郡御船町御船995−6",
    "city": "みふね",
    "image": "",
    "url": "https://mifunemuseum.jp/",
    "latlng": "",
    "lat": "",
    "lng": "",
    "isClosed": ""
  },
  {
    "id": "kumamoto-museum-3",
    "type": "museum",
    "name": "熊本博物館",
    "prefecture": "熊本県",
    "postCode": "860-0007",
    "address": "熊本県熊本市中央区古京町3−2",
    "city": "くまもと",
    "image": "",
    "url": "https://kumamoto-city-museum.jp/",
    "latlng": "",
    "lat": "",
    "lng": "",
    "isClosed": ""
  },
  {
    "id": "kumamoto-museum-4",
    "type": "museum",
    "name": "玉名市立歴史博物館こころピア",
    "prefecture": "熊本県",
    "postCode": "865-0016",
    "address": "熊本県玉名市岩崎117",
    "city": "たまな",
    "image": "",
    "url": "https://www.city.tamana.lg.jp/q/list/455.html",
    "latlng": "",
    "lat": "",
    "lng": "",
    "isClosed": ""
  },
  {
    "id": "kumamoto-museum-5",
    "type": "museum",
    "name": "松井文庫驥斎",
    "prefecture": "熊本県",
    "postCode": "866-0865 ",
    "address": "熊本県八代市北の丸町3-15 松井神社社務所内",
    "city": "やつしろ",
    "image": "",
    "url": "http://www.kinasse-yatsushiro.jp/spots/detail/85",
    "latlng": "",
    "lat": "",
    "lng": "",
    "isClosed": ""
  },
  {
    "id": "kumamoto-museum-6",
    "type": "museum",
    "name": "八代市立博物館未来の森ミュージアム",
    "prefecture": "熊本県",
    "postCode": "866-0863",
    "address": "熊本県八代市西松江城町12−35",
    "city": "やつしろ",
    "image": "",
    "url": "http://www.city.yatsushiro.kumamoto.jp/museum/index.jsp",
    "latlng": "",
    "lat": "",
    "lng": "",
    "isClosed": ""
  },
  {
    "id": "kumamoto-museum-7",
    "type": "museum",
    "name": "熊本県立装飾古墳館",
    "prefecture": "熊本県",
    "postCode": "861-0561",
    "address": "熊本県山鹿市鹿央町岩原3085 熊本県立装飾古墳館",
    "city": "やまが",
    "image": "",
    "url": "https://kofunkan.pref.kumamoto.jp/",
    "latlng": "",
    "lat": "",
    "lng": "",
    "isClosed": ""
  },
  {
    "id": "kumamoto-museum-8",
    "type": "museum",
    "name": "山鹿市立博物館",
    "prefecture": "熊本県",
    "postCode": "861-0541",
    "address": "熊本県山鹿市鍋田2085",
    "city": "やまが",
    "image": "",
    "url": "https://furusato-yamaga.jp/detail/2/",
    "latlng": "",
    "lat": "",
    "lng": "",
    "isClosed": ""
  },
  {
    "id": "kumamoto-museum-9",
    "type": "museum",
    "name": "天草市立御所浦恐竜の島博物館",
    "prefecture": "熊本県",
    "postCode": "866-0313",
    "address": "熊本県天草市御所浦町御所浦4310−5",
    "city": "あまくさ",
    "image": "",
    "url": "https://goshouramuseum.jp/",
    "latlng": "",
    "lat": "",
    "lng": "",
    "isClosed": ""
  },
  {
    "id": "kumamoto-museum-10",
    "type": "museum",
    "name": "菊池神社歴史館",
    "prefecture": "熊本県",
    "postCode": "861-1331",
    "address": "熊本県菊池市隈府1257",
    "city": "きくち",
    "image": "",
    "url": "https://xn--btw921c.net/%E6%AD%B4%E5%8F%B2/25/",
    "latlng": "",
    "lat": "",
    "lng": "",
    "isClosed": ""
  },
  {
    "id": "kumamoto-museum-11",
    "type": "museum",
    "name": "熊本国際民藝館",
    "prefecture": "熊本県",
    "postCode": "861-8006",
    "address": "熊本県熊本市北区龍田1丁目5−2",
    "city": "くまもと",
    "image": "",
    "url": "https://kumamoto-mingeikan.com/",
    "latlng": "",
    "lat": "",
    "lng": "",
    "isClosed": ""
  },
  {
    "id": "kumamoto-museum-12",
    "type": "museum",
    "name": "熊本市塚原歴史民俗資料館",
    "prefecture": "熊本県",
    "postCode": "861-4226",
    "address": "熊本県熊本市南区城南町塚原1924",
    "city": "くまもと",
    "image": "",
    "url": "https://tsukawara.kumamoto-city-museum.jp/",
    "latlng": "",
    "lat": "",
    "lng": "",
    "isClosed": ""
  },
  {
    "id": "kumamoto-museum-13",
    "type": "museum",
    "name": "熊本市動植物園",
    "prefecture": "熊本県",
    "postCode": "862-0911",
    "address": "熊本県熊本市東区健軍5丁目14−2",
    "city": "くまもと",
    "image": "",
    "url": "https://www.ezooko.jp/",
    "latlng": "",
    "lat": "",
    "lng": "",
    "isClosed": ""
  },
  {
    "id": "kumamoto-museum-14",
    "type": "museum",
    "name": "熊本大学五高記念館",
    "prefecture": "熊本県",
    "postCode": "860-0862",
    "address": "熊本県熊本市中央区黒髪2丁目40−1",
    "city": "くまもと",
    "image": "",
    "url": "https://www.goko.kumamoto-u.ac.jp/",
    "latlng": "",
    "lat": "",
    "lng": "",
    "isClosed": ""
  },
  {
    "id": "kumamoto-museum-15",
    "type": "museum",
    "name": "神風連資料館",
    "prefecture": "熊本県",
    "postCode": "860-0862",
    "address": "熊本県熊本市中央区黒髪5丁目7−57",
    "city": "くまもと",
    "image": "",
    "url": "https://kumamoto-guide.jp/spots/detail/63",
    "latlng": "",
    "lat": "",
    "lng": "",
    "isClosed": ""
  },
  {
    "id": "kumamoto-museum-16",
    "type": "museum",
    "name": "肥後の里山ギャラリー",
    "prefecture": "熊本県",
    "postCode": "860-8615",
    "address": "熊本市中央区練兵町1番地 肥後銀行本店ビル1階",
    "city": "くまもと",
    "image": "",
    "url": "https://mizutomidori.jp/gallery/",
    "latlng": "",
    "lat": "",
    "lng": "",
    "isClosed": ""
  },
  {
    "id": "kumamoto-museum-17",
    "type": "museum",
    "name": "本妙寺宝物館",
    "prefecture": "熊本県",
    "postCode": "860-0072",
    "address": "熊本県熊本市西区花園4丁目13−20",
    "city": "くまもと",
    "image": "",
    "url": "https://kumamoto.guide/spots/detail/12278",
    "latlng": "",
    "lat": "",
    "lng": "",
    "isClosed": ""
  }
]