[
  {
    "id": "tochigi-art-1",
    "type": "art",
    "name": "足利市立美術館",
    "prefecture": "栃木県",
    "postCode": "326-0814",
    "address": "栃木県足利市通2丁目14−7",
    "city": "あしかが",
    "image": "",
    "url": "http://www.watv.ne.jp/ashi-bi/",
    "latlng": "[36.3340271, 139.4503738]",
    "lat": 36.3340271,
    "lng": 139.4503738,
    "isClosed": ""
  },
  {
    "id": "tochigi-art-2",
    "type": "art",
    "name": "栗田美術館",
    "prefecture": "栃木県",
    "postCode": "329-4217",
    "address": "栃木県足利市駒場町1542",
    "city": "あしかが",
    "image": "",
    "url": "http://www.kurita.or.jp/",
    "latlng": "[36.3187818, 139.5220847]",
    "lat": 36.3187818,
    "lng": 139.5220847,
    "isClosed": ""
  },
  {
    "id": "tochigi-art-3",
    "type": "art",
    "name": "宇都宮美術館",
    "prefecture": "栃木県",
    "postCode": "320-0004",
    "address": "栃木県宇都宮市長岡町1077",
    "city": "うつのみや",
    "image": "",
    "url": "http://u-moa.jp/",
    "latlng": "[36.5550745, 139.8826209]",
    "lat": 36.5550745,
    "lng": 139.8826209,
    "isClosed": ""
  },
  {
    "id": "tochigi-art-4",
    "type": "art",
    "name": "栃木県立美術館",
    "prefecture": "栃木県",
    "postCode": "320-0043",
    "address": "栃木県宇都宮市桜4丁目2−7",
    "city": "うつのみや",
    "image": "",
    "url": "http://www.art.pref.tochigi.lg.jp/",
    "latlng": "[36.5672965, 139.8660174]",
    "lat": 36.5672965,
    "lng": 139.8660174,
    "isClosed": ""
  },
  {
    "id": "tochigi-art-5",
    "type": "art",
    "name": "佐野市立吉澤記念美術館",
    "prefecture": "栃木県",
    "postCode": "327-0501",
    "address": "栃木県佐野市葛生東1丁目14−30",
    "city": "さの",
    "image": "",
    "url": "https://www.city.sano.lg.jp/sp/yoshizawakinembijutsukan/index.html",
    "latlng": "[36.4022905, 139.6119468]",
    "lat": 36.4022905,
    "lng": 139.6119468,
    "isClosed": ""
  },
  {
    "id": "tochigi-art-6",
    "type": "art",
    "name": "那珂川町馬頭広重美術館",
    "prefecture": "栃木県",
    "postCode": "324-0613",
    "address": "栃木県那須郡那珂川町馬頭",
    "city": "なかがわ",
    "image": "",
    "url": "http://www.hiroshige.bato.tochigi.jp/",
    "latlng": "[36.7382156, 140.1678121]",
    "lat": 36.7382156,
    "lng": 140.1678121,
    "isClosed": ""
  },
  {
    "id": "tochigi-art-7",
    "type": "art",
    "name": "藤城清治美術館那須高原",
    "prefecture": "栃木県",
    "postCode": "325-0301",
    "address": "栃木県那須郡那須町湯本203",
    "city": "なす",
    "image": "",
    "url": "http://fujishiro-seiji-museum.jp/",
    "latlng": "[37.0818317, 140.0072699]",
    "lat": 37.0818317,
    "lng": 140.0072699,
    "isClosed": ""
  },
  {
    "id": "tochigi-art-8",
    "type": "art",
    "name": "小杉放菴記念日光美術館",
    "prefecture": "栃木県",
    "postCode": "321-1431",
    "address": "栃木県日光市山内2388−3",
    "city": "にっこう",
    "image": "",
    "url": "https://www.khmoan.jp/",
    "latlng": "[36.7546787, 139.605419]",
    "lat": 36.7546787,
    "lng": 139.605419,
    "isClosed": ""
  },
  {
    "id": "tochigi-art-9",
    "type": "art",
    "name": "益子陶芸美術館",
    "prefecture": "栃木県",
    "postCode": "321-4217",
    "address": "栃木県芳賀郡益子町益子3021",
    "city": "ましこ",
    "image": "",
    "url": "http://www.mashiko-museum.jp/",
    "latlng": "[36.4654495, 140.1039936]",
    "lat": 36.4654495,
    "lng": 140.1039936,
    "isClosed": ""
  },
  {
    "id": "tochigi-art-10",
    "type": "art",
    "name": "栃木市立美術館",
    "prefecture": "栃木県",
    "postCode": "328-0016",
    "address": "栃木県栃木市入舟町7−26",
    "city": "とちぎ",
    "image": "",
    "url": "https://www.city.tochigi.lg.jp/site/museum-tcam/",
    "latlng": "[36.3813896, 139.7303384]",
    "lat": 36.3813896,
    "lng": 139.7303384,
    "isClosed": ""
  },
  {
    "id": "tochigi-art-11",
    "type": "art",
    "name": "小杉放菴記念日光美術館",
    "prefecture": "栃木県",
    "postCode": "321-1431",
    "address": "栃木県日光市山内2388−3",
    "city": "にっこう",
    "image": "",
    "url": "https://www.khmoan.jp/",
    "latlng": "[36.7546787, 139.605419]",
    "lat": 36.7546787,
    "lng": 139.605419,
    "isClosed": ""
  },
  {
    "id": "tochigi-art-12",
    "type": "art",
    "name": "那須高原私の美術館",
    "prefecture": "栃木県",
    "postCode": "325-0304",
    "address": "栃木県那須町高久甲西山6039－4",
    "city": "なす",
    "image": "",
    "url": "http://www2a.biglobe.ne.jp/~nasu/art/artist/artist.html",
    "latlng": "[37.0024003, 140.06403]",
    "lat": 37.0024003,
    "lng": 140.06403,
    "isClosed": ""
  },
  {
    "id": "tochigi-art-13",
    "type": "art",
    "name": "長谷川沼田居美術館",
    "prefecture": "栃木県",
    "postCode": "326-0328",
    "address": "栃木県足利市県町1545 浄徳寺内",
    "city": "あしかが",
    "image": "",
    "url": "http://agata107.ktkr.net/shoudenkyo/",
    "latlng": "[36.29269499999999, 139.45891]",
    "lat": 36.29269499999999,
    "lng": 139.45891,
    "isClosed": ""
  },
  {
    "id": "tochigi-art-14",
    "type": "art",
    "name": "鹿沼市立川上澄生美術館",
    "prefecture": "栃木県",
    "postCode": "322-0031",
    "address": "栃木県鹿沼市睦町287-14",
    "city": "かぬま",
    "image": "",
    "url": "http://kawakamisumio-bijutsukan.jp/",
    "latlng": "[36.5702538, 139.7536753]",
    "lat": 36.5702538,
    "lng": 139.7536753,
    "isClosed": ""
  },
  {
    "id": "tochigi-art-15",
    "type": "art",
    "name": "那須オルゴール美術館",
    "prefecture": "栃木県",
    "postCode": "325-0302",
    "address": "栃木県那須町高久丙270",
    "city": "なす",
    "image": "",
    "url": "http://nasuorgel.jp/",
    "latlng": "[37.0438643, 140.0276796]",
    "lat": 37.0438643,
    "lng": 140.0276796,
    "isClosed": ""
  },
  {
    "id": "tochigi-art-16",
    "type": "art",
    "name": "那須クィーンズ美術館",
    "prefecture": "栃木県",
    "postCode": "325-0303",
    "address": "栃木県那須町高久乙3392",
    "city": "なす",
    "image": "",
    "url": "",
    "latlng": "[37.0351538, 140.0270673]",
    "lat": 37.0351538,
    "lng": 140.0270673,
    "isClosed": ""
  },
  {
    "id": "tochigi-art-17",
    "type": "art",
    "name": "那須ステンドグラス美術館",
    "prefecture": "栃木県",
    "postCode": "325-0302",
    "address": "栃木県那須町高久丙1790",
    "city": "なす",
    "image": "",
    "url": "http://stainedglass-museum.com/nasu/exhibit/index.html",
    "latlng": "[37.0655428, 140.0249014]",
    "lat": 37.0655428,
    "lng": 140.0249014,
    "isClosed": ""
  },
  {
    "id": "tochigi-art-18",
    "type": "art",
    "name": "那須写真美術館",
    "prefecture": "栃木県",
    "postCode": "325-0001",
    "address": "栃木県那須町高久甲500－3",
    "city": "なす",
    "image": "",
    "url": "",
    "latlng": "[36.9939384, 140.0574136]",
    "lat": 36.9939384,
    "lng": 140.0574136,
    "isClosed": ""
  },
  {
    "id": "tochigi-art-19",
    "type": "art",
    "name": "清経庵美術館",
    "prefecture": "栃木県",
    "postCode": "321-4212",
    "address": "栃木県益子町上大羽1244",
    "city": "ましこ",
    "image": "",
    "url": "",
    "latlng": "[36.4371452, 140.140942]",
    "lat": 36.4371452,
    "lng": 140.140942,
    "isClosed": ""
  },
  {
    "id": "tochigi-art-20",
    "type": "art",
    "name": "穐葉アンティークジュウリー美術館",
    "prefecture": "栃木県",
    "postCode": "325-0302",
    "address": "栃木県那須町高久丙1790－20",
    "city": "なす",
    "image": "",
    "url": "http://www.jewellery-museum.com/",
    "latlng": "[37.0663483, 140.0244001]",
    "lat": 37.0663483,
    "lng": 140.0244001,
    "isClosed": ""
  },
  {
    "id": "tochigi-art-21",
    "type": "art",
    "name": "草雲美術館",
    "prefecture": "栃木県",
    "postCode": "326-0816",
    "address": "栃木県足利市緑町2-3768",
    "city": "あしかが",
    "image": "",
    "url": "http://www1.ocn.ne.jp/~souun/",
    "latlng": "[36.3359009, 139.4328299]",
    "lat": 36.3359009,
    "lng": 139.4328299,
    "isClosed": ""
  },
  {
    "id": "tochigi-art-22",
    "type": "art",
    "name": "日光東照宮美術館",
    "prefecture": "栃木県",
    "postCode": "321-1431",
    "address": "栃木県日光市山内2301",
    "city": "にっこう",
    "image": "",
    "url": "http://www.toshogu.jp/shisetsu/bijutsu.html",
    "latlng": "[36.7576233, 139.5982783]",
    "lat": 36.7576233,
    "lng": 139.5982783,
    "isClosed": ""
  },
  {
    "id": "tochigi-art-23",
    "type": "art",
    "name": "日光竹久夢二美術館",
    "prefecture": "栃木県",
    "postCode": "321-2524",
    "address": "栃木県藤原町柄倉772－1",
    "city": "にっこう",
    "image": "",
    "url": "http://www.yumeji.co.jp/index.html",
    "latlng": "[36.78064579999999, 139.7009976]",
    "lat": 36.78064579999999,
    "lng": 139.7009976,
    "isClosed": ""
  },
  {
    "id": "tochigi-art-24",
    "type": "art",
    "name": "大日山美術館",
    "prefecture": "栃木県",
    "postCode": "323-0015",
    "address": "栃木県小山市三拝川岸218－1",
    "city": "おやま",
    "image": "",
    "url": "",
    "latlng": "[36.3552829, 139.8131876]",
    "lat": 36.3552829,
    "lng": 139.8131876,
    "isClosed": ""
  },
  {
    "id": "tochigi-art-25",
    "type": "art",
    "name": "安藤勇寿「少年の日」美術館",
    "prefecture": "栃木県",
    "postCode": "327-0304",
    "address": "栃木県佐野市御神楽町623-1",
    "city": "さの",
    "image": "",
    "url": "http://www4.ocn.ne.jp/~shonen",
    "latlng": "[36.4247752, 139.5578239]",
    "lat": 36.4247752,
    "lng": 139.5578239,
    "isClosed": ""
  },
  {
    "id": "tochigi-art-26",
    "type": "art",
    "name": "小山市立車屋美術館",
    "prefecture": "栃木県",
    "postCode": "329-0214",
    "address": "栃木県小山市乙女３－１０－３４",
    "city": "おやま",
    "image": "",
    "url": "https://www.city.oyama.tochigi.jp/site/kurumayamuseum/",
    "latlng": "[36.2608781, 139.761075]",
    "lat": 36.2608781,
    "lng": 139.761075,
    "isClosed": ""
  },
  {
    "id": "tochigi-art-27",
    "type": "art",
    "name": "人間国宝田村耕一美術館",
    "prefecture": "栃木県",
    "postCode": "327-0321",
    "address": "栃木県佐野市閑馬町398-6",
    "city": "さの",
    "image": "",
    "url": "https://tamurakoichitougeimuseum.amebaownd.com/",
    "latlng": "[36.3994027, 139.5168631]",
    "lat": 36.3994027,
    "lng": 139.5168631,
    "isClosed": ""
  },
  {
    "id": "tochigi-art-28",
    "type": "art",
    "name": "佐野東石美術館",
    "prefecture": "栃木県",
    "postCode": "327-0013",
    "address": "栃木県佐野市本町2892",
    "city": "さの",
    "image": "",
    "url": "http://www.toseki.com/museum/museum.htm",
    "latlng": "[36.3136886, 139.5761869]",
    "lat": 36.3136886,
    "lng": 139.5761869,
    "isClosed": ""
  },
  {
    "id": "tochigi-art-29",
    "type": "art",
    "name": "いわむらかずお絵本の丘美術館",
    "prefecture": "栃木県",
    "postCode": "324-0611",
    "address": "栃木県那珂川町小砂3097",
    "city": "なかがわ",
    "image": "",
    "url": "http://ehonnooka.com/",
    "latlng": "[36.7802002, 140.1381904]",
    "lat": 36.7802002,
    "lng": 140.1381904,
    "isClosed": ""
  },
  {
    "id": "tochigi-art-30",
    "type": "art",
    "name": "ガラスの芸術 エミールガレ美術館",
    "prefecture": "栃木県",
    "postCode": "325-0002",
    "address": "栃木県那須町高久丙132",
    "city": "なす",
    "image": "",
    "url": "http://www.emile-galle-museum.co.jp/",
    "latlng": "[37.049378, 140.0297145]",
    "lat": 37.049378,
    "lng": 140.0297145,
    "isClosed": ""
  },
  {
    "id": "tochigi-art-31",
    "type": "art",
    "name": "しらさぎ美術館",
    "prefecture": "栃木県",
    "postCode": "329-1115",
    "address": "栃木県宇都宮市下田原町1758-1",
    "city": "うつのみや",
    "image": "",
    "url": "http://shirasagimuseum.web.fc2.com/",
    "latlng": "[36.634668, 139.9041993]",
    "lat": 36.634668,
    "lng": 139.9041993,
    "isClosed": ""
  },
  {
    "id": "tochigi-art-32",
    "type": "art",
    "name": "ダイアナガーデン・エンジェル美術館",
    "prefecture": "栃木県",
    "postCode": "325-0303",
    "address": "栃木県那須町高久乙3392",
    "city": "なす",
    "image": "",
    "url": "http://diana-garden.com/",
    "latlng": "[37.0351538, 140.0270673]",
    "lat": 37.0351538,
    "lng": 140.0270673,
    "isClosed": ""
  },
  {
    "id": "tochigi-art-33",
    "type": "art",
    "name": "とちぎ蔵の街美術館",
    "prefecture": "栃木県",
    "postCode": "328-0015",
    "address": "栃木県栃木市万町3-23",
    "city": "とちぎ",
    "image": "",
    "url": "http://kuramuseum.com/",
    "latlng": "[36.3809931, 139.7333694]",
    "lat": 36.3809931,
    "lng": 139.7333694,
    "isClosed": ""
  },
  {
    "id": "tochigi-art-34",
    "type": "art",
    "name": "もうひとつの美術館",
    "prefecture": "栃木県",
    "postCode": "324-0618",
    "address": "栃木県那須郡那珂川町小口1181-2",
    "city": "なかがわ",
    "image": "",
    "url": "http://www.mobmuseum.org/",
    "latlng": "[36.7662473, 140.1489516]",
    "lat": 36.7662473,
    "lng": 140.1489516,
    "isClosed": ""
  }
]