[
  {
    "id": "tochigi-museum-1",
    "type": "museum",
    "name": "栃木県立博物館",
    "prefecture": "栃木県",
    "postCode": "320-0865",
    "address": "栃木県宇都宮市睦町2−2",
    "city": "うつのみや",
    "image": "",
    "url": "http://www.muse.pref.tochigi.lg.jp/",
    "latlng": "[36.5600586, 139.8605916]",
    "lat": 36.5600586,
    "lng": 139.8605916,
    "isClosed": ""
  },
  {
    "id": "tochigi-museum-2",
    "type": "museum",
    "name": "小山市立博物館",
    "prefecture": "栃木県",
    "postCode": "329-0214",
    "address": "栃木県小山市乙女1丁目31−7",
    "city": "おやま",
    "image": "",
    "url": "https://www.city.oyama.tochigi.jp/site/hakubutu/",
    "latlng": "[36.2614312, 139.7554795]",
    "lat": 36.2614312,
    "lng": 139.7554795,
    "isClosed": ""
  },
  {
    "id": "tochigi-museum-3",
    "type": "museum",
    "name": "さくら市ミュージアム-荒井寛方記念館-",
    "prefecture": "栃木県",
    "postCode": "329-1311",
    "address": "栃木県さくら市氏家1297",
    "city": "さくら",
    "image": "",
    "url": "https://www.city.tochigi-sakura.lg.jp/museum/index.html",
    "latlng": "[36.6673544, 139.9561692]",
    "lat": 36.6673544,
    "lng": 139.9561692,
    "isClosed": ""
  },
  {
    "id": "tochigi-museum-4",
    "type": "museum",
    "name": "佐野市郷土博物館",
    "prefecture": "栃木県",
    "postCode": "327-0003",
    "address": "栃木県佐野市大橋町2047",
    "city": "さの",
    "image": "",
    "url": "https://www.city.sano.lg.jp/sp/kyodohakubutsukan/index.html",
    "latlng": "[36.312868, 139.5649738]",
    "lat": 36.312868,
    "lng": 139.5649738,
    "isClosed": ""
  },
  {
    "id": "tochigi-museum-5",
    "type": "museum",
    "name": "和気記念館",
    "prefecture": "栃木県",
    "postCode": "329-2221",
    "address": "栃木県塩谷郡塩谷町玉生648",
    "city": "しおや",
    "image": "",
    "url": "https://boubou.jp/",
    "latlng": "[36.7759627, 139.8486618]",
    "lat": 36.7759627,
    "lng": 139.8486618,
    "isClosed": ""
  },
  {
    "id": "tochigi-museum-6",
    "type": "museum",
    "name": "塚田歴史伝説館",
    "prefecture": "栃木県",
    "postCode": "328-0037",
    "address": "栃木県栃木市倭町2−16",
    "city": "とちぎ",
    "image": "",
    "url": "https://www.tochigi-kankou.or.jp/spot/tsukadarekishikan",
    "latlng": "[36.37833699999999, 139.7310233]",
    "lat": 36.37833699999999,
    "lng": 139.7310233,
    "isClosed": ""
  },
  {
    "id": "tochigi-museum-7",
    "type": "museum",
    "name": "那須塩原市那須野が原博物館",
    "prefecture": "栃木県",
    "postCode": "329-2752",
    "address": "栃木県那須塩原市三島5丁目1",
    "city": "なすしおばら",
    "image": "",
    "url": "http://www2.city.nasushiobara.lg.jp/hakubutsukan/",
    "latlng": "[36.8996933, 139.9690342]",
    "lat": 36.8996933,
    "lng": 139.9690342,
    "isClosed": ""
  },
  {
    "id": "tochigi-museum-8",
    "type": "museum",
    "name": "日光二荒山神社宝物館",
    "prefecture": "栃木県",
    "postCode": "321-1661",
    "address": "栃木県日光市中宮祠2484",
    "city": "にっこう",
    "image": "",
    "url": "http://www.futarasan.jp/",
    "latlng": "[36.7413731, 139.48664]",
    "lat": 36.7413731,
    "lng": 139.48664,
    "isClosed": ""
  },
  {
    "id": "tochigi-museum-9",
    "type": "museum",
    "name": "濱田庄司記念益子参考館",
    "prefecture": "栃木県",
    "postCode": "321-4217",
    "address": "栃木県芳賀郡益子町益子3388",
    "city": "ましこ",
    "image": "",
    "url": "https://mashiko-sankokan.net/",
    "latlng": "[36.47018509999999, 140.1085094]",
    "lat": 36.47018509999999,
    "lng": 140.1085094,
    "isClosed": ""
  },
  {
    "id": "tochigi-museum-10",
    "type": "museum",
    "name": "山縣有朋記念館",
    "prefecture": "栃木県",
    "postCode": "329-2501",
    "address": "栃木県矢板市上伊佐野1022",
    "city": "やいた",
    "image": "",
    "url": "https://www.general-yamagata-foundation.or.jp/",
    "latlng": "[36.8872817, 139.8803027]",
    "lat": 36.8872817,
    "lng": 139.8803027,
    "isClosed": ""
  },
  {
    "id": "tochigi-museum-11",
    "type": "museum",
    "name": "栃木市立文学館",
    "prefecture": "栃木県",
    "postCode": "328-0016",
    "address": "栃木県栃木市入舟町7−31",
    "city": "とちぎ",
    "image": "",
    "url": "https://www.city.tochigi.lg.jp/site/museum-tclm/",
    "latlng": "[36.3814308, 139.7311448]",
    "lat": 36.3814308,
    "lng": 139.7311448,
    "isClosed": ""
  },
  {
    "id": "tochigi-museum-12",
    "type": "museum",
    "name": "大久保分校スタートアップミュージアム",
    "prefecture": "栃木県",
    "postCode": "326-0012",
    "address": "栃木県足利市大久保町126",
    "city": "あしかが",
    "image": "",
    "url": "https://www.start-up-museum.com/",
    "latlng": "[36.311819, 139.5023315]",
    "lat": 36.311819,
    "lng": 139.5023315,
    "isClosed": ""
  },
  {
    "id": "tochigi-museum-13",
    "type": "museum",
    "name": "栃木県なかがわ水遊園",
    "prefecture": "栃木県",
    "postCode": "324-0404",
    "address": "栃木県大田原市佐良土2686",
    "city": "おおたわら",
    "image": "",
    "url": "https://tnap.jp/",
    "latlng": "[36.7890902, 140.1284348]",
    "lat": 36.7890902,
    "lng": 140.1284348,
    "isClosed": ""
  },
  {
    "id": "tochigi-museum-14",
    "type": "museum",
    "name": "國學院大學栃木学園参考館",
    "prefecture": "栃木県",
    "postCode": "328-0054",
    "address": "栃木県栃木市平井町717",
    "city": "とちぎ",
    "image": "",
    "url": "https://www.kokugakuintochigi.ac.jp/sankokan/",
    "latlng": "[36.3655171, 139.7020267]",
    "lat": 36.3655171,
    "lng": 139.7020267,
    "isClosed": ""
  },
  {
    "id": "tochigi-museum-15",
    "type": "museum",
    "name": "那須ワールドモンキーパーク",
    "prefecture": "栃木県",
    "postCode": "325-0001",
    "address": "栃木県那須郡那須町高久甲6146",
    "city": "なす",
    "image": "",
    "url": "https://www.nasumonkey.com/",
    "latlng": "[36.9732145, 140.0607518]",
    "lat": 36.9732145,
    "lng": 140.0607518,
    "isClosed": ""
  },
  {
    "id": "tochigi-museum-16",
    "type": "museum",
    "name": "﻿那須高原3D宇宙・恐竜館",
    "prefecture": "栃木県",
    "postCode": "325-0304",
    "address": "栃木県那須町高久甲西山5805-20",
    "city": "なす",
    "image": "",
    "url": "http://www.3dkyouryukan.co.jp/",
    "latlng": "[37.0024003, 140.06403]",
    "lat": 37.0024003,
    "lng": 140.06403,
    "isClosed": ""
  },
  {
    "id": "tochigi-museum-17",
    "type": "museum",
    "name": "郷土玩具博物館",
    "prefecture": "栃木県",
    "postCode": "321-2521",
    "address": "栃木県日光市藤原1357",
    "city": "にっこう",
    "image": "",
    "url": "",
    "latlng": "[36.860032, 139.720685]",
    "lat": 36.860032,
    "lng": 139.720685,
    "isClosed": ""
  },
  {
    "id": "tochigi-museum-18",
    "type": "museum",
    "name": "都賀町立歴史民俗資料館",
    "prefecture": "栃木県",
    "postCode": "328-0103",
    "address": "栃木県都賀町原宿535",
    "city": "つが",
    "image": "",
    "url": "http://www.city.tochigi.lg.jp/hp/page000005000/hpg000004323.htm",
    "latlng": "[36.429084, 139.739616]",
    "lat": 36.429084,
    "lng": 139.739616,
    "isClosed": ""
  },
  {
    "id": "tochigi-museum-19",
    "type": "museum",
    "name": "野木町郷土館",
    "prefecture": "栃木県",
    "postCode": "329-0111",
    "address": "栃木県野木町丸林571",
    "city": "のぎ",
    "image": "",
    "url": "",
    "latlng": "[36.233269, 139.7408056]",
    "lat": 36.233269,
    "lng": 139.7408056,
    "isClosed": ""
  },
  {
    "id": "tochigi-museum-20",
    "type": "museum",
    "name": "高根沢町歴史民俗資料館",
    "prefecture": "栃木県",
    "postCode": "329-1225",
    "address": "栃木県塩谷郡高根沢町大字石末1825",
    "city": "たかねざわ",
    "image": "",
    "url": "https://www.town.takanezawa.tochigi.jp/life/learning/shisetsu/rekimin.html",
    "latlng": "[36.6370674, 140.001343]",
    "lat": 36.6370674,
    "lng": 140.001343,
    "isClosed": ""
  },
  {
    "id": "tochigi-museum-21",
    "type": "museum",
    "name": "鹿沼市木のふるさと伝統工芸館",
    "prefecture": "栃木県",
    "postCode": "322-0058",
    "address": "栃木県鹿沼市麻苧町1556－1",
    "city": "かぬま",
    "image": "",
    "url": "http://www.city.kanuma.tochigi.jp/13%2C2532%2C154%2C537.html",
    "latlng": "[36.56298719999999, 139.7448852]",
    "lat": 36.56298719999999,
    "lng": 139.7448852,
    "isClosed": ""
  },
  {
    "id": "tochigi-museum-22",
    "type": "museum",
    "name": "鹿沼市立図書館・粟野町立歴史民俗資料館",
    "prefecture": "栃木県",
    "postCode": "322-0300",
    "address": "栃木県鹿沼市口粟野661",
    "city": "かぬま",
    "image": "",
    "url": "http://tosyo.city.kanuma.tochigi.jp/",
    "latlng": "[36.5187892, 139.6797181]",
    "lat": 36.5187892,
    "lng": 139.6797181,
    "isClosed": ""
  },
  {
    "id": "tochigi-museum-23",
    "type": "museum",
    "name": "鹿沼錦鯉資料館",
    "prefecture": "栃木県",
    "postCode": "322-0001",
    "address": "栃木県鹿沼市栃窪1202－3 鹿沼錦鯉公園内",
    "city": "かぬま",
    "image": "",
    "url": "http://www.kato-industry.com/service/carp01.html",
    "latlng": "[36.5871124, 139.7764668]",
    "lat": 36.5871124,
    "lng": 139.7764668,
    "isClosed": ""
  },
  {
    "id": "tochigi-museum-24",
    "type": "museum",
    "name": "黒羽町芭蕉の館",
    "prefecture": "栃木県",
    "postCode": "324-0234",
    "address": "栃木県大田原市前田980－1",
    "city": "おおたわら",
    "image": "",
    "url": "http://kurobane.info/shokokai/machi/machi-basyou.html",
    "latlng": "[36.8676422, 140.1214203]",
    "lat": 36.8676422,
    "lng": 140.1214203,
    "isClosed": ""
  },
  {
    "id": "tochigi-museum-25",
    "type": "museum",
    "name": "龍門ふるさと民芸館",
    "prefecture": "栃木県",
    "postCode": "321-0633",
    "address": "栃木県那須烏山市滝414",
    "city": "なすからすやま",
    "image": "",
    "url": "http://w01.tp1.jp/~a880011651/index.html",
    "latlng": "[36.6455572, 140.1389747]",
    "lat": 36.6455572,
    "lng": 140.1389747,
    "isClosed": ""
  },
  {
    "id": "tochigi-museum-26",
    "type": "museum",
    "name": "足利市郷土資料展示室",
    "prefecture": "栃木県",
    "postCode": "326-0064",
    "address": "栃木県足利市東砂原後町1055",
    "city": "あしかが",
    "image": "",
    "url": "http://www.maibun.or.jp/inst-info/inst-info01.html",
    "latlng": "[36.3478225, 139.4656428]",
    "lat": 36.3478225,
    "lng": 139.4656428,
    "isClosed": ""
  },
  {
    "id": "tochigi-museum-27",
    "type": "museum",
    "name": "足利萬古焼ギャラリー",
    "prefecture": "栃木県",
    "postCode": "326-0004",
    "address": "栃木県足利市樺崎町1050",
    "city": "あしかが",
    "image": "",
    "url": "",
    "latlng": "[36.3588111, 139.4962034]",
    "lat": 36.3588111,
    "lng": 139.4962034,
    "isClosed": ""
  },
  {
    "id": "tochigi-museum-28",
    "type": "museum",
    "name": "足尾環境学習センター",
    "prefecture": "栃木県",
    "postCode": "321-1500",
    "address": "栃木県足尾町銅 親水公園内",
    "city": "あしお",
    "image": "",
    "url": "",
    "latlng": "[36.6759999, 139.4402706]",
    "lat": 36.6759999,
    "lng": 139.4402706,
    "isClosed": ""
  },
  {
    "id": "tochigi-museum-29",
    "type": "museum",
    "name": "足尾銅山観光",
    "prefecture": "栃木県",
    "postCode": "321-1514",
    "address": "栃木県足尾町通洞9－2",
    "city": "あしお",
    "image": "",
    "url": "",
    "latlng": "[36.6327971, 139.4398091]",
    "lat": 36.6327971,
    "lng": 139.4398091,
    "isClosed": ""
  },
  {
    "id": "tochigi-museum-30",
    "type": "museum",
    "name": "那珂川町馬頭郷土資料館",
    "prefecture": "栃木県",
    "postCode": "324-0613",
    "address": "栃木県那珂川町馬頭116-5",
    "city": "なかがわ",
    "image": "",
    "url": "",
    "latlng": "[36.7388403, 140.1702301]",
    "lat": 36.7388403,
    "lng": 140.1702301,
    "isClosed": ""
  },
  {
    "id": "tochigi-museum-31",
    "type": "museum",
    "name": "那須サファリパーク",
    "prefecture": "栃木県",
    "postCode": "325-0303",
    "address": "栃木県那須町高久乙3523",
    "city": "なす",
    "image": "",
    "url": "http://www.nasusafari.com/index.html",
    "latlng": "[37.0592004, 140.0062578]",
    "lat": 37.0592004,
    "lng": 140.0062578,
    "isClosed": ""
  },
  {
    "id": "tochigi-museum-32",
    "type": "museum",
    "name": "那須テディベア・ミュージアム",
    "prefecture": "栃木県",
    "postCode": "325-0302",
    "address": "栃木県那須町高久丙1185-4",
    "city": "なす",
    "image": "",
    "url": "http://www.teddynet.co.jp/nasu.html",
    "latlng": "[37.0492198, 140.0395023]",
    "lat": 37.0492198,
    "lng": 140.0395023,
    "isClosed": ""
  },
  {
    "id": "tochigi-museum-33",
    "type": "museum",
    "name": "那須とりっくあーとぴあ　トリックアートの館",
    "prefecture": "栃木県",
    "postCode": "325-0304",
    "address": "栃木県那須町高久甲5760",
    "city": "なす",
    "image": "",
    "url": "http://www.trick-art.jp/yakata/index.html",
    "latlng": "[37.0313715, 140.0360048]",
    "lat": 37.0313715,
    "lng": 140.0360048,
    "isClosed": ""
  },
  {
    "id": "tochigi-museum-34",
    "type": "museum",
    "name": "那須とりっくあーとぴあ　トリックアート迷宮？館",
    "prefecture": "栃木県",
    "postCode": "325-0304",
    "address": "栃木県那須町高久甲5760",
    "city": "なす",
    "image": "",
    "url": "http://www.trick-art.jp/meikyu/index.html",
    "latlng": "[37.0313715, 140.0360048]",
    "lat": 37.0313715,
    "lng": 140.0360048,
    "isClosed": ""
  },
  {
    "id": "tochigi-museum-35",
    "type": "museum",
    "name": "那須とりっくあーとぴあ　ミケランジェロ館",
    "prefecture": "栃木県",
    "postCode": "325-0304",
    "address": "栃木県那須町高久甲5760",
    "city": "なす",
    "image": "",
    "url": "http://www.trick-art.jp/mike/index.html",
    "latlng": "[37.0313715, 140.0360048]",
    "lat": 37.0313715,
    "lng": 140.0360048,
    "isClosed": ""
  },
  {
    "id": "tochigi-museum-36",
    "type": "museum",
    "name": "那須塩原市黒磯郷土館",
    "prefecture": "栃木県",
    "postCode": "325-0043",
    "address": "栃木県那須塩原市橋本町8-47",
    "city": "なすしおばら",
    "image": "",
    "url": "http://www2.city.nasushiobara.lg.jp/hakubutsukan/profile/attached.html",
    "latlng": "[36.9765788, 140.0554438]",
    "lat": 36.9765788,
    "lng": 140.0554438,
    "isClosed": ""
  },
  {
    "id": "tochigi-museum-37",
    "type": "museum",
    "name": "那須歴史探訪館",
    "prefecture": "栃木県",
    "postCode": "329-3443",
    "address": "栃木県那須町芦野2893",
    "city": "なす",
    "image": "",
    "url": "http://www.town.nasu.lg.jp/hp/page000000500/hpg000000471.htm",
    "latlng": "[36.9892217, 140.1643648]",
    "lat": 36.9892217,
    "lng": 140.1643648,
    "isClosed": ""
  },
  {
    "id": "tochigi-museum-38",
    "type": "museum",
    "name": "那須町民俗資料館",
    "prefecture": "栃木県",
    "postCode": "329-3200",
    "address": "栃木県那須町子丙3－13",
    "city": "なす",
    "image": "",
    "url": "",
    "latlng": "[37.0197825, 140.1209869]",
    "lat": 37.0197825,
    "lng": 140.1209869,
    "isClosed": ""
  },
  {
    "id": "tochigi-museum-39",
    "type": "museum",
    "name": "﻿栃木県立日光自然博物館",
    "prefecture": "栃木県",
    "postCode": "321-1661",
    "address": "栃木県日光市中宮祠2480－1",
    "city": "にっこう",
    "image": "",
    "url": "http://www.nikko-nsm.co.jp/",
    "latlng": "[36.7266857, 139.4859637]",
    "lat": 36.7266857,
    "lng": 139.4859637,
    "isClosed": ""
  },
  {
    "id": "tochigi-museum-40",
    "type": "museum",
    "name": "横山郷土館",
    "prefecture": "栃木県",
    "postCode": "328-0016",
    "address": "栃木県栃木市入舟町2－16",
    "city": "とちぎ",
    "image": "",
    "url": "http://home.k08.itscom.net/kyodokan/index.html",
    "latlng": "[36.3811472, 139.7323218]",
    "lat": 36.3811472,
    "lng": 139.7323218,
    "isClosed": ""
  },
  {
    "id": "tochigi-museum-41",
    "type": "museum",
    "name": "沼原発電所展示館",
    "prefecture": "栃木県",
    "postCode": "325-0111",
    "address": "栃木県那須塩原市板室滝の沢897-6",
    "city": "なすしおばら",
    "image": "",
    "url": "http://www.power-academy.jp/db/institution/detail.php1.pcode=60",
    "latlng": "[37.0901138, 139.9264384]",
    "lat": 37.0901138,
    "lng": 139.9264384,
    "isClosed": ""
  },
  {
    "id": "tochigi-museum-42",
    "type": "museum",
    "name": "烏山和紙会館",
    "prefecture": "栃木県",
    "postCode": "321-0621",
    "address": "栃木県那須烏山市中央2－6－8",
    "city": "なすからすやま",
    "image": "",
    "url": "http://www.city.nasukarasuyama.lg.jp/9",
    "latlng": "[36.65483529999999, 140.1575766]",
    "lat": 36.65483529999999,
    "lng": 140.1575766,
    "isClosed": ""
  },
  {
    "id": "tochigi-museum-43",
    "type": "museum",
    "name": "烏山町郷土資料館",
    "prefecture": "栃木県",
    "postCode": "321-0621",
    "address": "栃木県那須烏山市中央1－18－39",
    "city": "なすからすやま",
    "image": "",
    "url": "",
    "latlng": "[36.6592668, 140.1514507]",
    "lat": 36.6592668,
    "lng": 140.1514507,
    "isClosed": ""
  },
  {
    "id": "tochigi-museum-44",
    "type": "museum",
    "name": "益子古陶館",
    "prefecture": "栃木県",
    "postCode": "321-4200",
    "address": "栃木県益子町道祖士4230",
    "city": "ましこ",
    "image": "",
    "url": "",
    "latlng": "[36.4674082, 140.0933317]",
    "lat": 36.4674082,
    "lng": 140.0933317,
    "isClosed": ""
  },
  {
    "id": "tochigi-museum-45",
    "type": "museum",
    "name": "真岡市科学教育センター",
    "prefecture": "栃木県",
    "postCode": "321-4325",
    "address": "栃木県真岡市田町1349－1",
    "city": "もおか",
    "image": "",
    "url": "http://www.city.moka.tochigi.jp/kagaku/index.htm",
    "latlng": "[36.4369704, 140.0163993]",
    "lat": 36.4369704,
    "lng": 140.0163993,
    "isClosed": ""
  },
  {
    "id": "tochigi-museum-46",
    "type": "museum",
    "name": "矢板市立郷土資料館",
    "prefecture": "栃木県",
    "postCode": "329-2501",
    "address": "栃木県矢板市上伊佐野761-2",
    "city": "やいた",
    "image": "",
    "url": "https://www.city.yaita.tochigi.jp/site/museum/",
    "latlng": "[36.8729775, 139.9080354]",
    "lat": 36.8729775,
    "lng": 139.9080354,
    "isClosed": ""
  },
  {
    "id": "tochigi-museum-47",
    "type": "museum",
    "name": "矢板武記念館",
    "prefecture": "栃木県",
    "postCode": "329-2164",
    "address": "栃木県矢板市本町15-3",
    "city": "やいた",
    "image": "",
    "url": "https://x.gd/HpZ7h",
    "latlng": "[36.8087709, 139.9243973]",
    "lat": 36.8087709,
    "lng": 139.9243973,
    "isClosed": ""
  },
  {
    "id": "tochigi-museum-48",
    "type": "museum",
    "name": "石橋町テーマ館",
    "prefecture": "栃木県",
    "postCode": "329-0511",
    "address": "栃木県石橋町石橋675－1",
    "city": "いしばし",
    "image": "",
    "url": "",
    "latlng": "[36.4363234, 139.8666152]",
    "lat": 36.4363234,
    "lng": 139.8666152,
    "isClosed": ""
  },
  {
    "id": "tochigi-museum-49",
    "type": "museum",
    "name": "芳賀町総合情報館＜知恵の環館＞",
    "prefecture": "栃木県",
    "postCode": "321-3307",
    "address": "栃木県芳賀郡郡芳賀町祖母井南1-1-1",
    "city": "はが",
    "image": "",
    "url": "https://www.town.tochigi-haga.lg.jp/menu/kurashi/sports/shogai/johokan/index.html",
    "latlng": "[36.5449384, 140.0617713]",
    "lat": 36.5449384,
    "lng": 140.0617713,
    "isClosed": ""
  },
  {
    "id": "tochigi-museum-50",
    "type": "museum",
    "name": "華雨蔵珍之館",
    "prefecture": "栃木県",
    "postCode": "326-0822",
    "address": "栃木県足利市田中町907-6",
    "city": "あしかが",
    "image": "",
    "url": "http://www.antares.co.jp/kauzou.html",
    "latlng": "[36.3299284, 139.4470844]",
    "lat": 36.3299284,
    "lng": 139.4470844,
    "isClosed": ""
  },
  {
    "id": "tochigi-museum-51",
    "type": "museum",
    "name": "足利市ふるさと学習・資料館",
    "prefecture": "栃木県",
    "postCode": "326-0141",
    "address": "栃木県足利市小俣町3306",
    "city": "あしかが",
    "image": "",
    "url": "http://www.city.ashikaga.tochigi.jp/site/shisetsu/omata-furusato.html",
    "latlng": "[36.4116073, 139.3866207]",
    "lat": 36.4116073,
    "lng": 139.3866207,
    "isClosed": ""
  },
  {
    "id": "tochigi-museum-52",
    "type": "museum",
    "name": "﻿星野遺跡地層たんけん館",
    "prefecture": "栃木県",
    "postCode": "328-0201",
    "address": "栃木県栃木市星野町504",
    "city": "とちぎ",
    "image": "",
    "url": "http://www.city.tochigi.lg.jp/hp/page000001000/hpg000000108.htm",
    "latlng": "[36.4774536, 139.629877]",
    "lat": 36.4774536,
    "lng": 139.629877,
    "isClosed": ""
  },
  {
    "id": "tochigi-museum-53",
    "type": "museum",
    "name": "星野遺跡記念館【休館中】",
    "prefecture": "栃木県",
    "postCode": "328-0201",
    "address": "栃木県栃木市星野町山口392－4",
    "city": "とちぎ",
    "image": "",
    "url": "https://www.tochigi-kankou.or.jp/spot/hoshino-isekikinenkan",
    "latlng": "[36.4779833, 139.6350078]",
    "lat": 36.4779833,
    "lng": 139.6350078,
    "isClosed": ""
  },
  {
    "id": "tochigi-museum-54",
    "type": "museum",
    "name": "木の葉化石園",
    "prefecture": "栃木県",
    "postCode": "329-2924",
    "address": "栃木県塩原町中塩原472",
    "city": "しおばら",
    "image": "",
    "url": "http://www.konohaisi.jp/",
    "latlng": "[36.9808764, 139.8066946]",
    "lat": 36.9808764,
    "lng": 139.8066946,
    "isClosed": ""
  },
  {
    "id": "tochigi-museum-55",
    "type": "museum",
    "name": "東京大学理学部附属植物園日光分園",
    "prefecture": "栃木県",
    "postCode": "321-1435",
    "address": "栃木県日光市花石町1842",
    "city": "にっこう",
    "image": "",
    "url": "http://www.bg.s.u-tokyo.ac.jp/nikko/",
    "latlng": "[36.7504703, 139.5861987]",
    "lat": 36.7504703,
    "lng": 139.5861987,
    "isClosed": ""
  },
  {
    "id": "tochigi-museum-56",
    "type": "museum",
    "name": "東武ワールドスクウェア",
    "prefecture": "栃木県",
    "postCode": "321-2522",
    "address": "栃木県日光市鬼怒川温泉大原209-1",
    "city": "にっこう",
    "image": "",
    "url": "http://www.tobuws.co.jp/",
    "latlng": "[36.8078091, 139.7126636]",
    "lat": 36.8078091,
    "lng": 139.7126636,
    "isClosed": ""
  },
  {
    "id": "tochigi-museum-57",
    "type": "museum",
    "name": "松村記念館",
    "prefecture": "栃木県",
    "postCode": "326-0812",
    "address": "栃木県足利市大門通２３８０",
    "city": "あしかが",
    "image": "",
    "url": "http://www.watarase.ne.jp/matsumura/",
    "latlng": "[36.3356529, 139.4517044]",
    "lat": 36.3356529,
    "lng": 139.4517044,
    "isClosed": ""
  },
  {
    "id": "tochigi-museum-58",
    "type": "museum",
    "name": "板室自然遊学センター",
    "prefecture": "栃木県",
    "postCode": "325-0115",
    "address": "栃木県那須塩原市百村3090-6",
    "city": "なすしおばら",
    "image": "",
    "url": "http://www.city.nasushiobara.lg.jp/icity/browser?ActionCode=content&ContentID=1142662690374&SiteID=0&ParentGenre=1141114332262",
    "latlng": "[37.0642451, 139.9230602]",
    "lat": 37.0642451,
    "lng": 139.9230602,
    "isClosed": ""
  },
  {
    "id": "tochigi-museum-59",
    "type": "museum",
    "name": "栃木市皆川地区公民館 郷土資料展示室",
    "prefecture": "栃木県",
    "postCode": "328-0067",
    "address": "栃木県栃木市皆川城内町699",
    "city": "とちぎ",
    "image": "",
    "url": "http://www.city.tochigi.lg.jp/hp/page000001000/hpg000000096.htm",
    "latlng": "[36.3947802, 139.6820945]",
    "lat": 36.3947802,
    "lng": 139.6820945,
    "isClosed": ""
  },
  {
    "id": "tochigi-museum-60",
    "type": "museum",
    "name": "栃木市藤岡歴史民俗資料館",
    "prefecture": "栃木県",
    "postCode": "323-1104",
    "address": "栃木県藤岡町藤岡812",
    "city": "ふじおか",
    "image": "",
    "url": "http://www.city.tochigi.lg.jp/hp/page000005000/hpg000004322.htm",
    "latlng": "[36.2667712, 139.6516039]",
    "lat": 36.2667712,
    "lng": 139.6516039,
    "isClosed": ""
  },
  {
    "id": "tochigi-museum-61",
    "type": "museum",
    "name": "栃木市郷土参考館",
    "prefecture": "栃木県",
    "postCode": "328-0037",
    "address": "栃木県栃木市倭町4-18",
    "city": "とちぎ",
    "image": "",
    "url": "http://www.city.tochigi.lg.jp/hp/page000001000/hpg000000100.htm",
    "latlng": "[36.3798907, 139.7331499]",
    "lat": 36.3798907,
    "lng": 139.7331499,
    "isClosed": ""
  },
  {
    "id": "tochigi-museum-62",
    "type": "museum",
    "name": "栃木県 井頭公園 花ちょう遊館",
    "prefecture": "栃木県",
    "postCode": "321-4415",
    "address": "栃木県真岡市下籠谷99",
    "city": "もおか",
    "image": "",
    "url": "http://www.park-tochigi.com/igashira/",
    "latlng": "[36.49057800000001, 140.0001002]",
    "lat": 36.49057800000001,
    "lng": 140.0001002,
    "isClosed": ""
  },
  {
    "id": "tochigi-museum-63",
    "type": "museum",
    "name": "栃木県交通安全教育センター",
    "prefecture": "栃木県",
    "postCode": "322-0017",
    "address": "栃木県鹿沼市下石川681",
    "city": "かぬま",
    "image": "",
    "url": "http://www.tochigi-ankyo.or.jp/kyoiku/ko_kyoiku.html",
    "latlng": "[36.5087214, 139.8018674]",
    "lat": 36.5087214,
    "lng": 139.8018674,
    "isClosed": ""
  },
  {
    "id": "tochigi-museum-64",
    "type": "museum",
    "name": "栃木県子ども総合科学館",
    "prefecture": "栃木県",
    "postCode": "321-0151",
    "address": "栃木県宇都宮市西川田町567",
    "city": "うつのみや",
    "image": "",
    "url": "http://www.tsm.utsunomiya.tochigi.jp/",
    "latlng": "[36.5137229, 139.8372217]",
    "lat": 36.5137229,
    "lng": 139.8372217,
    "isClosed": ""
  },
  {
    "id": "tochigi-museum-65",
    "type": "museum",
    "name": "栃木県県民の森・森林展示館",
    "prefecture": "栃木県",
    "postCode": "329-2514",
    "address": "栃木県矢板市長井2927",
    "city": "やいた",
    "image": "",
    "url": "http://xn--u9j241o17birq.tochigi.jp/",
    "latlng": "[36.86324159999999, 139.8345991]",
    "lat": 36.86324159999999,
    "lng": 139.8345991,
    "isClosed": ""
  },
  {
    "id": "tochigi-museum-66",
    "type": "museum",
    "name": "栃木県立なす風土記の丘資料館",
    "prefecture": "栃木県",
    "postCode": "324-0501",
    "address": "栃木県那珂川町小川3789",
    "city": "なかがわ",
    "image": "",
    "url": "http://www.nasufudoki.com/",
    "latlng": "[36.7799759, 140.1077999]",
    "lat": 36.7799759,
    "lng": 140.1077999,
    "isClosed": ""
  },
  {
    "id": "tochigi-museum-67",
    "type": "museum",
    "name": "栃木県立文書館",
    "prefecture": "栃木県",
    "postCode": "320-8501",
    "address": "栃木県宇都宮市塙田1-1-20",
    "city": "うつのみや",
    "image": "",
    "url": "http://www.pref.tochigi.lg.jp/m58/education/bunka/monjyokan/1183680193408.html",
    "latlng": "[36.5666335, 139.8829376]",
    "lat": 36.5666335,
    "lng": 139.8829376,
    "isClosed": ""
  },
  {
    "id": "tochigi-museum-68",
    "type": "museum",
    "name": "屋台のまち中央公園",
    "prefecture": "栃木県",
    "postCode": "322-0052",
    "address": "栃木県鹿沼市銀座1丁目1870-1",
    "city": "かぬま",
    "image": "",
    "url": "http://www.kanuma-kanko.jp/",
    "latlng": "[36.5658607, 139.7480514]",
    "lat": 36.5658607,
    "lng": 139.7480514,
    "isClosed": ""
  },
  {
    "id": "tochigi-museum-69",
    "type": "museum",
    "name": "山本有三ふるさと記念館",
    "prefecture": "栃木県",
    "postCode": "328-0015",
    "address": "栃木県栃木市万町5－3",
    "city": "とちぎ",
    "image": "",
    "url": "http://www.cc9.ne.jp/~yamamotoyuuzou/top.html",
    "latlng": "[36.381041, 139.7343673]",
    "lat": 36.381041,
    "lng": 139.7343673,
    "isClosed": ""
  },
  {
    "id": "tochigi-museum-70",
    "type": "museum",
    "name": "岡田門記念館",
    "prefecture": "栃木県",
    "postCode": "328-0072",
    "address": "栃木県栃木市嘉右衛門町1－12",
    "city": "とちぎ",
    "image": "",
    "url": "",
    "latlng": "[36.386095, 139.7333792]",
    "lat": 36.386095,
    "lng": 139.7333792,
    "isClosed": ""
  },
  {
    "id": "tochigi-museum-71",
    "type": "museum",
    "name": "岩舟石の資料館",
    "prefecture": "栃木県",
    "postCode": "329-4301",
    "address": "栃木県栃木市岩舟町鷲巣500-15",
    "city": "とちぎ",
    "image": "",
    "url": "https://www.city.tochigi.lg.jp/site/culture/1578.html",
    "latlng": "[36.3268882, 139.6598469]",
    "lat": 36.3268882,
    "lng": 139.6598469,
    "isClosed": ""
  },
  {
    "id": "tochigi-museum-72",
    "type": "museum",
    "name": "市貝町立歴史民俗資料館",
    "prefecture": "栃木県",
    "postCode": "321-3423",
    "address": "栃木県市貝町市塙147",
    "city": "いちかい",
    "image": "",
    "url": "http://www.library.ichikai.tochigi.jp/htm/history.htm",
    "latlng": "[36.5288146, 140.0916931]",
    "lat": 36.5288146,
    "lng": 140.0916931,
    "isClosed": ""
  },
  {
    "id": "tochigi-museum-73",
    "type": "museum",
    "name": "日光・鬼怒川３Ｄ宇宙・恐竜館",
    "prefecture": "栃木県",
    "postCode": "321-2525",
    "address": "栃木県日光市小佐越1－83",
    "city": "にっこう",
    "image": "",
    "url": "http://3d-nikko.com/",
    "latlng": "[36.7871832, 139.70257]",
    "lat": 36.7871832,
    "lng": 139.70257,
    "isClosed": ""
  },
  {
    "id": "tochigi-museum-74",
    "type": "museum",
    "name": "日光国立公園那須平成の森フィールドセンター",
    "prefecture": "栃木県",
    "postCode": "325-0302",
    "address": "栃木県那須郡那須町高久丙3254",
    "city": "なす",
    "image": "",
    "url": "https://nasuheisei-f.jp/",
    "latlng": "[37.11741250000001, 140.0084366]",
    "lat": 37.11741250000001,
    "lng": 140.0084366,
    "isClosed": ""
  },
  {
    "id": "tochigi-museum-75",
    "type": "museum",
    "name": "日光山輪王寺宝物殿",
    "prefecture": "栃木県",
    "postCode": "321-1431",
    "address": "栃木県日光市山内2300",
    "city": "にっこう",
    "image": "",
    "url": "http://www.rinnoji.or.jp/keidai/homotu/homotu.html",
    "latlng": "[36.7555847, 139.6001418]",
    "lat": 36.7555847,
    "lng": 139.6001418,
    "isClosed": ""
  },
  {
    "id": "tochigi-museum-76",
    "type": "museum",
    "name": "日光市歴史民俗資料館",
    "prefecture": "栃木県",
    "postCode": "321-1262",
    "address": "栃木県日光市中央町29番地1",
    "city": "にっこう",
    "image": "",
    "url": "http://www.city.nikko.lg.jp/shiryoukan/guide/kyouiku/shiryoukan/index.html",
    "latlng": "[36.72072259999999, 139.6896569]",
    "lat": 36.72072259999999,
    "lng": 139.6896569,
    "isClosed": ""
  },
  {
    "id": "tochigi-museum-77",
    "type": "museum",
    "name": "日光東照宮宝物館",
    "prefecture": "栃木県",
    "postCode": "321-1431",
    "address": "栃木県日光市山内2280",
    "city": "にっこう",
    "image": "",
    "url": "http://www.toshogu.jp/shisetsu/houmotsu.html",
    "latlng": "[36.7548955, 139.597037]",
    "lat": 36.7548955,
    "lng": 139.597037,
    "isClosed": ""
  },
  {
    "id": "tochigi-museum-78",
    "type": "museum",
    "name": "日光江戸村",
    "prefecture": "栃木県",
    "postCode": "321-2524",
    "address": "栃木県藤原町柄倉470-2",
    "city": "にっこう",
    "image": "",
    "url": "http://www.edowonderland.net/html/ja/index.html",
    "latlng": "[36.7945772, 139.6974693]",
    "lat": 36.7945772,
    "lng": 139.6974693,
    "isClosed": ""
  },
  {
    "id": "tochigi-museum-79",
    "type": "museum",
    "name": "日光田母沢御用邸記念公園",
    "prefecture": "栃木県",
    "postCode": "321-1434",
    "address": "栃木県日光市本町8-27",
    "city": "にっこう",
    "image": "",
    "url": "http://www.park-tochigi.com/tamozawa/",
    "latlng": "[36.7532215, 139.5917591]",
    "lat": 36.7532215,
    "lng": 139.5917591,
    "isClosed": ""
  },
  {
    "id": "tochigi-museum-80",
    "type": "museum",
    "name": "日本両棲類研究所",
    "prefecture": "栃木県",
    "postCode": "321-1661",
    "address": "栃木県日光市中宮祠2484",
    "city": "にっこう",
    "image": "",
    "url": "https://www.nikko-academy.jp/japan-amphibian-laboratory/",
    "latlng": "[36.7413731, 139.48664]",
    "lat": 36.7413731,
    "lng": 139.48664,
    "isClosed": ""
  },
  {
    "id": "tochigi-museum-81",
    "type": "museum",
    "name": "日本人形博物館",
    "prefecture": "栃木県",
    "postCode": "321-0204",
    "address": "栃木県壬生町緑町4－1－25",
    "city": "みぶ",
    "image": "",
    "url": "",
    "latlng": "[36.4727209, 139.8289993]",
    "lat": 36.4727209,
    "lng": 139.8289993,
    "isClosed": ""
  },
  {
    "id": "tochigi-museum-82",
    "type": "museum",
    "name": "旧篠原家住宅",
    "prefecture": "栃木県",
    "postCode": "321-0966",
    "address": "栃木県宇都宮市今泉1－4－33",
    "city": "うつのみや",
    "image": "",
    "url": "http://www.city.utsunomiya.tochigi.jp/bunka/geijyutsu/002266.html",
    "latlng": "[36.5618252, 139.896905]",
    "lat": 36.5618252,
    "lng": 139.896905,
    "isClosed": ""
  },
  {
    "id": "tochigi-museum-83",
    "type": "museum",
    "name": "﻿塩谷町郷土資料館",
    "prefecture": "栃木県",
    "postCode": "329-2213",
    "address": "栃木県塩谷町熊ノ木987－2",
    "city": "しおや",
    "image": "",
    "url": "",
    "latlng": "[36.7864458, 139.8536739]",
    "lat": 36.7864458,
    "lng": 139.8536739,
    "isClosed": ""
  },
  {
    "id": "tochigi-museum-84",
    "type": "museum",
    "name": "壬生町おもちゃ博物館",
    "prefecture": "栃木県",
    "postCode": "321-0211",
    "address": "栃木県壬生町国谷2300",
    "city": "みぶ",
    "image": "",
    "url": "http://mibutoymuseum.com/",
    "latlng": "[36.4555853, 139.8062944]",
    "lat": 36.4555853,
    "lng": 139.8062944,
    "isClosed": ""
  },
  {
    "id": "tochigi-museum-85",
    "type": "museum",
    "name": "壬生町立歴史民俗資料館",
    "prefecture": "栃木県",
    "postCode": "321-0225",
    "address": "栃木県壬生町本丸1－8－33",
    "city": "みぶ",
    "image": "",
    "url": "http://www.town.mibu.tochigi.jp/map/sh22.html",
    "latlng": "[36.4287185, 139.7978386]",
    "lat": 36.4287185,
    "lng": 139.7978386,
    "isClosed": ""
  },
  {
    "id": "tochigi-museum-86",
    "type": "museum",
    "name": "大平町歴史民俗資料館・郷土資料館白石家「戸長屋敷」",
    "prefecture": "栃木県",
    "postCode": "329-4405",
    "address": "栃木県大平町西山田898－1",
    "city": "おおひら",
    "image": "",
    "url": "http://www.ohirarekimin.com/",
    "latlng": "[36.3513889, 139.6813667]",
    "lat": 36.3513889,
    "lng": 139.6813667,
    "isClosed": ""
  },
  {
    "id": "tochigi-museum-87",
    "type": "museum",
    "name": "大田原市なす風土記の丘湯津上資料館",
    "prefecture": "栃木県",
    "postCode": "324-0403",
    "address": "栃木県大田原市湯津上192",
    "city": "おおたわら",
    "image": "",
    "url": "http://www.city.ohtawara.tochigi.jp/docs/2013082772084/",
    "latlng": "[36.8117225, 140.1217916]",
    "lat": 36.8117225,
    "lng": 140.1217916,
    "isClosed": ""
  },
  {
    "id": "tochigi-museum-88",
    "type": "museum",
    "name": "大田原市ふれあいの丘自然観察館",
    "prefecture": "栃木県",
    "postCode": "324-0024",
    "address": "栃木県大田原市福原1411－22",
    "city": "おおたわら",
    "image": "",
    "url": "http://www.fureaino-oka.com/index.html",
    "latlng": "[36.8010402, 140.0487239]",
    "lat": 36.8010402,
    "lng": 140.0487239,
    "isClosed": ""
  },
  {
    "id": "tochigi-museum-89",
    "type": "museum",
    "name": "大田原市歴史民俗資料館",
    "prefecture": "栃木県",
    "postCode": "324-0403",
    "address": "栃木県大田原市湯津上194",
    "city": "おおたわら",
    "image": "",
    "url": "http://www.city.ohtawara.tochigi.jp/8%2C6048%2C31.html",
    "latlng": "[36.811901, 140.1222176]",
    "lat": 36.811901,
    "lng": 140.1222176,
    "isClosed": ""
  },
  {
    "id": "tochigi-museum-90",
    "type": "museum",
    "name": "大田原市那須与一伝承館",
    "prefecture": "栃木県",
    "postCode": "324‐0012",
    "address": "栃木県大田原市南金丸1584‐6",
    "city": "おおたわら",
    "image": "",
    "url": "",
    "latlng": "[36.8630621, 140.087342]",
    "lat": 36.8630621,
    "lng": 140.087342,
    "isClosed": ""
  },
  {
    "id": "tochigi-museum-91",
    "type": "museum",
    "name": "大畑武者繪資料館",
    "prefecture": "栃木県",
    "postCode": "321-3412",
    "address": "栃木県市貝町田野辺723",
    "city": "いちかい",
    "image": "",
    "url": "http://www.musyae.net/access.html",
    "latlng": "[36.5743974, 140.118207]",
    "lat": 36.5743974,
    "lng": 140.118207,
    "isClosed": ""
  },
  {
    "id": "tochigi-museum-92",
    "type": "museum",
    "name": "大谷資料館",
    "prefecture": "栃木県",
    "postCode": "321-0345",
    "address": "栃木県宇都宮市大谷町909",
    "city": "うつのみや",
    "image": "",
    "url": "http://www.oya909.co.jp/",
    "latlng": "[36.6000003, 139.8247789]",
    "lat": 36.6000003,
    "lng": 139.8247789,
    "isClosed": ""
  },
  {
    "id": "tochigi-museum-93",
    "type": "museum",
    "name": "大麻博物館",
    "prefecture": "栃木県",
    "postCode": "325-0303",
    "address": "栃木県那須郡那須町高久乙1-5",
    "city": "なす",
    "image": "",
    "url": "https://taimahak.jp/",
    "latlng": "[37.0216551, 140.0286595]",
    "lat": 37.0216551,
    "lng": 140.0286595,
    "isClosed": ""
  },
  {
    "id": "tochigi-museum-94",
    "type": "museum",
    "name": "太平記館",
    "prefecture": "栃木県",
    "postCode": "326-0053",
    "address": "栃木県足利市伊勢町3－6－4",
    "city": "あしかが",
    "image": "",
    "url": "http://www.city.ashikaga.tochigi.jp/page/kankou-taiheikikan.html",
    "latlng": "[36.3350749, 139.4541441]",
    "lat": 36.3350749,
    "lng": 139.4541441,
    "isClosed": ""
  },
  {
    "id": "tochigi-museum-95",
    "type": "museum",
    "name": "宇都宮駐屯地　防衛資料館",
    "prefecture": "栃木県",
    "postCode": "321-0145",
    "address": "栃木県宇都宮市茂原1－5－45",
    "city": "うつのみや",
    "image": "",
    "url": "http://www.mod.go.jp/gsdf/eae/12b/04STAsyoukai/0403utsunomiya/utsunomiya3.htm",
    "latlng": "[36.4779528, 139.8706073]",
    "lat": 36.4779528,
    "lng": 139.8706073,
    "isClosed": ""
  },
  {
    "id": "tochigi-museum-96",
    "type": "museum",
    "name": "小川町郷土館",
    "prefecture": "栃木県",
    "postCode": "324-0501",
    "address": "栃木県那珂川町小川2524-1",
    "city": "なかがわ",
    "image": "",
    "url": "",
    "latlng": "[36.7647304, 140.12972]",
    "lat": 36.7647304,
    "lng": 140.12972,
    "isClosed": ""
  },
  {
    "id": "tochigi-museum-97",
    "type": "museum",
    "name": "﻿ワグナー・ナンドール　アートギャラリー",
    "prefecture": "栃木県",
    "postCode": "321-4217",
    "address": "栃木県芳賀郡益子町益子4338",
    "city": "ましこ",
    "image": "",
    "url": "http://wagnernandor.com/indexj.htm",
    "latlng": "[36.4638483, 140.1100057]",
    "lat": 36.4638483,
    "lng": 140.1100057,
    "isClosed": ""
  },
  {
    "id": "tochigi-museum-98",
    "type": "museum",
    "name": "上河内民俗資料館",
    "prefecture": "栃木県",
    "postCode": "321-0414",
    "address": "栃木県宇都宮市中里町198-2",
    "city": "うつのみや",
    "image": "",
    "url": "http://st0011.nas931.utsunomiya.nttpc.ne.jp/ext/ev_kamimin.html",
    "latlng": "[36.68084959999999, 139.9012176]",
    "lat": 36.68084959999999,
    "lng": 139.9012176,
    "isClosed": ""
  },
  {
    "id": "tochigi-museum-99",
    "type": "museum",
    "name": "下野国庁跡資料館",
    "prefecture": "栃木県",
    "postCode": "328-0004",
    "address": "栃木県栃木市田村町300",
    "city": "とちぎ",
    "image": "",
    "url": "http://www.city.tochigi.lg.jp/hp/page000005000/hpg000004906.htm",
    "latlng": "[36.3806152, 139.7849839]",
    "lat": 36.3806152,
    "lng": 139.7849839,
    "isClosed": ""
  },
  {
    "id": "tochigi-museum-100",
    "type": "museum",
    "name": "下野市下野薬師寺歴史館（歴史の広場）",
    "prefecture": "栃木県",
    "postCode": "329-0431",
    "address": "栃木県下野市薬師寺1635",
    "city": "しもつけ",
    "image": "",
    "url": "http://www.city.shimotsuke.lg.jp/hp/page000005700/hpg000005619.htm",
    "latlng": "[36.4008669, 139.8743668]",
    "lat": 36.4008669,
    "lng": 139.8743668,
    "isClosed": ""
  },
  {
    "id": "tochigi-museum-101",
    "type": "museum",
    "name": "乃木神社宝物館",
    "prefecture": "栃木県",
    "postCode": "329-2711",
    "address": "栃木県那須塩原市石林795",
    "city": "なすしおばら",
    "image": "",
    "url": "http://www.nasu-nogijinja.jp/",
    "latlng": "[36.8877861, 140.0019011]",
    "lat": 36.8877861,
    "lng": 140.0019011,
    "isClosed": ""
  },
  {
    "id": "tochigi-museum-102",
    "type": "museum",
    "name": "二宮尊徳資料館",
    "prefecture": "栃木県",
    "postCode": "321-4502",
    "address": "栃木県真岡市物井2013-2",
    "city": "もおか",
    "image": "",
    "url": "http://www.city.moka.tochigi.jp/sontoku/",
    "latlng": "[36.4079822, 140.0154619]",
    "lat": 36.4079822,
    "lng": 140.0154619,
    "isClosed": ""
  },
  {
    "id": "tochigi-museum-103",
    "type": "museum",
    "name": "仲町屋台公園　屋台展示収蔵庫",
    "prefecture": "栃木県",
    "postCode": "322-0053",
    "address": "栃木県鹿沼市仲町1610－1",
    "city": "かぬま",
    "image": "",
    "url": "http://www.city.kanuma.tochigi.jp/12",
    "latlng": "[36.5646566, 139.7463124]",
    "lat": 36.5646566,
    "lng": 139.7463124,
    "isClosed": ""
  },
  {
    "id": "tochigi-museum-104",
    "type": "museum",
    "name": "仲附の旅籠",
    "prefecture": "栃木県",
    "postCode": "321-2521",
    "address": "栃木県日光市藤原19",
    "city": "にっこう",
    "image": "",
    "url": "",
    "latlng": "[36.870667, 139.7422107]",
    "lat": 36.870667,
    "lng": 139.7422107,
    "isClosed": ""
  },
  {
    "id": "tochigi-museum-105",
    "type": "museum",
    "name": "佐野市葛生伝承館",
    "prefecture": "栃木県",
    "postCode": "327-0501",
    "address": "栃木県佐野市葛生東1-11-26",
    "city": "さの",
    "image": "",
    "url": "http://www.city.sano.lg.jp/densyoukan/index.htm",
    "latlng": "[36.4011847, 139.6120283]",
    "lat": 36.4011847,
    "lng": 139.6120283,
    "isClosed": ""
  },
  {
    "id": "tochigi-museum-106",
    "type": "museum",
    "name": "佐野市葛生化石館",
    "prefecture": "栃木県",
    "postCode": "327-0501",
    "address": "栃木県佐野市葛生東1-11-15 佐野市葛生文化センター1F",
    "city": "さの",
    "image": "",
    "url": "http://www.city.sano.lg.jp/kuzuufossil/",
    "latlng": "[36.4013792, 139.6113342]",
    "lat": 36.4013792,
    "lng": 139.6113342,
    "isClosed": ""
  },
  {
    "id": "tochigi-museum-107",
    "type": "museum",
    "name": "児童文学舎千葉省三記念館",
    "prefecture": "栃木県",
    "postCode": "322-0526",
    "address": "栃木県鹿沼市楡木町492－2",
    "city": "かぬま",
    "image": "",
    "url": "http://www.kanuma-kanko.jp/miru/culture_details6.shtml",
    "latlng": "[36.5063521, 139.7506939]",
    "lat": 36.5063521,
    "lng": 139.7506939,
    "isClosed": ""
  },
  {
    "id": "tochigi-museum-108",
    "type": "museum",
    "name": "南那須歴史民俗資料館",
    "prefecture": "栃木県",
    "postCode": "321-0526",
    "address": "栃木県那須烏山市田野倉225",
    "city": "なすからすやま",
    "image": "",
    "url": "http://www.city.nasukarasuyama.lg.jp/9",
    "latlng": "[36.6605733, 140.0899705]",
    "lat": 36.6605733,
    "lng": 140.0899705,
    "isClosed": ""
  },
  {
    "id": "tochigi-museum-109",
    "type": "museum",
    "name": "史跡足利学校",
    "prefecture": "栃木県",
    "postCode": "326-0813",
    "address": "栃木県足利市昌平町2338",
    "city": "あしかが",
    "image": "",
    "url": "http://www.ashikagagakko.jp/",
    "latlng": "[36.335925, 139.453631]",
    "lat": 36.335925,
    "lng": 139.453631,
    "isClosed": ""
  },
  {
    "id": "tochigi-museum-110",
    "type": "museum",
    "name": "国際通信史料館",
    "prefecture": "栃木県",
    "postCode": "323-0827",
    "address": "栃木県小山市神鳥谷1828",
    "city": "おやま",
    "image": "",
    "url": "",
    "latlng": "[36.2876941, 139.8005541]",
    "lat": 36.2876941,
    "lng": 139.8005541,
    "isClosed": ""
  },
  {
    "id": "tochigi-museum-111",
    "type": "museum",
    "name": "﻿「氣」の博物館",
    "prefecture": "栃木県",
    "postCode": "321-3426",
    "address": "栃木県市貝町赤羽3781－1",
    "city": "いちかい",
    "image": "",
    "url": "",
    "latlng": "[36.5323595, 140.0652518]",
    "lat": 36.5323595,
    "lng": 140.0652518,
    "isClosed": ""
  },
  {
    "id": "tochigi-museum-112",
    "type": "museum",
    "name": "あだち好古館",
    "prefecture": "栃木県",
    "postCode": "328-0015",
    "address": "栃木県栃木市万町4－2",
    "city": "とちぎ",
    "image": "",
    "url": "http://www1.ttcn.ne.jp/adachi/",
    "latlng": "[36.3805203, 139.7342395]",
    "lat": 36.3805203,
    "lng": 139.7342395,
    "isClosed": ""
  },
  {
    "id": "tochigi-museum-113",
    "type": "museum",
    "name": "うつのみや妖精ミュージアム",
    "prefecture": "栃木県",
    "postCode": "320-0026",
    "address": "栃木県宇都宮市馬場通り4－1－1 うつのみや表参道スクエア内　市民プラザ5階",
    "city": "うつのみや",
    "image": "",
    "url": "http://www2.ucatv.ne.jp/~ufairy-m/",
    "latlng": "[36.5614978, 139.8864345]",
    "lat": 36.5614978,
    "lng": 139.8864345,
    "isClosed": ""
  },
  {
    "id": "tochigi-museum-114",
    "type": "museum",
    "name": "うつのみや遺跡の広場",
    "prefecture": "栃木県",
    "postCode": "320-0855",
    "address": "栃木県宇都宮市上欠町151",
    "city": "うつのみや",
    "image": "",
    "url": "http://www.city.utsunomiya.tochigi.jp/bunka/geijyutsu/004567.html",
    "latlng": "[36.5356871, 139.8325913]",
    "lat": 36.5356871,
    "lng": 139.8325913,
    "isClosed": ""
  },
  {
    "id": "tochigi-museum-115",
    "type": "museum",
    "name": "うるし博物館",
    "prefecture": "栃木県",
    "postCode": "321-1421",
    "address": "栃木県日光市小倉山2829 (株)小西美術工藝社付属",
    "city": "にっこう",
    "image": "",
    "url": "http://www.urushimuseum.jp/annai.htm",
    "latlng": "[36.756141, 139.6157456]",
    "lat": 36.756141,
    "lng": 139.6157456,
    "isClosed": ""
  },
  {
    "id": "tochigi-museum-116",
    "type": "museum",
    "name": "お菓子の城とお花の城 那須ハートランド",
    "prefecture": "栃木県",
    "postCode": "325-0001",
    "address": "栃木県那須町高久甲4588－10",
    "city": "なす",
    "image": "",
    "url": "http://www.okashinoshiro.co.jp/index.shtml",
    "latlng": "[37.017219, 140.0321613]",
    "lat": 37.017219,
    "lng": 140.0321613,
    "isClosed": ""
  },
  {
    "id": "tochigi-museum-117",
    "type": "museum",
    "name": "さむらい刀剣博物館",
    "prefecture": "栃木県",
    "postCode": "321-4506",
    "address": "栃木県真岡市大根田20-9",
    "city": "もおか",
    "image": "",
    "url": "http://www.d2.dion.ne.jp/~meitou/samurai.html",
    "latlng": "[36.3711049, 139.9806515]",
    "lat": 36.3711049,
    "lng": 139.9806515,
    "isClosed": ""
  },
  {
    "id": "tochigi-museum-118",
    "type": "museum",
    "name": "しもつけ風土記の丘資料館",
    "prefecture": "栃木県",
    "postCode": "329-0416",
    "address": "栃木県下野市国分993",
    "city": "しもつけ",
    "image": "",
    "url": "http://www.shimotsuke-f.jp/",
    "latlng": "[36.3952201, 139.8519657]",
    "lat": 36.3952201,
    "lng": 139.8519657,
    "isClosed": ""
  },
  {
    "id": "tochigi-museum-119",
    "type": "museum",
    "name": "スーパースター博物館",
    "prefecture": "栃木県",
    "postCode": "325-0001",
    "address": "栃木県那須町高久甲4238-1 リゾートショッピングパーク661st",
    "city": "なす",
    "image": "",
    "url": "http://www2a.biglobe.ne.jp/nasu/art/star/index.html",
    "latlng": "[37.00747, 140.032036]",
    "lat": 37.00747,
    "lng": 140.032036,
    "isClosed": ""
  },
  {
    "id": "tochigi-museum-120",
    "type": "museum",
    "name": "とちぎ山車会館",
    "prefecture": "栃木県",
    "postCode": "328-0015",
    "address": "栃木県栃木市万町3－23",
    "city": "とちぎ",
    "image": "",
    "url": "http://www.city.tochigi.lg.jp/hp/page000005000/hpg000004887.htm",
    "latlng": "[36.3809931, 139.7333694]",
    "lat": 36.3809931,
    "lng": 139.7333694,
    "isClosed": ""
  },
  {
    "id": "tochigi-museum-121",
    "type": "museum",
    "name": "とちぎ明治の森記念館 旧青木家那須別邸",
    "prefecture": "栃木県",
    "postCode": "325-0103",
    "address": "栃木県那須塩原市青木27",
    "city": "なすしおばら",
    "image": "",
    "url": "http://www.city.nasushiobara.lg.jp/kankou/2201/002965.html",
    "latlng": "[36.9986469, 140.0067556]",
    "lat": 36.9986469,
    "lng": 140.0067556,
    "isClosed": ""
  },
  {
    "id": "tochigi-museum-122",
    "type": "museum",
    "name": "ホログラフィーアート館",
    "prefecture": "栃木県",
    "postCode": "321-2525",
    "address": "栃木県日光市小佐越1－4",
    "city": "にっこう",
    "image": "",
    "url": "",
    "latlng": "[36.7890555, 139.7017873]",
    "lat": 36.7890555,
    "lng": 139.7017873,
    "isClosed": ""
  },
  {
    "id": "tochigi-museum-123",
    "type": "museum",
    "name": "ホンダコレクションホール",
    "prefecture": "栃木県",
    "postCode": "321-3597",
    "address": "栃木県茂木町桧山120－1 ツインリンクもてぎ内",
    "city": "もてぎ",
    "image": "",
    "url": "http://www.honda.co.jp/sou50/Hworld/Hall/",
    "latlng": "[36.531954, 140.2253966]",
    "lat": 36.531954,
    "lng": 140.2253966,
    "isClosed": ""
  }
]