[
  {
    "id": "fukuoka-art-1",
    "type": "art",
    "name": "出光美術館（門司）",
    "prefecture": "福岡県",
    "postCode": "801-0853",
    "address": "福岡県北九州市門司区東港町2−3",
    "city": "きたきゅうしゅう",
    "image": "",
    "url": "http://s-idemitsu-mm.or.jp/",
    "latlng": "",
    "lat": "",
    "lng": "",
    "isClosed": ""
  },
  {
    "id": "fukuoka-art-2",
    "type": "art",
    "name": "北九州市立美術館",
    "prefecture": "福岡県",
    "postCode": "804-0024",
    "address": "福岡県北九州市戸畑区西鞘ケ谷町21−1",
    "city": "きたきゅうしゅう",
    "image": "",
    "url": "https://kmma.jp/",
    "latlng": "",
    "lat": "",
    "lng": "",
    "isClosed": ""
  },
  {
    "id": "fukuoka-art-3",
    "type": "art",
    "name": "福岡アジア美術館",
    "prefecture": "福岡県",
    "postCode": "812-0027",
    "address": "福岡県福岡市博多区下川端町3−1 7・8F",
    "city": "ふくおか",
    "image": "",
    "url": "https://faam.city.fukuoka.lg.jp/",
    "latlng": "",
    "lat": "",
    "lng": "",
    "isClosed": ""
  },
  {
    "id": "fukuoka-art-4",
    "type": "art",
    "name": "福岡県立美術館",
    "prefecture": "福岡県",
    "postCode": "810-0001",
    "address": "福岡県福岡市中央区天神5丁目2−1",
    "city": "ふくおか",
    "image": "",
    "url": "https://fukuoka-kenbi.jp/",
    "latlng": "",
    "lat": "",
    "lng": "",
    "isClosed": ""
  },
  {
    "id": "fukuoka-art-5",
    "type": "art",
    "name": "福岡市美術館",
    "prefecture": "福岡県",
    "postCode": "810-0051",
    "address": "福岡県福岡市中央区大濠公園1−6",
    "city": "ふくおか",
    "image": "",
    "url": "https://www.fukuoka-art-museum.jp/",
    "latlng": "",
    "lat": "",
    "lng": "",
    "isClosed": ""
  },
  {
    "id": "fukuoka-art-6",
    "type": "art",
    "name": "秋月美術館",
    "prefecture": "福岡県",
    "postCode": "838-0011",
    "address": "福岡県朝倉市秋月野鳥695−1",
    "city": "あさくら",
    "image": "",
    "url": "http://akizuki-foundation.or.jp/museum",
    "latlng": "",
    "lat": "",
    "lng": "",
    "isClosed": ""
  },
  {
    "id": "fukuoka-art-7",
    "type": "art",
    "name": "久留米市美術館　石橋正二郎記念館",
    "prefecture": "福岡県",
    "postCode": "839-0862",
    "address": "福岡県久留米市野中町1015",
    "city": "くるめ",
    "image": "",
    "url": "https://www.ishibashi-bunka.jp/kcam/",
    "latlng": "",
    "lat": "",
    "lng": "",
    "isClosed": ""
  },
  {
    "id": "fukuoka-art-8",
    "type": "art",
    "name": "九州産業大学美術館",
    "prefecture": "福岡県",
    "postCode": "813-0004",
    "address": "福岡県福岡市東区松香台2丁目7−1 15号館",
    "city": "ふくおか",
    "image": "",
    "url": "https://www.kyusan-u.ac.jp/ksumuseum/",
    "latlng": "",
    "lat": "",
    "lng": "",
    "isClosed": ""
  }
]