[
  {
    "id": "fukuoka-museum-1",
    "type": "museum",
    "name": "朝倉市秋月博物館",
    "prefecture": "福岡県",
    "postCode": "838-0011",
    "address": "福岡県朝倉市秋月野鳥532",
    "city": "あさくら",
    "image": "",
    "url": "https://www.city.asakura.lg.jp/www/contents/1398210163709/index.html",
    "latlng": "",
    "lat": "",
    "lng": "",
    "isClosed": ""
  },
  {
    "id": "fukuoka-museum-2",
    "type": "museum",
    "name": "糸島市立伊都国歴史博物館",
    "prefecture": "福岡県",
    "postCode": "819-1582",
    "address": "福岡県糸島市井原916",
    "city": "いとしま",
    "image": "",
    "url": "https://www.city.itoshima.lg.jp/m043/010/index.html",
    "latlng": "",
    "lat": "",
    "lng": "",
    "isClosed": ""
  },
  {
    "id": "fukuoka-museum-3",
    "type": "museum",
    "name": "古賀政男音楽博物館分館古賀政男記念館",
    "prefecture": "福岡県",
    "postCode": "151-0064",
    "address": "東京都渋谷区上原3丁目6−12",
    "city": "しぶや",
    "image": "",
    "url": "https://www.city.okawa.lg.jp/090/050/010/",
    "latlng": "",
    "lat": "",
    "lng": "",
    "isClosed": ""
  },
  {
    "id": "fukuoka-museum-4",
    "type": "museum",
    "name": "九州歴史資料館",
    "prefecture": "福岡県",
    "postCode": "838-0106",
    "address": "福岡県小郡市三沢5208−3",
    "city": "おごおり",
    "image": "",
    "url": "https://kyureki.jp/",
    "latlng": "",
    "lat": "",
    "lng": "",
    "isClosed": ""
  },
  {
    "id": "fukuoka-museum-5",
    "type": "museum",
    "name": "北九州市立自然史・歴史博物館（いのちのたび博物館）",
    "prefecture": "福岡県",
    "postCode": "805-0071",
    "address": "福岡県北九州市八幡東区東田2丁目4−1 北九州市立自然史・歴史博物館（いのちのたび博物館）",
    "city": "きたきゅうしゅう",
    "image": "",
    "url": "https://www.kmnh.jp/",
    "latlng": "",
    "lat": "",
    "lng": "",
    "isClosed": ""
  },
  {
    "id": "fukuoka-museum-6",
    "type": "museum",
    "name": "北九州市立松本清張記念館",
    "prefecture": "福岡県",
    "postCode": "803-0813",
    "address": "福岡県北九州市小倉北区城内2−3 松本清張記念館",
    "city": "きたきゅうしゅう",
    "image": "",
    "url": "https://www.seicho-mm.jp/",
    "latlng": "",
    "lat": "",
    "lng": "",
    "isClosed": ""
  },
  {
    "id": "fukuoka-museum-7",
    "type": "museum",
    "name": "鞍手町歴史民俗博物館",
    "prefecture": "福岡県",
    "postCode": "807-1311",
    "address": "福岡県鞍手郡鞍手町小牧2097",
    "city": "くらて",
    "image": "",
    "url": "https://www.crossroadfukuoka.jp/spot/14884",
    "latlng": "",
    "lat": "",
    "lng": "",
    "isClosed": ""
  },
  {
    "id": "fukuoka-museum-8",
    "type": "museum",
    "name": "田川市石炭・歴史博物館",
    "prefecture": "福岡県",
    "postCode": "825-0002",
    "address": "福岡県田川市伊田2734−1",
    "city": "たがわ",
    "image": "",
    "url": "https://www.joho.tagawa.fukuoka.jp/list00784.html",
    "latlng": "",
    "lat": "",
    "lng": "",
    "isClosed": ""
  },
  {
    "id": "fukuoka-museum-9",
    "type": "museum",
    "name": "太宰府天満宮宝物殿",
    "prefecture": "福岡県",
    "postCode": "818-0117",
    "address": "福岡県太宰府市宰府4丁目7−1",
    "city": "だざいふ",
    "image": "",
    "url": "https://keidai.art/houmotsuden",
    "latlng": "",
    "lat": "",
    "lng": "",
    "isClosed": ""
  },
  {
    "id": "fukuoka-museum-10",
    "type": "museum",
    "name": "筑紫野市歴史博物館（ふるさと館ちくしの）",
    "prefecture": "福岡県",
    "postCode": "818-0057",
    "address": "福岡県筑紫野市二日市南1丁目9−1",
    "city": "ちくしの",
    "image": "",
    "url": "https://www.city.chikushino.fukuoka.jp/soshiki/48/3550.html",
    "latlng": "",
    "lat": "",
    "lng": "",
    "isClosed": ""
  },
  {
    "id": "fukuoka-museum-11",
    "type": "museum",
    "name": "亀陽文庫　能古博物館",
    "prefecture": "福岡県",
    "postCode": "819-0012",
    "address": "福岡県福岡市西区能古522−2",
    "city": "ふくおか",
    "image": "",
    "url": "https://nokonoshima-museum.or.jp/",
    "latlng": "",
    "lat": "",
    "lng": "",
    "isClosed": ""
  },
  {
    "id": "fukuoka-museum-12",
    "type": "museum",
    "name": "福岡市博物館",
    "prefecture": "福岡県",
    "postCode": "814-0001",
    "address": "福岡県福岡市早良区百道浜3丁目1−1",
    "city": "ふくおか",
    "image": "",
    "url": "http://museum.city.fukuoka.jp/",
    "latlng": "",
    "lat": "",
    "lng": "",
    "isClosed": ""
  },
  {
    "id": "fukuoka-museum-13",
    "type": "museum",
    "name": "福岡市埋蔵文化財センター",
    "prefecture": "福岡県",
    "postCode": "812-0881",
    "address": "福岡県福岡市博多区井相田2丁目1−94",
    "city": "ふくおか",
    "image": "",
    "url": "https://www.city.fukuoka.lg.jp/maibun/html/",
    "latlng": "",
    "lat": "",
    "lng": "",
    "isClosed": ""
  },
  {
    "id": "fukuoka-museum-14",
    "type": "museum",
    "name": "みやこ町歴史民俗博物館",
    "prefecture": "福岡県",
    "postCode": "824-0121",
    "address": "福岡県京都郡みやこ町豊津1122−13",
    "city": "みやこ",
    "image": "",
    "url": "https://www.town.miyako.lg.jp/rekisiminnzoku/kankou/spot/hakubutukan.html",
    "latlng": "",
    "lat": "",
    "lng": "",
    "isClosed": ""
  },
  {
    "id": "fukuoka-museum-15",
    "type": "museum",
    "name": "立花家史料館",
    "prefecture": "福岡県",
    "postCode": "832-0069",
    "address": "福岡県柳川市新外町1",
    "city": "やながわ",
    "image": "",
    "url": "http://www.tachibana-museum.jp/",
    "latlng": "",
    "lat": "",
    "lng": "",
    "isClosed": ""
  },
  {
    "id": "fukuoka-museum-16",
    "type": "museum",
    "name": "小倉城庭園",
    "prefecture": "福岡県",
    "postCode": "803-0813",
    "address": "福岡県北九州市小倉北区城内1−2 北九州市立 小倉城庭園",
    "city": "きたきゅうしゅう",
    "image": "",
    "url": "https://www.kokura-castle.jp/kokura-garden/",
    "latlng": "",
    "lat": "",
    "lng": "",
    "isClosed": ""
  },
  {
    "id": "fukuoka-museum-17",
    "type": "museum",
    "name": "北九州市平和のまちミュージアム",
    "prefecture": "福岡県",
    "postCode": "803-0813",
    "address": "福岡県北九州市小倉北区城内4−4番10号",
    "city": "きたきゅうしゅう",
    "image": "",
    "url": "https://kitakyushu-peacemuseum.jp/",
    "latlng": "",
    "lat": "",
    "lng": "",
    "isClosed": ""
  },
  {
    "id": "fukuoka-museum-18",
    "type": "museum",
    "name": "北九州市漫画ミュージアム",
    "prefecture": "福岡県",
    "postCode": "802-0001",
    "address": "福岡県北九州市小倉北区浅野2丁目14−5 あるあるCity5階・6階",
    "city": "きたきゅうしゅう",
    "image": "",
    "url": "https://www.ktqmm.jp/",
    "latlng": "",
    "lat": "",
    "lng": "",
    "isClosed": ""
  },
  {
    "id": "fukuoka-museum-19",
    "type": "museum",
    "name": "北九州市立長崎街道木屋瀬宿記念館",
    "prefecture": "福岡県",
    "postCode": "807-1261",
    "address": "福岡県北九州市八幡西区木屋瀬3丁目16−26 長崎街道木屋瀬宿記念館",
    "city": "きたきゅうしゅう",
    "image": "",
    "url": "https://koyanose.jp/",
    "latlng": "",
    "lat": "",
    "lng": "",
    "isClosed": ""
  },
  {
    "id": "fukuoka-museum-20",
    "type": "museum",
    "name": "北九州市立文学館",
    "prefecture": "福岡県",
    "postCode": "803-0813",
    "address": "福岡県北九州市小倉北区城内4−1",
    "city": "きたきゅうしゅう",
    "image": "",
    "url": "https://www.kitakyushucity-bungakukan.jp/",
    "latlng": "",
    "lat": "",
    "lng": "",
    "isClosed": ""
  },
  {
    "id": "fukuoka-museum-21",
    "type": "museum",
    "name": "福岡県立糸島高等学校郷土博物館",
    "prefecture": "福岡県",
    "postCode": "819-1139",
    "address": "福岡県糸島市前原南2丁目21−1",
    "city": "いとしま",
    "image": "",
    "url": "http://itoshima.fku.ed.jp/html/museum.html",
    "latlng": "",
    "lat": "",
    "lng": "",
    "isClosed": ""
  },
  {
    "id": "fukuoka-museum-22",
    "type": "museum",
    "name": "福岡県青少年科学館",
    "prefecture": "福岡県",
    "postCode": "830-0003",
    "address": "福岡県久留米市東櫛原町1713",
    "city": "くるめ",
    "image": "",
    "url": "http://www.science.pref.fukuoka.jp/",
    "latlng": "",
    "lat": "",
    "lng": "",
    "isClosed": ""
  },
  {
    "id": "fukuoka-museum-23",
    "type": "museum",
    "name": "九州国立博物館",
    "prefecture": "福岡県",
    "postCode": "818-0118",
    "address": "福岡県太宰府市石坂4丁目7−2",
    "city": "だざいふ",
    "image": "",
    "url": "https://www.kyuhaku.jp/",
    "latlng": "",
    "lat": "",
    "lng": "",
    "isClosed": ""
  },
  {
    "id": "fukuoka-museum-24",
    "type": "museum",
    "name": "九州大学総合研究博物館",
    "prefecture": "福岡県",
    "postCode": "812-8581",
    "address": "福岡県福岡市東区箱崎6丁目10−1 九州大学旧工学部本館3階",
    "city": "ふくおか",
    "image": "",
    "url": "http://www.museum.kyushu-u.ac.jp/",
    "latlng": "",
    "lat": "",
    "lng": "",
    "isClosed": ""
  },
  {
    "id": "fukuoka-museum-25",
    "type": "museum",
    "name": "西南学院大学博物館",
    "prefecture": "福岡県",
    "postCode": "814-0002",
    "address": "福岡県福岡市早良区西新3丁目13−1",
    "city": "ふくおか",
    "image": "",
    "url": "http://www.seinan-gu.ac.jp/museum/",
    "latlng": "",
    "lat": "",
    "lng": "",
    "isClosed": ""
  },
  {
    "id": "fukuoka-museum-26",
    "type": "museum",
    "name": "福岡市動植物園",
    "prefecture": "福岡県",
    "postCode": "810-0037",
    "address": "福岡県福岡市中央区南公園1−1",
    "city": "ふくおか",
    "image": "",
    "url": "https://zoo.city.fukuoka.lg.jp/",
    "latlng": "",
    "lat": "",
    "lng": "",
    "isClosed": ""
  }
]