[
  {
    "id": "fukushima-art-1",
    "type": "art",
    "name": "いわき市立美術館",
    "prefecture": "福島県",
    "postCode": "970-8026",
    "address": "福島県いわき市平堂根町4−4",
    "city": "いわき",
    "image": "",
    "url": "http://www.city.iwaki.lg.jp/www/genre/1444022369394/index.html",
    "latlng": "[37.0517536, 140.8895717]",
    "lat": 37.0517536,
    "lng": 140.8895717,
    "isClosed": ""
  },
  {
    "id": "fukushima-art-2",
    "type": "art",
    "name": "郡山市立美術館",
    "prefecture": "福島県",
    "postCode": "963-0666",
    "address": "福島県郡山市安原町大谷地130−2",
    "city": "こおりやま",
    "image": "",
    "url": "https://www.city.koriyama.lg.jp/site/artmuseum/",
    "latlng": "[37.3928103, 140.4197542]",
    "lat": 37.3928103,
    "lng": 140.4197542,
    "isClosed": ""
  },
  {
    "id": "fukushima-art-3",
    "type": "art",
    "name": "諸橋近代美術館",
    "prefecture": "福島県",
    "postCode": "969-2701",
    "address": "福島県耶麻郡北塩原村檜原剣ケ峯1093−23",
    "city": "きたしおばら",
    "image": "",
    "url": "https://dali.jp/",
    "latlng": "[37.6538379, 140.0965291]",
    "lat": 37.6538379,
    "lng": 140.0965291,
    "isClosed": ""
  },
  {
    "id": "fukushima-art-4",
    "type": "art",
    "name": "福島県立美術館",
    "prefecture": "福島県",
    "postCode": "960-8003",
    "address": "福島県福島市森合西養山 1番地",
    "city": "ふくしま",
    "image": "",
    "url": "https://art-museum.fcs.ed.jp",
    "latlng": "[37.7682777, 140.457567]",
    "lat": 37.7682777,
    "lng": 140.457567,
    "isClosed": ""
  },
  {
    "id": "fukushima-art-5",
    "type": "art",
    "name": "龍が城美術館",
    "prefecture": "福島県",
    "postCode": "970-8026",
    "address": "福島県いわき市平旧城跡27−1",
    "city": "いわき",
    "image": "",
    "url": "",
    "latlng": "[37.0597162, 140.8904417]",
    "lat": 37.0597162,
    "lng": 140.8904417,
    "isClosed": ""
  },
  {
    "id": "fukushima-art-6",
    "type": "art",
    "name": "やないづ町立斎藤清美術館",
    "prefecture": "福島県",
    "postCode": "969-7201",
    "address": "福島県河沼郡柳津町柳津下平乙187",
    "city": "やないづ",
    "image": "",
    "url": "https://www.town.yanaizu.fukushima.jp/bijutsu/",
    "latlng": "[37.5284759, 139.7214945]",
    "lat": 37.5284759,
    "lng": 139.7214945,
    "isClosed": ""
  },
  {
    "id": "fukushima-art-7",
    "type": "art",
    "name": "はじまりの美術館",
    "prefecture": "福島県",
    "postCode": "969-3122",
    "address": "福島県耶麻郡猪苗代町新町4873",
    "city": "いなわしろ",
    "image": "",
    "url": "https://hajimari-ac.com/",
    "latlng": "[37.5634355, 140.1090374]",
    "lat": 37.5634355,
    "lng": 140.1090374,
    "isClosed": ""
  },
  {
    "id": "fukushima-art-8",
    "type": "art",
    "name": "飯坂明治・大正ガラス美術館",
    "prefecture": "福島県",
    "postCode": "960-0201",
    "address": "福島県福島市飯坂町小川端2－14",
    "city": "ふくしま",
    "image": "",
    "url": "http://www.hisuinosato.com/glass/",
    "latlng": "[37.8229351, 140.4528522]",
    "lat": 37.8229351,
    "lng": 140.4528522,
    "isClosed": ""
  },
  {
    "id": "fukushima-art-9",
    "type": "art",
    "name": "美術館藏",
    "prefecture": "福島県",
    "postCode": "979-0201",
    "address": "福島県いわき市四倉町田戸217",
    "city": "いわき",
    "image": "",
    "url": "",
    "latlng": "[37.1096727, 140.990237]",
    "lat": 37.1096727,
    "lng": 140.990237,
    "isClosed": ""
  },
  {
    "id": "fukushima-art-10",
    "type": "art",
    "name": "郷さくら美術館 郡山",
    "prefecture": "福島県",
    "postCode": "963-8017",
    "address": "福島県郡山市長者1-6-16",
    "city": "こおりやま",
    "image": "",
    "url": "http://www.satosakura.jp/",
    "latlng": "[37.3991213, 140.3664939]",
    "lat": 37.3991213,
    "lng": 140.3664939,
    "isClosed": ""
  },
  {
    "id": "fukushima-art-11",
    "type": "art",
    "name": "桑折町種徳美術館",
    "prefecture": "福島県",
    "postCode": "969-1617",
    "address": "福島県桑折町陣屋12",
    "city": "こおり",
    "image": "",
    "url": "",
    "latlng": "[37.84356234902201, 140.51847669999998]",
    "lat": 37.843562349022,
    "lng": 140.518476699999,
    "isClosed": ""
  },
  {
    "id": "fukushima-art-12",
    "type": "art",
    "name": "梁川美術館",
    "prefecture": "福島県",
    "postCode": "960-0782",
    "address": "福島県伊達市梁川町中町10",
    "city": "だて",
    "image": "",
    "url": "http://www.date-shi.jp/dtm2/musiua/museum-top1.htm",
    "latlng": "",
    "lat": "",
    "lng": "",
    "isClosed": ""
  },
  {
    "id": "fukushima-art-13",
    "type": "art",
    "name": "清郷美術館",
    "prefecture": "福島県",
    "postCode": "969-6116",
    "address": "福島県会津美里町瀬戸町3131－2",
    "city": "あいづみさと",
    "image": "",
    "url": "",
    "latlng": "[37.4515241, 139.8892535]",
    "lat": 37.4515241,
    "lng": 139.8892535,
    "isClosed": ""
  },
  {
    "id": "fukushima-art-14",
    "type": "art",
    "name": "天野美術館",
    "prefecture": "福島県",
    "postCode": "979-1525",
    "address": "福島県浪江町高瀬小山迫94",
    "city": "なみえ",
    "image": "",
    "url": "",
    "latlng": "[37.482932, 140.9971334]",
    "lat": 37.482932,
    "lng": 140.9971334,
    "isClosed": ""
  },
  {
    "id": "fukushima-art-15",
    "type": "art",
    "name": "妖精美術館",
    "prefecture": "福島県",
    "postCode": "968-0002",
    "address": "福島県金山町大字大栗山狐穴",
    "city": "かねやま",
    "image": "",
    "url": "https://www.town.kaneyama.fukushima.jp/site/kanko/museum.html",
    "latlng": "[37.4566988, 139.5893093]",
    "lat": 37.4566988,
    "lng": 139.5893093,
    "isClosed": ""
  },
  {
    "id": "fukushima-art-16",
    "type": "art",
    "name": "心の美術館・青龍",
    "prefecture": "福島県",
    "postCode": "965-0813",
    "address": "福島県会津若松市東山町石山院内－1",
    "city": "あいづわかまつ",
    "image": "",
    "url": "",
    "latlng": "[37.4853359, 139.9538603]",
    "lat": 37.4853359,
    "lng": 139.9538603,
    "isClosed": ""
  },
  {
    "id": "fukushima-art-17",
    "type": "art",
    "name": "日本風俗美術展示室",
    "prefecture": "福島県",
    "postCode": "963-8851",
    "address": "福島県郡山市開成3－25－2",
    "city": "こおりやま",
    "image": "",
    "url": "",
    "latlng": "[37.3963506, 140.3498889]",
    "lat": 37.3963506,
    "lng": 140.3498889,
    "isClosed": ""
  },
  {
    "id": "fukushima-art-18",
    "type": "art",
    "name": "喜多方市美術館",
    "prefecture": "福島県",
    "postCode": "966-0094",
    "address": "福島県喜多方市押切2-2",
    "city": "きたかた",
    "image": "",
    "url": "http://www.city.kitakata.fukushima.jp/bijyutsukan/",
    "latlng": "[37.6511636, 139.8616822]",
    "lat": 37.6511636,
    "lng": 139.8616822,
    "isClosed": ""
  },
  {
    "id": "fukushima-art-19",
    "type": "art",
    "name": "喜多方蔵品美術館",
    "prefecture": "福島県",
    "postCode": "966-0821",
    "address": "福島県喜多方市梅竹7294-4",
    "city": "きたかた",
    "image": "",
    "url": "",
    "latlng": "[37.6501802, 139.874688]",
    "lat": 37.6501802,
    "lng": 139.874688,
    "isClosed": ""
  },
  {
    "id": "fukushima-art-20",
    "type": "art",
    "name": "喜多方蔵座敷美術館",
    "prefecture": "福島県",
    "postCode": "966-0817",
    "address": "福島県喜多方市3－4844",
    "city": "きたかた",
    "image": "",
    "url": "",
    "latlng": "[37.6600906, 139.8676685]",
    "lat": 37.6600906,
    "lng": 139.8676685,
    "isClosed": ""
  },
  {
    "id": "fukushima-art-21",
    "type": "art",
    "name": "夢海庵・鈴倭人形美術館",
    "prefecture": "福島県",
    "postCode": "979-1501",
    "address": "福島県浪江町立野原252-1",
    "city": "なみえ",
    "image": "",
    "url": "",
    "latlng": "[37.4954732, 141.0017195]",
    "lat": 37.4954732,
    "lng": 141.0017195,
    "isClosed": ""
  },
  {
    "id": "fukushima-art-22",
    "type": "art",
    "name": "大内宿美術館",
    "prefecture": "福島県",
    "postCode": "969-5207",
    "address": "福島県下郷町大内山本34",
    "city": "しもごう",
    "image": "",
    "url": "",
    "latlng": "[37.3331816, 139.8609422]",
    "lat": 37.3331816,
    "lng": 139.8609422,
    "isClosed": ""
  },
  {
    "id": "fukushima-art-23",
    "type": "art",
    "name": "大山忠作美術館",
    "prefecture": "福島県",
    "postCode": "964-0917",
    "address": "福島県二本松市本町二丁目3番地 二本松市市民交流センター3階",
    "city": "にほんまつ",
    "image": "",
    "url": "http://www.city.nihonmatsu.lg.jp/oyama/",
    "latlng": "[37.5897927, 140.4337722]",
    "lat": 37.5897927,
    "lng": 140.4337722,
    "isClosed": ""
  },
  {
    "id": "fukushima-art-24",
    "type": "art",
    "name": "会津坂下町　五浪美術記念館",
    "prefecture": "福島県",
    "postCode": "969-6533",
    "address": "福島県会津坂下町台ノ下842",
    "city": "あいづばんげ",
    "image": "",
    "url": "http://www.town.aizubange.fukushima.jp/~goro-museum/",
    "latlng": "[37.5581468, 139.8318088]",
    "lat": 37.5581468,
    "lng": 139.8318088,
    "isClosed": ""
  },
  {
    "id": "fukushima-art-25",
    "type": "art",
    "name": "会津武家屋敷・心の美術館青龍",
    "prefecture": "福島県",
    "postCode": "965-0813",
    "address": "福島県会津若松市東山町",
    "city": "あいづわかまつ",
    "image": "",
    "url": "",
    "latlng": "[37.4899827, 139.9277486]",
    "lat": 37.4899827,
    "lng": 139.9277486,
    "isClosed": ""
  },
  {
    "id": "fukushima-art-26",
    "type": "art",
    "name": "くらし乃館・志田浜美術館",
    "prefecture": "福島県",
    "postCode": "969-2274",
    "address": "福島県猪苗代町壷揚130－25",
    "city": "いなわしろ",
    "image": "",
    "url": "",
    "latlng": "[37.50678449999999, 140.170385]",
    "lat": 37.50678449999999,
    "lng": 140.170385,
    "isClosed": ""
  },
  {
    "id": "fukushima-art-27",
    "type": "art",
    "name": "なごみ村　うつくしま高原美術館",
    "prefecture": "福島県",
    "postCode": "960-2158",
    "address": "福島県福島市佐原字竹の森20",
    "city": "ふくしま",
    "image": "",
    "url": "http://homepage2.nifty.com/nagomimura/",
    "latlng": "[37.715132, 140.3236319]",
    "lat": 37.715132,
    "lng": 140.3236319,
    "isClosed": ""
  },
  {
    "id": "fukushima-art-28",
    "type": "art",
    "name": "CCGA現代グラフィックアートセンター",
    "prefecture": "福島県",
    "postCode": "962-0711",
    "address": "福島県須賀川市塩田宮田1",
    "city": "すかがわ",
    "image": "",
    "url": "https://www.dnpfcp.jp/gallery/ccga/",
    "latlng": "[37.2988042, 140.4489059]",
    "lat": 37.2988042,
    "lng": 140.4489059,
    "isClosed": ""
  }
]
