[
  {
    "id": "fukushima-museum-1",
    "type": "museum",
    "name": "白虎隊記念館",
    "prefecture": "福島県",
    "postCode": "965-0003",
    "address": "福島県会津若松市一箕町大字八幡弁天下33",
    "city": "あいづわかまつ",
    "image": "",
    "url": "http://www.byakkokinen.com/",
    "latlng": "[37.5045605, 139.9532844]",
    "lat": 37.5045605,
    "lng": 139.9532844,
    "isClosed": ""
  },
  {
    "id": "fukushima-museum-2",
    "type": "museum",
    "name": "藤田記念博物館",
    "prefecture": "福島県",
    "postCode": "961-0946",
    "address": "福島県白河市二番町46-1",
    "city": "しらかわ",
    "image": "",
    "url": "https://fujitakinenhakubutsukan.amebaownd.com/",
    "latlng": "[37.1254184, 140.2043644]",
    "lat": 37.1254184,
    "lng": 140.2043644,
    "isClosed": ""
  },
  {
    "id": "fukushima-museum-3",
    "type": "museum",
    "name": "須賀川市立博物館",
    "prefecture": "福島県",
    "postCode": "962-0843",
    "address": "福島県須賀川市池上町6",
    "city": "すかがわ",
    "image": "/img/fukushima/museum/sukagawa-shiritsu-hakubutsukan.jpg",
    "url": "https://www.city.sukagawa.fukushima.jp/bunka_sports/bunka_geijyutsu/hakubutsukan/index.html",
    "latlng": "[37.2913274, 140.3791935]",
    "lat": 37.2913274,
    "lng": 140.3791935,
    "isClosed": ""
  },
  {
    "id": "fukushima-museum-4",
    "type": "museum",
    "name": "奥会津博物館",
    "prefecture": "福島県",
    "postCode": "967-0014",
    "address": "福島県南会津郡南会津町糸沢西沢山3692−20",
    "city": "みなみあいづ",
    "image": "/img/fukushima/museum/oku-aizu-hakubutsukan.jpg",
    "url": "https://www.town.minamiaizu.lg.jp/official/bunka_sports_kanko/bunka/okuaizuhakubutsukan/index.html",
    "latlng": "[37.1464181, 139.7220554]",
    "lat": 37.1464181,
    "lng": 139.7220554,
    "isClosed": ""
  },
  {
    "id": "fukushima-museum-5",
    "type": "museum",
    "name": "南相馬市博物館",
    "prefecture": "福島県",
    "postCode": "975-0051",
    "address": "福島県南相馬市原町区牛来出口194",
    "city": "みなみそうま",
    "image": "",
    "url": "https://www.city.minamisoma.lg.jp/portal/culture/museum/index.html",
    "latlng": "[37.623363, 140.963067]",
    "lat": 37.623363,
    "lng": 140.963067,
    "isClosed": ""
  },
  {
    "id": "fukushima-museum-6",
    "type": "museum",
    "name": "会津民俗館",
    "prefecture": "福島県",
    "postCode": "969-3284",
    "address": "福島県耶麻郡猪苗代町三ツ和前田33−1",
    "city": "いなわしろ",
    "image": "",
    "url": "https://www.aiaiaizu.com/aizuminzokukan/",
    "latlng": "[37.535545, 140.0753832]",
    "lat": 37.535545,
    "lng": 140.0753832,
    "isClosed": ""
  },
  {
    "id": "fukushima-museum-7",
    "type": "museum",
    "name": "野口英世記念館",
    "prefecture": "福島県",
    "postCode": "969-3284",
    "address": "福島県耶麻郡猪苗代町三ツ和前田81",
    "city": "いなわしろ",
    "image": "/img/fukushima/museum/noguchi-hideyo-kinenkan.jpg",
    "url": "https://www.noguchihideyo.or.jp/",
    "latlng": "[37.5362393, 140.0733644]",
    "lat": 37.5362393,
    "lng": 140.0733644,
    "isClosed": ""
  },
  {
    "id": "fukushima-museum-8",
    "type": "museum",
    "name": "郡山開成学園生活文化博物館",
    "prefecture": "福島県",
    "postCode": "963-8851",
    "address": "福島県郡山市開成3丁目25−2",
    "city": "こおりやま",
    "image": "",
    "url": "https://www.koriyama-kgc.ac.jp/campus/lcm",
    "latlng": "[37.3963506, 140.3498889]",
    "lat": 37.3963506,
    "lng": 140.3498889,
    "isClosed": ""
  },
  {
    "id": "fukushima-museum-9",
    "type": "museum",
    "name": "ふくしま海洋科学館",
    "prefecture": "福島県",
    "postCode": "971-8101",
    "address": "福島県いわき市小名浜辰巳町50",
    "city": "いまき",
    "image": "/img/fukushima/museum/fukushima-kaiyou-kagakukan.jpg",
    "url": "https://www.aquamarine.or.jp/",
    "latlng": "[36.9423933, 140.900465]",
    "lat": 36.9423933,
    "lng": 140.900465,
    "isClosed": ""
  },
  {
    "id": "fukushima-museum-10",
    "type": "museum",
    "name": "福島県立博物館",
    "prefecture": "福島県",
    "postCode": "965-0807",
    "address": "福島県会津若松市城東町1−25",
    "city": "あいづわかまつ",
    "image": "/img/fukushima/museum/fukushima-kenritsu-hakubutsukan.jpg",
    "url": "https://general-museum.fcs.ed.jp/",
    "latlng": "[37.48770570000001, 139.9338051]",
    "lat": 37.48770570000001,
    "lng": 139.9338051,
    "isClosed": ""
  },
  {
    "id": "fukushima-museum-11",
    "type": "museum",
    "name": "會津藩校日新館",
    "prefecture": "福島県",
    "postCode": "969-3441",
    "address": "福島県会津若松市河東町南高野高塚山10",
    "city": "あいづわかまつ",
    "image": "/img/fukushima/museum/aizu-hankou-nisshin-kan.jpg",
    "url": "https://nisshinkan.jp/",
    "latlng": "[37.5585135, 139.944158]",
    "lat": 37.5585135,
    "lng": 139.944158,
    "isClosed": ""
  },
  {
    "id": "fukushima-museum-12",
    "type": "museum",
    "name": "会津武家屋敷会津歴史資料館",
    "prefecture": "福島県",
    "postCode": "965-0813",
    "address": "福島県会津若松市東山町大字石山院内1−1",
    "city": "あいづわかまつ",
    "image": "/img/fukushima/museum/aizu-buke-yashiki-aizu-rekishi-shiryoukan.jpg",
    "url": "http://bukeyashiki.com/",
    "latlng": "[37.48509019999999, 139.9538469]",
    "lat": 37.48509019999999,
    "lng": 139.9538469,
    "isClosed": ""
  },
  {
    "id": "fukushima-museum-13",
    "type": "museum",
    "name": "安積歴史博物館",
    "prefecture": "福島県",
    "postCode": "963-8851",
    "address": "福島県郡山市開成5丁目25−63",
    "city": "こおりやま",
    "image": "/img/fukushima/museum/asaka-rekishi-hakubutsukan.jpg",
    "url": "https://anrekihaku.or.jp/",
    "latlng": "[37.3914042, 140.3498005]",
    "lat": 37.3914042,
    "lng": 140.3498005,
    "isClosed": ""
  },
  {
    "id": "fukushima-museum-14",
    "type": "museum",
    "name": "磐梯山噴火記念館",
    "prefecture": "福島県",
    "postCode": "969-2701",
    "address": "福島県耶麻郡北塩原村檜原剣ケ峯1093−36",
    "city": "きたしおばら",
    "image": "",
    "url": "http://www.bandaimuse.jp/",
    "latlng": "[37.6594817, 140.0784258]",
    "lat": 37.6594817,
    "lng": 140.0784258,
    "isClosed": ""
  },
  {
    "id": "fukushima-museum-15",
    "type": "museum",
    "name": "須賀川市芭蕉記念館",
    "prefecture": "福島県",
    "postCode": "962-0831",
    "address": "福島県須賀川市八幡町135",
    "city": "すかがわ",
    "image": "",
    "url": "",
    "latlng": "[37.2869321, 140.3725508]",
    "lat": 37.2869321,
    "lng": 140.3725508,
    "isClosed": ""
  },
  {
    "id": "fukushima-museum-16",
    "type": "museum",
    "name": "飯豊とそばの里センター　そば資料館・ふれあい館・ふるさと館・そば伝承館",
    "prefecture": "福島県",
    "postCode": "969-4143",
    "address": "福島県喜多方市山都町沢田3077-1",
    "city": "きたかた",
    "image": "",
    "url": "",
    "latlng": "[37.6379455, 139.7640936]",
    "lat": 37.6379455,
    "lng": 139.7640936,
    "isClosed": ""
  },
  {
    "id": "fukushima-museum-17",
    "type": "museum",
    "name": "高玉金山鉱石資料館",
    "prefecture": "福島県",
    "postCode": "963-1303",
    "address": "福島県郡山市熱海町玉川横道13",
    "city": "こおりやま",
    "image": "",
    "url": "",
    "latlng": "[37.4895964, 140.3008694]",
    "lat": 37.4895964,
    "lng": 140.3008694,
    "isClosed": ""
  },
  {
    "id": "fukushima-museum-18",
    "type": "museum",
    "name": "鮫川村歴史民俗資料館",
    "prefecture": "福島県",
    "postCode": "963-8401",
    "address": "福島県鮫川村赤坂中野巡ケ作126－1",
    "city": "さめがわ",
    "image": "",
    "url": "",
    "latlng": "[37.0420016, 140.5087809]",
    "lat": 37.0420016,
    "lng": 140.5087809,
    "isClosed": ""
  },
  {
    "id": "fukushima-museum-19",
    "type": "museum",
    "name": "鶴ヶ城（若松城天守閣郷土博物館）",
    "prefecture": "福島県",
    "postCode": "965-0873",
    "address": "福島県会津若松市追手町1－1",
    "city": "あいづわかまつ",
    "image": "",
    "url": "http://www.tsurugajo.com/",
    "latlng": "[37.4866828, 139.9308963]",
    "lat": 37.4866828,
    "lng": 139.9308963,
    "isClosed": ""
  },
  {
    "id": "fukushima-museum-20",
    "type": "museum",
    "name": "織物展示館",
    "prefecture": "福島県",
    "postCode": "960-1406",
    "address": "福島県川俣町鶴沢東13－1",
    "city": "かわまた",
    "image": "",
    "url": "",
    "latlng": "[37.6674403, 140.5768421]",
    "lat": 37.6674403,
    "lng": 140.5768421,
    "isClosed": ""
  },
  {
    "id": "fukushima-museum-21",
    "type": "museum",
    "name": "自然体験学習村・縄文の里",
    "prefecture": "福島県",
    "postCode": "963-4433",
    "address": "福島県田村市船引町北鹿又日向久保42-1",
    "city": "たむら",
    "image": "",
    "url": "",
    "latlng": "[37.464135, 140.606]",
    "lat": 37.464135,
    "lng": 140.606,
    "isClosed": ""
  },
  {
    "id": "fukushima-museum-22",
    "type": "museum",
    "name": "舘岩曲家資料館",
    "prefecture": "福島県",
    "postCode": "967-0306",
    "address": "福島県南会津町前沢337",
    "city": "みなみあいづ",
    "image": "",
    "url": "",
    "latlng": "[37.1025066, 139.5205127]",
    "lat": 37.1025066,
    "lng": 139.5205127,
    "isClosed": ""
  },
  {
    "id": "fukushima-museum-23",
    "type": "museum",
    "name": "足利ギャラリー",
    "prefecture": "福島県",
    "postCode": "969-3471",
    "address": "福島県会津若松市河東町広田田中原5",
    "city": "あいづわかまつ",
    "image": "",
    "url": "",
    "latlng": "[37.5397077, 139.9254576]",
    "lat": 37.5397077,
    "lng": 139.9254576,
    "isClosed": ""
  },
  {
    "id": "fukushima-museum-24",
    "type": "museum",
    "name": "郡山シルクセンター",
    "prefecture": "福島県",
    "postCode": "963-8071",
    "address": "福島県郡山市富久山町久保田乙高37－2",
    "city": "こおりやま",
    "image": "",
    "url": "",
    "latlng": "[37.40900329999999, 140.3786472]",
    "lat": 37.40900329999999,
    "lng": 140.3786472,
    "isClosed": ""
  },
  {
    "id": "fukushima-museum-25",
    "type": "museum",
    "name": "郡山市こおりやま文学の森　久米正雄記念館・文学資料館",
    "prefecture": "福島県",
    "postCode": "963-8016",
    "address": "福島県郡山市豊田町3－5",
    "city": "こおりやま",
    "image": "",
    "url": "",
    "latlng": "[37.3959677, 140.3631814]",
    "lat": 37.3959677,
    "lng": 140.3631814,
    "isClosed": ""
  },
  {
    "id": "fukushima-museum-26",
    "type": "museum",
    "name": "郡山市ふれあい科学館スペースパーク",
    "prefecture": "福島県",
    "postCode": "963-8002",
    "address": "福島県郡山市駅前二丁目11番1号 (ビッグアイ20～24階)",
    "city": "こおりやま",
    "image": "",
    "url": "http://www.space-park.jp/",
    "latlng": "[37.3998671, 140.3882699]",
    "lat": 37.3998671,
    "lng": 140.3882699,
    "isClosed": ""
  },
  {
    "id": "fukushima-museum-27",
    "type": "museum",
    "name": "郡山市歴史資料館",
    "prefecture": "福島県",
    "postCode": "963-8876",
    "address": "福島県郡山市麓山1-8-3",
    "city": "こおりやま",
    "image": "",
    "url": "",
    "latlng": "[37.3945341, 140.3729863]",
    "lat": 37.3945341,
    "lng": 140.3729863,
    "isClosed": ""
  },
  {
    "id": "fukushima-museum-28",
    "type": "museum",
    "name": "郡山市開成館",
    "prefecture": "福島県",
    "postCode": "963-8851",
    "address": "福島県郡山市開成3-3-7",
    "city": "こおりやま",
    "image": "",
    "url": "http://www.city.koriyama.fukushima.jp/548200/bunka/kaisekan/index.html",
    "latlng": "[37.3957605, 140.3525788]",
    "lat": 37.3957605,
    "lng": 140.3525788,
    "isClosed": ""
  },
  {
    "id": "fukushima-museum-29",
    "type": "museum",
    "name": "金看板史料館",
    "prefecture": "福島県",
    "postCode": "960-0034",
    "address": "福島県会津若松市上町3－24",
    "city": "あいづわかまつ",
    "image": "",
    "url": "",
    "latlng": "[37.4980714, 139.9342114]",
    "lat": 37.4980714,
    "lng": 139.9342114,
    "isClosed": ""
  },
  {
    "id": "fukushima-museum-30",
    "type": "museum",
    "name": "銘醸館",
    "prefecture": "福島県",
    "postCode": "975-0008",
    "address": "福島県南相馬市原町区本町2丁目52",
    "city": "みなみそうま",
    "image": "",
    "url": "http://www.minami-soma.com/meijokan/",
    "latlng": "[37.6410695, 140.9581821]",
    "lat": 37.6410695,
    "lng": 140.9581821,
    "isClosed": ""
  },
  {
    "id": "fukushima-museum-31",
    "type": "museum",
    "name": "霊山こどもの村・遊びと学びのミュージアム",
    "prefecture": "福島県",
    "postCode": "960-0807",
    "address": "福島県伊達市霊山町石田字宝司沢9-1",
    "city": "だて",
    "image": "",
    "url": "http://kodomo-ryozen.org/",
    "latlng": "[37.7583039, 140.6883346]",
    "lat": 37.7583039,
    "lng": 140.6883346,
    "isClosed": ""
  },
  {
    "id": "fukushima-museum-32",
    "type": "museum",
    "name": "須賀川市歴史民俗資料館",
    "prefecture": "福島県",
    "postCode": "962-0203",
    "address": "福島県須賀川市長沼門口186",
    "city": "すかがわ",
    "image": "",
    "url": "",
    "latlng": "[37.2899797, 140.2066013]",
    "lat": 37.2899797,
    "lng": 140.2066013,
    "isClosed": ""
  },
  {
    "id": "fukushima-museum-33",
    "type": "museum",
    "name": "﻿滝根町天地人館",
    "prefecture": "福島県",
    "postCode": "963-3601",
    "address": "福島県田村市滝根町菅谷東釜山1",
    "city": "たむら",
    "image": "",
    "url": "",
    "latlng": "[37.3442925, 140.6738125]",
    "lat": 37.3442925,
    "lng": 140.6738125,
    "isClosed": ""
  },
  {
    "id": "fukushima-museum-34",
    "type": "museum",
    "name": "猪苗代町古民家（旧山内家住宅）",
    "prefecture": "福島県",
    "postCode": "969-3123",
    "address": "福島県猪苗代町古城町7150－2",
    "city": "いなわしろ",
    "image": "",
    "url": "",
    "latlng": "[37.5615573, 140.1057063]",
    "lat": 37.5615573,
    "lng": 140.1057063,
    "isClosed": ""
  },
  {
    "id": "fukushima-museum-35",
    "type": "museum",
    "name": "田中又一記念喜多方煉瓦館",
    "prefecture": "福島県",
    "postCode": "966-0896",
    "address": "福島県喜多方市諏訪203",
    "city": "きたかた",
    "image": "",
    "url": "",
    "latlng": "[37.6523852, 139.8671765]",
    "lat": 37.6523852,
    "lng": 139.8671765,
    "isClosed": ""
  },
  {
    "id": "fukushima-museum-36",
    "type": "museum",
    "name": "田村市船引歴史民俗資料館",
    "prefecture": "福島県",
    "postCode": "963-4312",
    "address": "福島県田村市船引町引四城内前296",
    "city": "たむら",
    "image": "",
    "url": "",
    "latlng": "[37.43545590000001, 140.5655068]",
    "lat": 37.43545590000001,
    "lng": 140.5655068,
    "isClosed": ""
  },
  {
    "id": "fukushima-museum-37",
    "type": "museum",
    "name": "白沢村ふれあい文化ホール",
    "prefecture": "福島県",
    "postCode": "969-1203",
    "address": "福島県本宮市白岩堤崎494-44",
    "city": "もとみや",
    "image": "",
    "url": "",
    "latlng": "",
    "lat": "",
    "lng": "",
    "isClosed": ""
  },
  {
    "id": "fukushima-museum-38",
    "type": "museum",
    "name": "白河の関の森公園",
    "prefecture": "福島県",
    "postCode": "961-0038",
    "address": "福島県白河市旗宿白河内7－3",
    "city": "しらかわ",
    "image": "",
    "url": "",
    "latlng": "[37.045828, 140.2294685]",
    "lat": 37.045828,
    "lng": 140.2294685,
    "isClosed": ""
  },
  {
    "id": "fukushima-museum-39",
    "type": "museum",
    "name": "白河市歴史民俗資料館",
    "prefecture": "福島県",
    "postCode": "961-0053",
    "address": "福島県白河市中田7-1",
    "city": "しらかわ",
    "image": "",
    "url": "http://www.city.shirakawa.fukushima.jp/",
    "latlng": "[37.1205347, 140.2285752]",
    "lat": 37.1205347,
    "lng": 140.2285752,
    "isClosed": ""
  },
  {
    "id": "fukushima-museum-40",
    "type": "museum",
    "name": "白河集古苑",
    "prefecture": "福島県",
    "postCode": "961-0074",
    "address": "福島県白河市郭内1－73 城山公園内",
    "city": "しらかわ",
    "image": "",
    "url": "http://www.city.shirakawa.fukushima.jp/",
    "latlng": "[37.131851, 140.2132377]",
    "lat": 37.131851,
    "lng": 140.2132377,
    "isClosed": ""
  },
  {
    "id": "fukushima-museum-41",
    "type": "museum",
    "name": "相馬市歴史民俗資料館",
    "prefecture": "福島県",
    "postCode": "976-8601",
    "address": "福島県相馬市中村大手先13",
    "city": "そうま",
    "image": "",
    "url": "http://www.city.soma.fukushima.jp/digital/index.html",
    "latlng": "[37.7965844, 140.9195752]",
    "lat": 37.7965844,
    "lng": 140.9195752,
    "isClosed": ""
  },
  {
    "id": "fukushima-museum-42",
    "type": "museum",
    "name": "石川町立歴史民俗資料館",
    "prefecture": "福島県",
    "postCode": "963-7845",
    "address": "福島県石川町高田200－2",
    "city": "いしかわ",
    "image": "",
    "url": "",
    "latlng": "[37.150163, 140.453041]",
    "lat": 37.150163,
    "lng": 140.453041,
    "isClosed": ""
  },
  {
    "id": "fukushima-museum-43",
    "type": "museum",
    "name": "磐梯山慧日寺資料館",
    "prefecture": "福島県",
    "postCode": "969-3301",
    "address": "福島県磐梯町寺西38",
    "city": "ばんだい",
    "image": "",
    "url": "",
    "latlng": "[37.5663702, 139.9851979]",
    "lat": 37.5663702,
    "lng": 139.9851979,
    "isClosed": ""
  },
  {
    "id": "fukushima-museum-44",
    "type": "museum",
    "name": "福島市民家園",
    "prefecture": "福島県",
    "postCode": "960-2155",
    "address": "福島県福島市上名倉大石前地内",
    "city": "ふくしま",
    "image": "",
    "url": "http://minka-en.com/",
    "latlng": "[37.7277935, 140.3707136]",
    "lat": 37.7277935,
    "lng": 140.3707136,
    "isClosed": ""
  },
  {
    "id": "fukushima-museum-45",
    "type": "museum",
    "name": "福島市荒川資料室",
    "prefecture": "福島県",
    "postCode": "960-2156",
    "address": "福島県福島市荒井地蔵原乙1－2",
    "city": "ふくしま",
    "image": "",
    "url": "",
    "latlng": "[37.7093176, 140.3586522]",
    "lat": 37.7093176,
    "lng": 140.3586522,
    "isClosed": ""
  },
  {
    "id": "fukushima-museum-46",
    "type": "museum",
    "name": "福島市資料展示室",
    "prefecture": "福島県",
    "postCode": "960-8101",
    "address": "福島県福島市上町5－1",
    "city": "ふくしま",
    "image": "",
    "url": "",
    "latlng": "[37.7534298, 140.4683475]",
    "lat": 37.7534298,
    "lng": 140.4683475,
    "isClosed": ""
  },
  {
    "id": "fukushima-museum-47",
    "type": "museum",
    "name": "福島県文化財センター白河館（まほろん）",
    "prefecture": "福島県",
    "postCode": "961-0835",
    "address": "福島県白河市白坂一里段86",
    "city": "しらかわ",
    "image": "",
    "url": "https://www.fcp.or.jp/mahoron/",
    "latlng": "[37.0990096, 140.205435]",
    "lat": 37.0990096,
    "lng": 140.205435,
    "isClosed": ""
  },
  {
    "id": "fukushima-museum-48",
    "type": "museum",
    "name": "福島県歴史資料館",
    "prefecture": "福島県",
    "postCode": "960-8116",
    "address": "福島県福島市春日町5-54",
    "city": "ふくしま",
    "image": "",
    "url": "http://www.history.fcp.or.jp/",
    "latlng": "[37.7681243, 140.4723864]",
    "lat": 37.7681243,
    "lng": 140.4723864,
    "isClosed": ""
  },
  {
    "id": "fukushima-museum-49",
    "type": "museum",
    "name": "福島県民の森　森林館",
    "prefecture": "福島県",
    "postCode": "969-1300",
    "address": "福島県大玉村玉ノ井",
    "city": "おおたま",
    "image": "",
    "url": "",
    "latlng": "[37.5343552, 140.37119]",
    "lat": 37.5343552,
    "lng": 140.37119,
    "isClosed": ""
  },
  {
    "id": "fukushima-museum-50",
    "type": "museum",
    "name": "﻿昭和なつかし館",
    "prefecture": "福島県",
    "postCode": "965-0042",
    "address": "福島県会津若松市大町1-1-46",
    "city": "あいづわかまつ",
    "image": "",
    "url": "http://www.ht-net21.ne.jp/~natukasi/",
    "latlng": "[37.4986493, 139.9269938]",
    "lat": 37.4986493,
    "lng": 139.9269938,
    "isClosed": ""
  },
  {
    "id": "fukushima-museum-51",
    "type": "museum",
    "name": "曾州一蔵品館",
    "prefecture": "福島県",
    "postCode": "965-0031",
    "address": "福島県会津若松市相生町7-17",
    "city": "あいづわかまつ",
    "image": "",
    "url": "http://www.kaisyuichi.co.jp/",
    "latlng": "[37.5015449, 139.9361894]",
    "lat": 37.5015449,
    "lng": 139.9361894,
    "isClosed": ""
  },
  {
    "id": "fukushima-museum-52",
    "type": "museum",
    "name": "會津米澤街道「檜原歴史館」",
    "prefecture": "福島県",
    "postCode": "966-0501",
    "address": "福島県北塩原村桧原苧畑沢1034－19",
    "city": "きたしおばら",
    "image": "",
    "url": "",
    "latlng": "[37.6864844, 140.0840199]",
    "lat": 37.6864844,
    "lng": 140.0840199,
    "isClosed": ""
  },
  {
    "id": "fukushima-museum-53",
    "type": "museum",
    "name": "木の博物館・木の保存館",
    "prefecture": "福島県",
    "postCode": "963-5342",
    "address": "福島県塙町伊香松原160-13",
    "city": "はなわ",
    "image": "",
    "url": "",
    "latlng": "[36.9424436, 140.4067077]",
    "lat": 36.9424436,
    "lng": 140.4067077,
    "isClosed": ""
  },
  {
    "id": "fukushima-museum-54",
    "type": "museum",
    "name": "本宮町立歴史民俗資料館",
    "prefecture": "福島県",
    "postCode": "969-1131",
    "address": "福島県本宮市本宮南町裡130",
    "city": "もとみや",
    "image": "",
    "url": "",
    "latlng": "[37.5161917, 140.4006278]",
    "lat": 37.5161917,
    "lng": 140.4006278,
    "isClosed": ""
  },
  {
    "id": "fukushima-museum-55",
    "type": "museum",
    "name": "東京電力廃炉資料館",
    "prefecture": "福島県",
    "postCode": "979-1111",
    "address": "福島県双葉郡富岡町大字小浜字中央378",
    "city": "とみおか",
    "image": "",
    "url": "http://www.tepco.co.jp/fukushima_hq/decommissioning_ac/",
    "latlng": "[37.3384609, 141.016238]",
    "lat": 37.3384609,
    "lng": 141.016238,
    "isClosed": ""
  },
  {
    "id": "fukushima-museum-56",
    "type": "museum",
    "name": "東北サファリパーク",
    "prefecture": "福島県",
    "postCode": "964-0088",
    "address": "福島県二本松市塩沢温泉",
    "city": "にほんまつ",
    "image": "",
    "url": "http://www.tohoku-safaripark.co.jp/",
    "latlng": "[37.6418665, 140.3341899]",
    "lat": 37.6418665,
    "lng": 140.3341899,
    "isClosed": ""
  },
  {
    "id": "fukushima-museum-57",
    "type": "museum",
    "name": "桐の博物館",
    "prefecture": "福島県",
    "postCode": "966-0874",
    "address": "福島県喜多方市窪屋敷5233",
    "city": "きたかた",
    "image": "",
    "url": "http://www.akina.ne.jp/~kiri-mus/",
    "latlng": "[37.5806421, 139.7723191]",
    "lat": 37.5806421,
    "lng": 139.7723191,
    "isClosed": ""
  },
  {
    "id": "fukushima-museum-58",
    "type": "museum",
    "name": "楢葉町歴史資料館",
    "prefecture": "福島県",
    "postCode": "979-0602",
    "address": "福島県楢葉町北田鐘突堂5－4",
    "city": "ならは",
    "image": "",
    "url": "",
    "latlng": "[37.2820162, 140.9933548]",
    "lat": 37.2820162,
    "lng": 140.9933548,
    "isClosed": ""
  },
  {
    "id": "fukushima-museum-59",
    "type": "museum",
    "name": "檜枝岐村歴史民俗資料館",
    "prefecture": "福島県",
    "postCode": "967-0525",
    "address": "福島県檜枝岐村下ノ原887-1",
    "city": "ひのえまた",
    "image": "",
    "url": "http://www8.ocn.ne.jp/~ozeannai/",
    "latlng": "[37.0243216, 139.388488]",
    "lat": 37.0243216,
    "lng": 139.388488,
    "isClosed": ""
  },
  {
    "id": "fukushima-museum-60",
    "type": "museum",
    "name": "武田久吉メモリアルホール",
    "prefecture": "福島県",
    "postCode": "967-0522",
    "address": "福島県檜枝岐村左通124－6",
    "city": "ひのえまた",
    "image": "",
    "url": "",
    "latlng": "[37.0108998, 139.3784894]",
    "lat": 37.0108998,
    "lng": 139.3784894,
    "isClosed": ""
  },
  {
    "id": "fukushima-museum-61",
    "type": "museum",
    "name": "河井継之助記念館",
    "prefecture": "福島県",
    "postCode": "968-0411",
    "address": "福島県只見町塩沢上ノ台850-1",
    "city": "ただみ",
    "image": "",
    "url": "http://www2.ocn.ne.jp/~tadami/",
    "latlng": "[37.3986914, 139.3579935]",
    "lat": 37.3986914,
    "lng": 139.3579935,
    "isClosed": ""
  },
  {
    "id": "fukushima-museum-62",
    "type": "museum",
    "name": "河東公民館・収蔵庫",
    "prefecture": "福島県",
    "postCode": "969-3481",
    "address": "福島県会津若松市河東町郡山中子山51",
    "city": "あいづわかまつ",
    "image": "",
    "url": "",
    "latlng": "[37.549615, 139.9271548]",
    "lat": 37.549615,
    "lng": 139.9271548,
    "isClosed": ""
  },
  {
    "id": "fukushima-museum-63",
    "type": "museum",
    "name": "泉崎資料館",
    "prefecture": "福島県",
    "postCode": "969-0101",
    "address": "福島県泉崎村舘24－9",
    "city": "いずみざき",
    "image": "",
    "url": "",
    "latlng": "[37.1585185, 140.2987525]",
    "lat": 37.1585185,
    "lng": 140.2987525,
    "isClosed": ""
  },
  {
    "id": "fukushima-museum-64",
    "type": "museum",
    "name": "浅川町歴史民俗資料館",
    "prefecture": "福島県",
    "postCode": "963-6204",
    "address": "福島県浅川町浅川背戸谷地144－6",
    "city": "あさかわ",
    "image": "",
    "url": "",
    "latlng": "[37.0810415, 140.4113179]",
    "lat": 37.0810415,
    "lng": 140.4113179,
    "isClosed": ""
  },
  {
    "id": "fukushima-museum-65",
    "type": "museum",
    "name": "海竜の里センター",
    "prefecture": "福島県",
    "postCode": "979-0338",
    "address": "福島県いわき市大久町大久柴崎9",
    "city": "いわき",
    "image": "",
    "url": "",
    "latlng": "[37.16680230000001, 140.9657865]",
    "lat": 37.16680230000001,
    "lng": 140.9657865,
    "isClosed": ""
  },
  {
    "id": "fukushima-museum-66",
    "type": "museum",
    "name": "﻿天栄村ふるさと文化伝承館",
    "prefecture": "福島県",
    "postCode": "962-0504",
    "address": "福島県天栄村大里八石1－2",
    "city": "てんえい",
    "image": "",
    "url": "",
    "latlng": "[37.2417987, 140.2428711]",
    "lat": 37.2417987,
    "lng": 140.2428711,
    "isClosed": ""
  },
  {
    "id": "fukushima-museum-67",
    "type": "museum",
    "name": "太田良平記念館",
    "prefecture": "福島県",
    "postCode": "960-2158",
    "address": "福島県福島市佐原竹ノ森20",
    "city": "ふくしま",
    "image": "",
    "url": "",
    "latlng": "[37.708505, 140.3399352]",
    "lat": 37.708505,
    "lng": 140.3399352,
    "isClosed": ""
  },
  {
    "id": "fukushima-museum-68",
    "type": "museum",
    "name": "奥会津南郷村民俗資料館",
    "prefecture": "福島県",
    "postCode": "967-0631",
    "address": "福島県南会津町界川久保552",
    "city": "みなみあいづ",
    "image": "",
    "url": "",
    "latlng": "[37.2664396, 139.5738364]",
    "lat": 37.2664396,
    "lng": 139.5738364,
    "isClosed": ""
  },
  {
    "id": "fukushima-museum-69",
    "type": "museum",
    "name": "奥州二本松藩御用蔵 大内家天明・天保蔵尚古館",
    "prefecture": "福島県",
    "postCode": "964-0902",
    "address": "福島県二本松市竹田1-44",
    "city": "にほんまつ",
    "image": "",
    "url": "",
    "latlng": "[37.5997804, 140.4447266]",
    "lat": 37.5997804,
    "lng": 140.4447266,
    "isClosed": ""
  },
  {
    "id": "fukushima-museum-70",
    "type": "museum",
    "name": "安積艮斎記念館",
    "prefecture": "福島県",
    "postCode": "963-8005",
    "address": "福島県郡山市清水台1-6-23",
    "city": "こおりやま",
    "image": "",
    "url": "http://www.asakakunituko.jp/html/page13.html",
    "latlng": "[37.3984833, 140.3818807]",
    "lat": 37.3984833,
    "lng": 140.3818807,
    "isClosed": ""
  },
  {
    "id": "fukushima-museum-71",
    "type": "museum",
    "name": "安達ケ原ふるさと村",
    "prefecture": "福島県",
    "postCode": "964-0938",
    "address": "福島県二本松市安達ケ原4丁目100",
    "city": "にほんまつ",
    "image": "",
    "url": "",
    "latlng": "[37.5934885, 140.4638918]",
    "lat": 37.5934885,
    "lng": 140.4638918,
    "isClosed": ""
  },
  {
    "id": "fukushima-museum-72",
    "type": "museum",
    "name": "安達町智恵子記念館",
    "prefecture": "福島県",
    "postCode": "969-1404",
    "address": "福島県二本松市油井漆原町36番地",
    "city": "にほんまつ",
    "image": "",
    "url": "",
    "latlng": "[37.6022132, 140.4551077]",
    "lat": 37.6022132,
    "lng": 140.4551077,
    "isClosed": ""
  },
  {
    "id": "fukushima-museum-73",
    "type": "museum",
    "name": "小野町ふるさと文化の館",
    "prefecture": "福島県",
    "postCode": "963-3401",
    "address": "福島県田村郡小野町大字小野新町字中通2",
    "city": "おの",
    "image": "",
    "url": "http://www.town.ono.fukushima.jp/site/bunkanoyakata/",
    "latlng": "[37.2794663, 140.6333995]",
    "lat": 37.2794663,
    "lng": 140.6333995,
    "isClosed": ""
  },
  {
    "id": "fukushima-museum-74",
    "type": "museum",
    "name": "小高町浮船文化会館　埴谷・島尾記念文学資料館",
    "prefecture": "福島県",
    "postCode": "979-2124",
    "address": "福島県南相馬市小高区本町2-89-1",
    "city": "みなみそうま",
    "image": "",
    "url": "",
    "latlng": "[37.5660762, 140.9931249]",
    "lat": 37.5660762,
    "lng": 140.9931249,
    "isClosed": ""
  },
  {
    "id": "fukushima-museum-75",
    "type": "museum",
    "name": "尾瀬ブナの森ミュージアム",
    "prefecture": "福島県",
    "postCode": "967-0525",
    "address": "福島県檜枝岐村燧ヶ岳1 尾瀬御池ロッジ内",
    "city": "ひのえまた",
    "image": "",
    "url": "",
    "latlng": "[36.9838616, 139.305297]",
    "lat": 36.9838616,
    "lng": 139.305297,
    "isClosed": ""
  },
  {
    "id": "fukushima-museum-76",
    "type": "museum",
    "name": "尾瀬沼ビジターセンター",
    "prefecture": "福島県",
    "postCode": "967-0532",
    "address": "福島県檜枝岐村尾瀬沼畔",
    "city": "ひのえまた",
    "image": "",
    "url": "",
    "latlng": "[36.9272362, 139.3018896]",
    "lat": 36.9272362,
    "lng": 139.3018896,
    "isClosed": ""
  },
  {
    "id": "fukushima-museum-77",
    "type": "museum",
    "name": "御薬園　会津松平氏庭園附設薬用植物園",
    "prefecture": "福島県",
    "postCode": "965-0804",
    "address": "福島県会津若松市花春町8-1",
    "city": "あいづわかまつ",
    "image": "",
    "url": "http://www.tsurugajo.com/oyakuen/index.htm",
    "latlng": "[37.4912519, 139.9432748]",
    "lat": 37.4912519,
    "lng": 139.9432748,
    "isClosed": ""
  },
  {
    "id": "fukushima-museum-78",
    "type": "museum",
    "name": "旧南会津郡役所",
    "prefecture": "福島県",
    "postCode": "967-0004",
    "address": "福島県南会津町田島丸山甲4681－1",
    "city": "みなみあいづ",
    "image": "",
    "url": "http://www.gunyakusho.ecnet.jp/",
    "latlng": "[37.201982, 139.7666952]",
    "lat": 37.201982,
    "lng": 139.7666952,
    "isClosed": ""
  },
  {
    "id": "fukushima-museum-79",
    "type": "museum",
    "name": "春日八郎記念公園・おもいで館",
    "prefecture": "福島県",
    "postCode": "969-6585",
    "address": "福島県会津坂下町船杉554",
    "city": "あいづばんげ",
    "image": "",
    "url": "",
    "latlng": "[37.5515092, 139.8009721]",
    "lat": 37.5515092,
    "lng": 139.8009721,
    "isClosed": ""
  },
  {
    "id": "fukushima-museum-80",
    "type": "museum",
    "name": "﻿会津若松市埋蔵文化財管理センター",
    "prefecture": "福島県",
    "postCode": "965-0803",
    "address": "福島県会津若松市城前1－85",
    "city": "あいづわかまつ",
    "image": "",
    "url": "",
    "latlng": "[37.4902926, 139.9324322]",
    "lat": 37.4902926,
    "lng": 139.9324322,
    "isClosed": ""
  },
  {
    "id": "fukushima-museum-81",
    "type": "museum",
    "name": "会津葵シルクロード文明館",
    "prefecture": "福島県",
    "postCode": "965-0873",
    "address": "福島県会津若松市追手町4－6 鶴ヶ城北出丸",
    "city": "あいづわかまつ",
    "image": "",
    "url": "",
    "latlng": "[37.4896141, 139.931381]",
    "lat": 37.4896141,
    "lng": 139.931381,
    "isClosed": ""
  },
  {
    "id": "fukushima-museum-82",
    "type": "museum",
    "name": "会津酒造博物館（町方民俗資料館）",
    "prefecture": "福島県",
    "postCode": "965-0853",
    "address": "福島県会津若松市材木町1－8－1",
    "city": "あいづわかまつ",
    "image": "",
    "url": "",
    "latlng": "[37.4900711, 139.9127424]",
    "lat": 37.4900711,
    "lng": 139.9127424,
    "isClosed": ""
  },
  {
    "id": "fukushima-museum-83",
    "type": "museum",
    "name": "保原町歴史文化資料館",
    "prefecture": "福島県",
    "postCode": "960-0634",
    "address": "福島県伊達市保原町大泉宮脇 保原総合公園内",
    "city": "だて",
    "image": "",
    "url": "",
    "latlng": "[37.81857, 140.5698747]",
    "lat": 37.81857,
    "lng": 140.5698747,
    "isClosed": ""
  },
  {
    "id": "fukushima-museum-84",
    "type": "museum",
    "name": "南会資料館",
    "prefecture": "福島県",
    "postCode": "968-0602",
    "address": "福島県只見町大倉前沢口146",
    "city": "ただみ",
    "image": "",
    "url": "",
    "latlng": "[37.3069523, 139.4461453]",
    "lat": 37.3069523,
    "lng": 139.4461453,
    "isClosed": ""
  },
  {
    "id": "fukushima-museum-85",
    "type": "museum",
    "name": "原郷のこけし群 西田記念館",
    "prefecture": "福島県",
    "postCode": "960-2156",
    "address": "福島県福島市荒井横塚3-183",
    "city": "ふくしま",
    "image": "",
    "url": "http://nishidakinenkan.or.jp/",
    "latlng": "[37.7052595, 140.37022]",
    "lat": 37.7052595,
    "lng": 140.37022,
    "isClosed": ""
  },
  {
    "id": "fukushima-museum-86",
    "type": "museum",
    "name": "双葉町歴史民俗資料館",
    "prefecture": "福島県",
    "postCode": "979-1472",
    "address": "福島県双葉町新山本町27－1",
    "city": "ふたば",
    "image": "",
    "url": "",
    "latlng": "[37.45057570000001, 141.0073546]",
    "lat": 37.45057570000001,
    "lng": 141.0073546,
    "isClosed": ""
  },
  {
    "id": "fukushima-museum-87",
    "type": "museum",
    "name": "古関裕而記念館",
    "prefecture": "福島県",
    "postCode": "960-8117",
    "address": "福島県福島市入江町1－1",
    "city": "ふくしま",
    "image": "",
    "url": "",
    "latlng": "[37.7695992, 140.4792842]",
    "lat": 37.7695992,
    "lng": 140.4792842,
    "isClosed": ""
  },
  {
    "id": "fukushima-museum-88",
    "type": "museum",
    "name": "吉田富三記念館",
    "prefecture": "福島県",
    "postCode": "963-6216",
    "address": "福島県浅川町袖山森下287",
    "city": "あさかわ",
    "image": "",
    "url": "http://www.fun.ne.jp/muni/asakawa/yoshida.html",
    "latlng": "[37.0717304, 140.4146575]",
    "lat": 37.0717304,
    "lng": 140.4146575,
    "isClosed": ""
  },
  {
    "id": "fukushima-museum-89",
    "type": "museum",
    "name": "喜多方市郷土民俗館",
    "prefecture": "福島県",
    "postCode": "966-0822",
    "address": "福島県喜多方市柳原7503－1",
    "city": "きたかた",
    "image": "",
    "url": "",
    "latlng": "[37.6464273, 139.8753206]",
    "lat": 37.6464273,
    "lng": 139.8753206,
    "isClosed": ""
  },
  {
    "id": "fukushima-museum-90",
    "type": "museum",
    "name": "喜多方蔵の里",
    "prefecture": "福島県",
    "postCode": "966-0094",
    "address": "福島県喜多方市押切2－100－9",
    "city": "きたかた",
    "image": "",
    "url": "",
    "latlng": "[37.6511937, 139.8611478]",
    "lat": 37.6511937,
    "lng": 139.8611478,
    "isClosed": ""
  },
  {
    "id": "fukushima-museum-91",
    "type": "museum",
    "name": "四季の里",
    "prefecture": "福島県",
    "postCode": "960-2156",
    "address": "福島県福島市荒井上鷺西1－1",
    "city": "ふくしま",
    "image": "",
    "url": "",
    "latlng": "[37.7140165, 140.3636883]",
    "lat": 37.7140165,
    "lng": 140.3636883,
    "isClosed": ""
  },
  {
    "id": "fukushima-museum-92",
    "type": "museum",
    "name": "大蛇館",
    "prefecture": "福島県",
    "postCode": "968-0002",
    "address": "福島県金山町大栗山荒浜",
    "city": "かねやま",
    "image": "",
    "url": "",
    "latlng": "[37.4532859, 139.5865034]",
    "lat": 37.4532859,
    "lng": 139.5865034,
    "isClosed": ""
  },
  {
    "id": "fukushima-museum-93",
    "type": "museum",
    "name": "﻿ふくしま森の科学体験センター（ムシテックワールド）",
    "prefecture": "福島県",
    "postCode": "962-0722",
    "address": "福島県須賀川市虹の台100",
    "city": "すかがわ",
    "image": "",
    "url": "http://www.mushitec-fukushima.gr.jp/",
    "latlng": "[37.2508684, 140.4630883]",
    "lat": 37.2508684,
    "lng": 140.4630883,
    "isClosed": ""
  },
  {
    "id": "fukushima-museum-94",
    "type": "museum",
    "name": "みろく沢炭礦資料館",
    "prefecture": "福島県",
    "postCode": "973-8405",
    "address": "福島県いわき市内郷白水町広畑223",
    "city": "いわき",
    "image": "",
    "url": "",
    "latlng": "[37.0308329, 140.8321909]",
    "lat": 37.0308329,
    "lng": 140.8321909,
    "isClosed": ""
  },
  {
    "id": "fukushima-museum-95",
    "type": "museum",
    "name": "リカちゃんキャッスル",
    "prefecture": "福島県",
    "postCode": "963-3401",
    "address": "福島県小野町小野新町中通51-3",
    "city": "おの",
    "image": "",
    "url": "http://www.liccacastle.co.jp/",
    "latlng": "[37.2791757, 140.6297445]",
    "lat": 37.2791757,
    "lng": 140.6297445,
    "isClosed": ""
  },
  {
    "id": "fukushima-museum-96",
    "type": "museum",
    "name": "レオ氏郷南蛮館",
    "prefecture": "福島県",
    "postCode": "965-0042",
    "address": "福島県会津若松市大町1-2-21 七日町通り",
    "city": "あいづわかまつ",
    "image": "",
    "url": "http://www.miyaizumi.co.jp/nanbankan.html",
    "latlng": "[37.4994291, 139.9253127]",
    "lat": 37.4994291,
    "lng": 139.9253127,
    "isClosed": ""
  },
  {
    "id": "fukushima-museum-97",
    "type": "museum",
    "name": "わくわくランド　グリーンウィング",
    "prefecture": "福島県",
    "postCode": "979-2611",
    "address": "福島県新地町駒ヶ嶺今神1－1 相馬共同火力新地発電所内",
    "city": "しんち",
    "image": "",
    "url": "",
    "latlng": "[37.8438917, 140.9452936]",
    "lat": 37.8438917,
    "lng": 140.9452936,
    "isClosed": ""
  },
  {
    "id": "fukushima-museum-98",
    "type": "museum",
    "name": "三春ダム資料館",
    "prefecture": "福島県",
    "postCode": "963-7722",
    "address": "福島県三春町西方中ノ内403－4",
    "city": "みはる",
    "image": "",
    "url": "",
    "latlng": "[37.4049051, 140.4752038]",
    "lat": 37.4049051,
    "lng": 140.4752038,
    "isClosed": ""
  },
  {
    "id": "fukushima-museum-99",
    "type": "museum",
    "name": "三春町歴史民俗資料館",
    "prefecture": "福島県",
    "postCode": "963-7758",
    "address": "福島県三春町桜谷5",
    "city": "みはる",
    "image": "",
    "url": "https://www.town.miharu.fukushima.jp/soshiki/19/",
    "latlng": "[37.4400796, 140.4921657]",
    "lat": 37.4400796,
    "lng": 140.4921657,
    "isClosed": ""
  },
  {
    "id": "fukushima-museum-100",
    "type": "museum",
    "name": "三春町郷土人形館",
    "prefecture": "福島県",
    "postCode": "963-7759",
    "address": "福島県三春町大町30",
    "city": "みはる",
    "image": "",
    "url": "",
    "latlng": "[37.4421139, 140.4901737]",
    "lat": 37.4421139,
    "lng": 140.4901737,
    "isClosed": ""
  },
  {
    "id": "fukushima-museum-101",
    "type": "museum",
    "name": "中山義秀記念文学館",
    "prefecture": "福島県",
    "postCode": "969-0309",
    "address": "福島県白河市大信町屋沢田25",
    "city": "しらかわ",
    "image": "",
    "url": "",
    "latlng": "[37.2029446, 140.2476004]",
    "lat": 37.2029446,
    "lng": 140.2476004,
    "isClosed": ""
  },
  {
    "id": "fukushima-museum-102",
    "type": "museum",
    "name": "久川城資料館",
    "prefecture": "福島県",
    "postCode": "967-0507",
    "address": "福島県南会津町青柳久川23",
    "city": "みなみあいづ",
    "image": "",
    "url": "",
    "latlng": "[37.1883054, 139.5260039]",
    "lat": 37.1883054,
    "lng": 139.5260039,
    "isClosed": ""
  },
  {
    "id": "fukushima-museum-103",
    "type": "museum",
    "name": "二本松市歴史資料館",
    "prefecture": "福島県",
    "postCode": "964-0917",
    "address": "福島県二本松市本町1-102",
    "city": "にほんまつ",
    "image": "",
    "url": "http://www.city.nihonmatsu.lg.jp/kanko/kanko/meisho12.html",
    "latlng": "[37.5926579, 140.4359902]",
    "lat": 37.5926579,
    "lng": 140.4359902,
    "isClosed": ""
  },
  {
    "id": "fukushima-museum-104",
    "type": "museum",
    "name": "五十嵐家旧住宅",
    "prefecture": "福島県",
    "postCode": "969-6584",
    "address": "福島県会津坂下町塔寺松原2908",
    "city": "あいづばんげ",
    "image": "",
    "url": "",
    "latlng": "[37.5744549, 139.7979104]",
    "lat": 37.5744549,
    "lng": 139.7979104,
    "isClosed": ""
  },
  {
    "id": "fukushima-museum-105",
    "type": "museum",
    "name": "会津只見考古館",
    "prefecture": "福島県",
    "postCode": "968-0602",
    "address": "福島県只見町大倉窪田33",
    "city": "ただみ",
    "image": "",
    "url": "",
    "latlng": "[37.3114845, 139.4441663]",
    "lat": 37.3114845,
    "lng": 139.4441663,
    "isClosed": ""
  },
  {
    "id": "fukushima-museum-106",
    "type": "museum",
    "name": "会津本郷焼資料館",
    "prefecture": "福島県",
    "postCode": "969-6116",
    "address": "福島県会津美里町瀬戸町3208",
    "city": "あいづみさと",
    "image": "",
    "url": "",
    "latlng": "[37.452146, 139.8910691]",
    "lat": 37.452146,
    "lng": 139.8910691,
    "isClosed": ""
  },
  {
    "id": "fukushima-museum-107",
    "type": "museum",
    "name": "会津町方伝承館",
    "prefecture": "福島県",
    "postCode": "965-0042",
    "address": "福島県会津若松市大町2-8-8",
    "city": "あいづわかまつ",
    "image": "",
    "url": "http://www.city.aizuwakamatsu.fukushima.jp/j/sangyo/densyokan/index.htm",
    "latlng": "[37.5019846, 139.9291963]",
    "lat": 37.5019846,
    "lng": 139.9291963,
    "isClosed": ""
  },
  {
    "id": "fukushima-museum-108",
    "type": "museum",
    "name": "﻿アウシュヴィッツ平和博物館",
    "prefecture": "福島県",
    "postCode": "961-0835",
    "address": "福島県白河市白坂三輪台245",
    "city": "しらかわ",
    "image": "",
    "url": "",
    "latlng": "[37.0956572, 140.1885289]",
    "lat": 37.0956572,
    "lng": 140.1885289,
    "isClosed": ""
  },
  {
    "id": "fukushima-museum-109",
    "type": "museum",
    "name": "アウシュヴィツ平和博物館",
    "prefecture": "福島県",
    "postCode": "961-0835",
    "address": "福島県白河市白坂三輪台245",
    "city": "しらかわ",
    "image": "",
    "url": "http://www.am-j.or.jp/basis_info/004_guide_map.htm",
    "latlng": "[37.0956572, 140.1885289]",
    "lat": 37.0956572,
    "lng": 140.1885289,
    "isClosed": ""
  },
  {
    "id": "fukushima-museum-110",
    "type": "museum",
    "name": "あだたらふるさとホール　（大玉村歴史民俗資料館）",
    "prefecture": "福島県",
    "postCode": "969-1302",
    "address": "福島県大玉村玉井西庵183",
    "city": "おおたま",
    "image": "",
    "url": "",
    "latlng": "[37.5358922, 140.3649189]",
    "lat": 37.5358922,
    "lng": 140.3649189,
    "isClosed": ""
  },
  {
    "id": "fukushima-museum-111",
    "type": "museum",
    "name": "いわき市アンモナイトセンター",
    "prefecture": "福島県",
    "postCode": "979-0338",
    "address": "福島県いわき市大久町大久鶴房147－2",
    "city": "いわき",
    "image": "",
    "url": "http://www.ammonite-center.jp/",
    "latlng": "[37.175617, 140.943444]",
    "lat": 37.175617,
    "lng": 140.943444,
    "isClosed": ""
  },
  {
    "id": "fukushima-museum-112",
    "type": "museum",
    "name": "いわき市勿来関文学歴史館",
    "prefecture": "福島県",
    "postCode": "979-0146",
    "address": "福島県いわき市勿来町関田長沢6-1",
    "city": "いわき",
    "image": "",
    "url": "http://www.iwakicity-park.or.jp/bungakurekishikan/",
    "latlng": "[36.866761, 140.7805144]",
    "lat": 36.866761,
    "lng": 140.7805144,
    "isClosed": ""
  },
  {
    "id": "fukushima-museum-113",
    "type": "museum",
    "name": "いわき市文化センター",
    "prefecture": "福島県",
    "postCode": "970-8026",
    "address": "福島県いわき市平堂根町1－4",
    "city": "いわき",
    "image": "",
    "url": "",
    "latlng": "[37.0523189, 140.8896963]",
    "lat": 37.0523189,
    "lng": 140.8896963,
    "isClosed": ""
  },
  {
    "id": "fukushima-museum-114",
    "type": "museum",
    "name": "いわき市暮らしの伝承郷",
    "prefecture": "福島県",
    "postCode": "971-8043",
    "address": "福島県いわき市鹿島町下矢田字散野14-16 (いわき市中央台・県立いわき公園内)",
    "city": "いわき",
    "image": "",
    "url": "http://www.denshogo.jp/",
    "latlng": "[37.0077691, 140.9158216]",
    "lat": 37.0077691,
    "lng": 140.9158216,
    "isClosed": ""
  },
  {
    "id": "fukushima-museum-115",
    "type": "museum",
    "name": "いわき市石炭化石館",
    "prefecture": "福島県",
    "postCode": "972-8321",
    "address": "福島県いわき市常磐湯本町向田3-1",
    "city": "いわき",
    "image": "",
    "url": "http://www.sekitankasekikan.or.jp/",
    "latlng": "[37.0126168, 140.848353]",
    "lat": 37.0126168,
    "lng": 140.848353,
    "isClosed": ""
  },
  {
    "id": "fukushima-museum-116",
    "type": "museum",
    "name": "いわき市立草野心平記念文学館",
    "prefecture": "福島県",
    "postCode": "979-3122",
    "address": "福島県いわき市小川町高萩下タ道1-39",
    "city": "いわき",
    "image": "",
    "url": "http://www.k-shimpei.jp/",
    "latlng": "[37.1289866, 140.8333385]",
    "lat": 37.1289866,
    "lng": 140.8333385,
    "isClosed": ""
  },
  {
    "id": "fukushima-museum-117",
    "type": "museum",
    "name": "いわき市考古資料館",
    "prefecture": "福島県",
    "postCode": "072-8326",
    "address": "福島県いわき市常磐藤原町手這50－1",
    "city": "いわき",
    "image": "",
    "url": "",
    "latlng": "[36.9968624, 140.8254071]",
    "lat": 36.9968624,
    "lng": 140.8254071,
    "isClosed": ""
  },
  {
    "id": "fukushima-museum-118",
    "type": "museum",
    "name": "からむし工芸博物館",
    "prefecture": "福島県",
    "postCode": "968-0215",
    "address": "福島県昭和村佐倉上ノ原",
    "city": "しょうわ",
    "image": "",
    "url": "http://www.vill.showa.fukushima.jp/",
    "latlng": "[37.3260052, 139.6293028]",
    "lat": 37.3260052,
    "lng": 139.6293028,
    "isClosed": ""
  },
  {
    "id": "fukushima-museum-119",
    "type": "museum",
    "name": "ギャラリー福島",
    "prefecture": "福島県",
    "postCode": "960-8003",
    "address": "福島県福島市森合西養山24－1",
    "city": "ふくしま",
    "image": "",
    "url": "",
    "latlng": "[37.7670457, 140.4588909]",
    "lat": 37.7670457,
    "lng": 140.4588909,
    "isClosed": ""
  },
  {
    "id": "fukushima-museum-120",
    "type": "museum",
    "name": "ただみ川のものしり館",
    "prefecture": "福島県",
    "postCode": "968-0421",
    "address": "福島県只見町只見町下2590",
    "city": "ただみ",
    "image": "",
    "url": "http://www4.pref.fukushima.jp/angelnet/glist22.php1.inst=364",
    "latlng": "[37.3412385, 139.3116737]",
    "lat": 37.3412385,
    "lng": 139.3116737,
    "isClosed": ""
  },
  {
    "id": "fukushima-museum-121",
    "type": "museum",
    "name": "とうほう・みんなの文化センター（福島文化センター）",
    "prefecture": "福島県",
    "postCode": "960-8116",
    "address": "福島県福島市春日町5-54",
    "city": "ふくしま",
    "image": "",
    "url": "http://www.culture.fcp.or.jp/",
    "latlng": "[37.7681243, 140.4723864]",
    "lat": 37.7681243,
    "lng": 140.4723864,
    "isClosed": ""
  },
  {
    "id": "fukushima-museum-122",
    "type": "museum",
    "name": "ビッグパレットふくしま（福島県産業交流館）",
    "prefecture": "福島県",
    "postCode": "963-0115",
    "address": "福島県郡山市南二丁目52番地",
    "city": "こおりやま",
    "image": "",
    "url": "https://big-palette.jp/",
    "latlng": "[37.3694215, 140.3739138]",
    "lat": 37.3694215,
    "lng": 140.3739138,
    "isClosed": ""
  },
  {
    "id": "fukushima-museum-123",
    "type": "museum",
    "name": "ひとの駅かわうち",
    "prefecture": "福島県",
    "postCode": "979-1201",
    "address": "福島県川内村大字上川内字十八窪129",
    "city": "かわうち",
    "image": "",
    "url": "http://www.hitonoeki.com/",
    "latlng": "[37.375014, 140.7496427]",
    "lat": 37.375014,
    "lng": 140.7496427,
    "isClosed": ""
  }
]
