[
  {
    "id": "toyama-art-1",
    "type": "art",
    "name": "黒部市美術館",
    "prefecture": "富山県",
    "postCode": "938-0041",
    "address": "富山県黒部市堀切1035",
    "city": "くろべ",
    "image": "",
    "url": "https://www.city.kurobe.toyama.jp/category/page.aspx?servno=79",
    "latlng": "[36.8817785, 137.4250797]",
    "lat": 36.8817785,
    "lng": 137.4250797,
    "isClosed": ""
  },
  {
    "id": "toyama-art-2",
    "type": "art",
    "name": "朝日町立ふるさと美術館",
    "prefecture": "富山県",
    "postCode": "939-0724",
    "address": "富山県下新川郡朝日町横水300",
    "city": "あさひ",
    "image": "",
    "url": "http://www.town.asahi.toyama.jp/buntai/bijyutukanannai.html",
    "latlng": "[36.920577, 137.5525388]",
    "lat": 36.920577,
    "lng": 137.5525388,
    "isClosed": ""
  },
  {
    "id": "toyama-art-3",
    "type": "art",
    "name": "一般財団法人　百河豚美術館",
    "prefecture": "富山県",
    "postCode": "939-0723",
    "address": "富山県下新川郡朝日町不動堂6",
    "city": "あさひ",
    "image": "",
    "url": "http://ippukumuseum.g2.xrea.com//index.html",
    "latlng": "[36.92152919999999, 137.5539945]",
    "lat": 36.92152919999999,
    "lng": 137.5539945,
    "isClosed": ""
  },
  {
    "id": "toyama-art-4",
    "type": "art",
    "name": "入善町下山芸術の森アートスペース（発電所美術館）",
    "prefecture": "富山県",
    "postCode": "939-0631",
    "address": "富山県下新川郡入善町下山364−1",
    "city": "にゅうぜん",
    "image": "",
    "url": "https://www.town.nyuzen.toyama.jp/gyosei/bijutsukan/index.html",
    "latlng": "[36.9072062, 137.5308759]",
    "lat": 36.9072062,
    "lng": 137.5308759,
    "isClosed": ""
  },
  {
    "id": "toyama-art-5",
    "type": "art",
    "name": "高岡市美術館",
    "prefecture": "富山県",
    "postCode": "933-0056",
    "address": "富山県高岡市中川1丁目1−30 高岡市美術館 1F",
    "city": "たかおか",
    "image": "",
    "url": "https://www.e-tam.info/",
    "latlng": "[36.7512183, 137.026517]",
    "lat": 36.7512183,
    "lng": 137.026517,
    "isClosed": ""
  },
  {
    "id": "toyama-art-6",
    "type": "art",
    "name": "砺波市美術館",
    "prefecture": "富山県",
    "postCode": "939-1383",
    "address": "富山県砺波市高道145−1",
    "city": "となみ",
    "image": "",
    "url": "https://www.tonami-art-museum.jp/",
    "latlng": "[36.6400054, 136.9636273]",
    "lat": 36.6400054,
    "lng": 136.9636273,
    "isClosed": ""
  },
  {
    "id": "toyama-art-7",
    "type": "art",
    "name": "公益財団法人　秋水美術館",
    "prefecture": "富山県",
    "postCode": "930-0066",
    "address": "富山県富山市千石町1丁目3−6",
    "city": "とやま",
    "image": "",
    "url": "https://www.shusui-museum.jp/",
    "latlng": "[36.6871262, 137.2114726]",
    "lat": 36.6871262,
    "lng": 137.2114726,
    "isClosed": ""
  },
  {
    "id": "toyama-art-8",
    "type": "art",
    "name": "富山県水墨美術館",
    "prefecture": "富山県",
    "postCode": "930-0887",
    "address": "富山県富山市五福777",
    "city": "とやま",
    "image": "",
    "url": "https://www.pref.toyama.jp/1738/miryokukankou/bunka/bunkazai/3044/index.html",
    "latlng": "[36.6993358, 137.1962136]",
    "lat": 36.6993358,
    "lng": 137.1962136,
    "isClosed": ""
  },
  {
    "id": "toyama-art-9",
    "type": "art",
    "name": "富山県美術館",
    "prefecture": "富山県",
    "postCode": "930-0806",
    "address": "富山県富山市木場町3−20",
    "city": "とやま",
    "image": "",
    "url": "https://tad-toyama.jp/",
    "latlng": "[36.7109182, 137.2101748]",
    "lat": 36.7109182,
    "lng": 137.2101748,
    "isClosed": ""
  },
  {
    "id": "toyama-art-10",
    "type": "art",
    "name": "富山県民会館美術館",
    "prefecture": "富山県",
    "postCode": "930-0006",
    "address": "富山県富山市新総曲輪4−18 4番18号",
    "city": "とやま",
    "image": "",
    "url": "https://www.bunka-toyama.jp/kenminkaikan/",
    "latlng": "[36.6954825, 137.2123849]",
    "lat": 36.6954825,
    "lng": 137.2123849,
    "isClosed": ""
  },
  {
    "id": "toyama-art-11",
    "type": "art",
    "name": "富山市ガラス美術館",
    "prefecture": "富山県",
    "postCode": "930-0062",
    "address": "富山県富山市西町5−1",
    "city": "とやま",
    "image": "",
    "url": "https://toyama-glass-art-museum.jp/",
    "latlng": "[36.6883888, 137.2150549]",
    "lat": 36.6883888,
    "lng": 137.2150549,
    "isClosed": ""
  },
  {
    "id": "toyama-art-12",
    "type": "art",
    "name": "富山市郷土博物館（別館）富山市佐藤記念美術館",
    "prefecture": "富山県",
    "postCode": "930-0081",
    "address": "富山県富山市本丸1−33",
    "city": "とやま",
    "image": "",
    "url": "https://www.city.toyama.toyama.jp/etc/muse/",
    "latlng": "[36.6938232, 137.2114361]",
    "lat": 36.6938232,
    "lng": 137.2114361,
    "isClosed": ""
  },
  {
    "id": "toyama-art-13",
    "type": "art",
    "name": "南砺市立福光美術館",
    "prefecture": "富山県",
    "postCode": "939-1626",
    "address": "富山県南砺市法林寺2010",
    "city": "なんと",
    "image": "",
    "url": "https://nanto-museum.com/",
    "latlng": "[36.573255, 136.8523289]",
    "lat": 36.573255,
    "lng": 136.8523289,
    "isClosed": ""
  }
]