[
  {
    "id": "toyama-museum-1",
    "type": "museum",
    "name": "射水市新湊博物館",
    "prefecture": "富山県",
    "postCode": "934-0049",
    "address": "富山県射水市鏡宮299",
    "city": "いみず",
    "image": "",
    "url": "https://shinminato-museum.jp/",
    "latlng": "[36.7522867, 137.0851166]",
    "lat": 36.7522867,
    "lng": 137.0851166,
    "isClosed": ""
  },
  {
    "id": "toyama-museum-2",
    "type": "museum",
    "name": "魚津歴史民俗博物館",
    "prefecture": "富山県",
    "postCode": "937-0022",
    "address": "富山県魚津市小川寺 字天神山1070",
    "city": "うおづ",
    "image": "",
    "url": "http://www.nice-tv.jp/~rekihaku/",
    "latlng": "[36.825273, 137.4501086]",
    "lat": 36.825273,
    "lng": 137.4501086,
    "isClosed": ""
  },
  {
    "id": "toyama-museum-3",
    "type": "museum",
    "name": "特別天然記念物魚津埋没林博物館",
    "prefecture": "富山県",
    "postCode": "937-0067",
    "address": "富山県魚津市釈迦堂814",
    "city": "うおづ",
    "image": "",
    "url": "https://www.city.uozu.toyama.jp/nekkolnd/",
    "latlng": "[36.8227102, 137.3942892]",
    "lat": 36.8227102,
    "lng": 137.3942892,
    "isClosed": ""
  },
  {
    "id": "toyama-museum-4",
    "type": "museum",
    "name": "小矢部市大谷博物館",
    "prefecture": "富山県",
    "postCode": "932-0806",
    "address": "富山県小矢部市水落35番地",
    "city": "おやべ",
    "image": "",
    "url": "https://www.city.oyabe.toyama.jp/bunkasports/1003003/1003024/index.html",
    "latlng": "[36.6728068, 136.9095471]",
    "lat": 36.6728068,
    "lng": 136.9095471,
    "isClosed": ""
  },
  {
    "id": "toyama-museum-5",
    "type": "museum",
    "name": "黒部市吉田科学館",
    "prefecture": "富山県",
    "postCode": "938-0005",
    "address": "富山県黒部市吉田574−1",
    "city": "くろべ",
    "image": "",
    "url": "https://kysm.or.jp/",
    "latlng": "[36.9013655, 137.4256938]",
    "lat": 36.9013655,
    "lng": 137.4256938,
    "isClosed": ""
  },
  {
    "id": "toyama-museum-6",
    "type": "museum",
    "name": "宮崎自然博物館",
    "prefecture": "富山県",
    "postCode": "939-0702",
    "address": "富山県下新川郡朝日町宮崎",
    "city": "あさひ",
    "image": "",
    "url": "https://www.town.asahi.toyama.jp/soshiki/kyoiku/syougaigakusyuu/bunkazai/1449206358603.html",
    "latlng": "[36.96982029999999, 137.5939994]",
    "lat": 36.96982029999999,
    "lng": 137.5939994,
    "isClosed": ""
  },
  {
    "id": "toyama-museum-7",
    "type": "museum",
    "name": "高岡市福岡歴史民俗資料館",
    "prefecture": "富山県",
    "postCode": "939-0143",
    "address": "富山県高岡市福岡町下向田15",
    "city": "たかおか",
    "image": "",
    "url": "https://www.city.takaoka.toyama.jp/syoubun/kanko/bunka/shisetsu/rekishi.html",
    "latlng": "[36.7147635, 136.9065144]",
    "lat": 36.7147635,
    "lng": 136.9065144,
    "isClosed": ""
  },
  {
    "id": "toyama-museum-8",
    "type": "museum",
    "name": "高岡市万葉歴史館",
    "prefecture": "富山県",
    "postCode": "933-0116",
    "address": "富山県高岡市伏木一宮1丁目11−11",
    "city": "たかおか",
    "image": "",
    "url": "https://www.manreki.com/",
    "latlng": "[36.7955126, 137.045898]",
    "lat": 36.7955126,
    "lng": 137.045898,
    "isClosed": ""
  },
  {
    "id": "toyama-museum-9",
    "type": "museum",
    "name": "高岡市立博物館",
    "prefecture": "富山県",
    "postCode": "933-0044",
    "address": "富山県高岡市古城1−5",
    "city": "たかおか",
    "image": "",
    "url": "https://www.e-tmm.info/",
    "latlng": "[36.7465997, 137.021226]",
    "lat": 36.7465997,
    "lng": 137.021226,
    "isClosed": ""
  },
  {
    "id": "toyama-museum-10",
    "type": "museum",
    "name": "ミュゼふくおかカメラ館",
    "prefecture": "富山県",
    "postCode": "939-0117",
    "address": "富山県高岡市福岡町福岡新559",
    "city": "たかおか",
    "image": "",
    "url": "https://www.camerakan.com/",
    "latlng": "[36.7113915, 136.9297548]",
    "lat": 36.7113915,
    "lng": 136.9297548,
    "isClosed": ""
  },
  {
    "id": "toyama-museum-11",
    "type": "museum",
    "name": "砺波郷土資料館",
    "prefecture": "富山県",
    "postCode": "939-1382",
    "address": "富山県砺波市花園町1−78",
    "city": "となみ",
    "image": "",
    "url": "https://www.city.tonami.lg.jp/section/1658p/",
    "latlng": "[36.6387431, 136.9613247]",
    "lat": 36.6387431,
    "lng": 136.9613247,
    "isClosed": ""
  },
  {
    "id": "toyama-museum-12",
    "type": "museum",
    "name": "富山県交通公園交通安全博物館",
    "prefecture": "富山県",
    "postCode": "931-8441",
    "address": "富山県富山市高島62−1",
    "city": "とやま",
    "image": "",
    "url": "http://safety-toyama.or.jp/museum/",
    "latlng": "[36.733352, 137.2646504]",
    "lat": 36.733352,
    "lng": 137.2646504,
    "isClosed": ""
  },
  {
    "id": "toyama-museum-13",
    "type": "museum",
    "name": "富山県埋蔵文化財センター",
    "prefecture": "富山県",
    "postCode": "930-0115",
    "address": "富山県富山市茶屋町206−3",
    "city": "とやま",
    "image": "",
    "url": "https://www.pref.toyama.jp/3041/miryokukankou/bunka/bunkazai/maibun/index.html",
    "latlng": "[36.7104896, 137.1806681]",
    "lat": 36.7104896,
    "lng": 137.1806681,
    "isClosed": ""
  },
  {
    "id": "toyama-museum-14",
    "type": "museum",
    "name": "富山市科学博物館",
    "prefecture": "富山県",
    "postCode": "939-8084",
    "address": "富山県富山市西中野町1丁目8−31",
    "city": "とやま",
    "image": "",
    "url": "https://www.tsm.toyama.toyama.jp/",
    "latlng": "[36.6808161, 137.2119612]",
    "lat": 36.6808161,
    "lng": 137.2119612,
    "isClosed": ""
  },
  {
    "id": "toyama-museum-15",
    "type": "museum",
    "name": "富山市民俗民芸村",
    "prefecture": "富山県",
    "postCode": "930-0881",
    "address": "富山県富山市安養坊56−1",
    "city": "とやま",
    "image": "",
    "url": "https://www.city.toyama.toyama.jp/etc/minzokumingei/",
    "latlng": "[36.7087481, 137.1889462]",
    "lat": 36.7087481,
    "lng": 137.1889462,
    "isClosed": ""
  },
  {
    "id": "toyama-museum-16",
    "type": "museum",
    "name": "富山県［立山博物館］",
    "prefecture": "富山県",
    "postCode": "930-1406",
    "address": "富山県中新川郡立山町芦峅寺93−1",
    "city": "たてやま",
    "image": "",
    "url": "https://www.pref.toyama.jp/1739/miryokukankou/bunka/bunkazai/home/index.html",
    "latlng": "[36.5826541, 137.3934781]",
    "lat": 36.5826541,
    "lng": 137.3934781,
    "isClosed": ""
  },
  {
    "id": "toyama-museum-17",
    "type": "museum",
    "name": "滑川市立博物館",
    "prefecture": "富山県",
    "postCode": "936-0835",
    "address": "富山県滑川市開676",
    "city": "なめりかわ",
    "image": "",
    "url": "https://www.city.namerikawa.toyama.jp/museum/index.html",
    "latlng": "[36.7419573, 137.3916074]",
    "lat": 36.7419573,
    "lng": 137.3916074,
    "isClosed": ""
  },
  {
    "id": "toyama-museum-18",
    "type": "museum",
    "name": "南砺市埋蔵文化財センター",
    "prefecture": "富山県",
    "postCode": "932-0252",
    "address": "富山県南砺市高瀬736",
    "city": "なんと",
    "image": "",
    "url": "http://museums.toyamaken.jp/museum/swhm068/",
    "latlng": "[36.5652594, 136.9486909]",
    "lat": 36.5652594,
    "lng": 136.9486909,
    "isClosed": ""
  },
  {
    "id": "toyama-museum-19",
    "type": "museum",
    "name": "氷見市立博物館",
    "prefecture": "富山県",
    "postCode": "935-0016",
    "address": "富山県氷見市本町4−9",
    "city": "ひみ",
    "image": "",
    "url": "https://www.city.himi.toyama.jp/section/museum/index.html",
    "latlng": "[36.8528849, 136.9867864]",
    "lat": 36.8528849,
    "lng": 136.9867864,
    "isClosed": ""
  },
  {
    "id": "toyama-museum-20",
    "type": "museum",
    "name": "富山県教育記念館",
    "prefecture": "富山県",
    "postCode": "930-0018",
    "address": "富山県富山市千歳町1丁目5−1",
    "city": "とやま",
    "image": "",
    "url": "https://www.t-hito.or.jp/",
    "latlng": "[36.6978618, 137.2170222]",
    "lat": 36.6978618,
    "lng": 137.2170222,
    "isClosed": ""
  },
  {
    "id": "toyama-museum-21",
    "type": "museum",
    "name": "富山県中央植物園",
    "prefecture": "富山県",
    "postCode": "939-2713",
    "address": "富山県富山市婦中町上轡田42−42",
    "city": "とやま",
    "image": "",
    "url": "https://www.bgtym.org/",
    "latlng": "[36.6618562, 137.1817214]",
    "lat": 36.6618562,
    "lng": 137.1817214,
    "isClosed": ""
  },
  {
    "id": "toyama-museum-22",
    "type": "museum",
    "name": "富山県　立山カルデラ砂防博物館",
    "prefecture": "富山県",
    "postCode": "930-1405",
    "address": "富山県中新川郡立山町芦峅寺 字ブナ坂68",
    "city": "たてやま",
    "image": "",
    "url": "https://www.tatecal.or.jp/tatecal/index.html",
    "latlng": "[36.5753056, 137.6138597]",
    "lat": 36.5753056,
    "lng": 137.6138597,
    "isClosed": ""
  },
  {
    "id": "toyama-museum-23",
    "type": "museum",
    "name": "ギャルリ・ミレー",
    "prefecture": "富山県",
    "postCode": "930-0044",
    "address": "富山県富山市中央通り2丁目1−20",
    "city": "とやま",
    "image": "",
    "url": "http://www.gmillet.jp/index.html",
    "latlng": "[36.6895765, 137.218925]",
    "lat": 36.6895765,
    "lng": 137.218925,
    "isClosed": ""
  }
]