[
  {
    "id": "gifu-museum-1",
    "type": "museum",
    "name": "荒川豊蔵資料館",
    "prefecture": "岐阜県",
    "postCode": "509-0234",
    "address": "岐阜県可児市久々利柿下入会 久々利352",
    "city": "かに",
    "image": "",
    "url": "https://www.city.kani.lg.jp/10013.htm",
    "latlng": "[35.3925955, 137.133776]",
    "lat": 35.3925955,
    "lng": 137.133776,
    "isClosed": ""
  },
  {
    "id": "gifu-museum-2",
    "type": "museum",
    "name": "岐阜市科学館",
    "prefecture": "岐阜県",
    "postCode": "500-8389",
    "address": "岐阜県岐阜市本荘3456−41",
    "city": "ぎふ",
    "image": "",
    "url": "https://www.city.gifu.lg.jp/kankoubunka/kagakukan/index.html",
    "latlng": "[35.4039218, 136.730895]",
    "lat": 35.4039218,
    "lng": 136.730895,
    "isClosed": ""
  },
  {
    "id": "gifu-museum-3",
    "type": "museum",
    "name": "岐阜市歴史博物館",
    "prefecture": "岐阜県",
    "postCode": "500-8003",
    "address": "岐阜県岐阜市大宮町2丁目18−1",
    "city": "ぎふ",
    "image": "",
    "url": "https://www.rekihaku.gifu.gifu.jp/",
    "latlng": "[35.4333733, 136.7727948]",
    "lat": 35.4333733,
    "lng": 136.7727948,
    "isClosed": ""
  },
  {
    "id": "gifu-museum-4",
    "type": "museum",
    "name": "岐阜市歴史博物館分室　原三渓記念室",
    "prefecture": "岐阜県",
    "postCode": "501-6121",
    "address": "岐阜県岐阜市柳津町下佐波西1丁目15 もえぎの里 2階",
    "city": "ぎふ",
    "image": "",
    "url": "https://www.rekihaku.gifu.gifu.jp/harasankei/",
    "latlng": "[35.364295, 136.7187944]",
    "lat": 35.364295,
    "lng": 136.7187944,
    "isClosed": ""
  },
  {
    "id": "gifu-museum-5",
    "type": "museum",
    "name": "岐阜県博物館",
    "prefecture": "岐阜県",
    "postCode": "501-3941",
    "address": "岐阜県関市小屋名1989 岐阜県博物館",
    "city": "せき",
    "image": "",
    "url": "https://www.gifu-kenpaku.jp/",
    "latlng": "[35.4781437, 136.8690541]",
    "lat": 35.4781437,
    "lng": 136.8690541,
    "isClosed": ""
  },
  {
    "id": "gifu-museum-6",
    "type": "museum",
    "name": "光ミュージアム",
    "prefecture": "岐阜県",
    "postCode": "506-0051",
    "address": "岐阜県高山市中山町175",
    "city": "たかやま",
    "image": "",
    "url": "https://h-am.jp/",
    "latlng": "[36.1555614, 137.2335562]",
    "lat": 36.1555614,
    "lng": 137.2335562,
    "isClosed": ""
  },
  {
    "id": "gifu-museum-7",
    "type": "museum",
    "name": "中津川市鉱物博物館",
    "prefecture": "岐阜県",
    "postCode": "508-0101",
    "address": "岐阜県中津川市苗木639−15",
    "city": "なかつがわ",
    "image": "",
    "url": "https://www.city.nakatsugawa.lg.jp/museum/m/index.html",
    "latlng": "[35.5433508, 137.4769585]",
    "lat": 35.5433508,
    "lng": 137.4769585,
    "isClosed": ""
  },
  {
    "id": "gifu-museum-8",
    "type": "museum",
    "name": "瑞浪市化石博物館",
    "prefecture": "岐阜県",
    "postCode": "509-6132",
    "address": "岐阜県瑞浪市明世町山野内1−47",
    "city": "みずなみ",
    "image": "",
    "url": "https://www.city.mizunami.lg.jp/kankou_bunka/1004960/kaseki_museum/index.html",
    "latlng": "[35.3731339, 137.2349199]",
    "lat": 35.3731339,
    "lng": 137.2349199,
    "isClosed": ""
  },
  {
    "id": "gifu-museum-9",
    "type": "museum",
    "name": "美濃加茂市民ミュージアム",
    "prefecture": "岐阜県",
    "postCode": "505-0004",
    "address": "岐阜県美濃加茂市蜂屋町上蜂屋3299−1",
    "city": "みのかも",
    "image": "",
    "url": "http://www.forest.minokamo.gifu.jp/",
    "latlng": "[35.4569236, 137.0218983]",
    "lat": 35.4569236,
    "lng": 137.0218983,
    "isClosed": ""
  },
  {
    "id": "gifu-museum-10",
    "type": "museum",
    "name": "内藤記念くすり博物館",
    "prefecture": "岐阜県",
    "postCode": "501-6024",
    "address": "岐阜県各務原市川島竹早町1",
    "city": "かかみがはら",
    "image": "",
    "url": "https://www.eisai.co.jp/museum/information/index.html",
    "latlng": "[35.3653232, 136.8434441]",
    "lat": 35.3653232,
    "lng": 136.8434441,
    "isClosed": ""
  },
  {
    "id": "gifu-museum-11",
    "type": "museum",
    "name": "岐阜かかみがはら航空宇宙博物館",
    "prefecture": "岐阜県",
    "postCode": "504-0924",
    "address": "岐阜県各務原市下切町5丁目1",
    "city": "かかみがはら",
    "image": "",
    "url": "http://www.sorahaku.net/",
    "latlng": "[35.3869737, 136.86117]",
    "lat": 35.3869737,
    "lng": 136.86117,
    "isClosed": ""
  },
  {
    "id": "gifu-museum-12",
    "type": "museum",
    "name": "下呂市下呂ふるさと歴史記念館",
    "prefecture": "岐阜県",
    "postCode": "509-2202",
    "address": "岐阜県下呂市森1808−37",
    "city": "げろ",
    "image": "",
    "url": "https://www.city.gero.lg.jp/soshiki/28/1979.html",
    "latlng": "[35.8024206, 137.2534261]",
    "lat": 35.8024206,
    "lng": 137.2534261,
    "isClosed": ""
  },
  {
    "id": "gifu-museum-13",
    "type": "museum",
    "name": "高山祭屋台会館",
    "prefecture": "岐阜県",
    "postCode": "506-0858",
    "address": "岐阜県高山市桜町178",
    "city": "たかやま",
    "image": "",
    "url": "http://www.hidahachimangu.jp/yataikaikan/welcome.html",
    "latlng": "[36.1484031, 137.2601125]",
    "lat": 36.1484031,
    "lng": 137.2601125,
    "isClosed": ""
  },
  {
    "id": "gifu-museum-14",
    "type": "museum",
    "name": "飛騨高山茶の湯の森",
    "prefecture": "岐阜県",
    "postCode": "506-0032",
    "address": "岐阜県高山市千島町1070",
    "city": "たかやま",
    "image": "",
    "url": "http://www.nakada-net.jp/chanoyu/",
    "latlng": "[36.1209018, 137.2497427]",
    "lat": 36.1209018,
    "lng": 137.2497427,
    "isClosed": ""
  },
  {
    "id": "gifu-museum-15",
    "type": "museum",
    "name": "飛騨高山まちの博物館",
    "prefecture": "岐阜県",
    "postCode": "506-0844",
    "address": "岐阜県高山市上一之町75",
    "city": "たかやま",
    "image": "",
    "url": "https://www.city.takayama.lg.jp/machihaku/",
    "latlng": "[36.1421288, 137.2616065]",
    "lat": 36.1421288,
    "lng": 137.2616065,
    "isClosed": ""
  },
  {
    "id": "gifu-museum-16",
    "type": "museum",
    "name": "飛騨高山まつりの森高山祭りミュージアム",
    "prefecture": "岐阜県",
    "postCode": "506-0032",
    "address": "岐阜県高山市千島町1111−1",
    "city": "たかやま",
    "image": "",
    "url": "http://www.togeihida.co.jp/",
    "latlng": "[36.1184557, 137.2483737]",
    "lat": 36.1184557,
    "lng": 137.2483737,
    "isClosed": ""
  },
  {
    "id": "gifu-museum-17",
    "type": "museum",
    "name": "飛騨高山まつりの森ちょうの館",
    "prefecture": "岐阜県",
    "postCode": "506-0032",
    "address": "岐阜県高山市千島町1111",
    "city": "たかやま",
    "image": "",
    "url": "http://www.togeihida.co.jp/sizen/",
    "latlng": "[36.119388, 137.2488706]",
    "lat": 36.119388,
    "lng": 137.2488706,
    "isClosed": ""
  },
  {
    "id": "gifu-museum-18",
    "type": "museum",
    "name": "飛騨民俗村",
    "prefecture": "岐阜県",
    "postCode": "506-0055",
    "address": "岐阜県高山市上岡本町1丁目590",
    "city": "たかやま",
    "image": "",
    "url": "https://www.hidanosato-tpo.jp/top.html",
    "latlng": "[36.131862, 137.2357319]",
    "lat": 36.131862,
    "lng": 137.2357319,
    "isClosed": ""
  },
  {
    "id": "gifu-museum-19",
    "type": "museum",
    "name": "藤村記念館",
    "prefecture": "岐阜県",
    "postCode": "508-0502",
    "address": "岐阜県中津川市馬籠4256−1",
    "city": "なかつがわ",
    "image": "",
    "url": "http://toson.jp/",
    "latlng": "[35.5268639, 137.5672595]",
    "lat": 35.5268639,
    "lng": 137.5672595,
    "isClosed": ""
  }
]