[
  {
    "id": "chiba-art-1",
    "type": "art",
    "name": "佐倉市立美術館",
    "prefecture": "千葉県",
    "postCode": "285-0023",
    "address": "千葉県佐倉市新町210 市立美術館",
    "city": "さくら",
    "image": "",
    "url": "https://www.city.sakura.lg.jp/sakura/museum/",
    "latlng": "[35.7191893, 140.2296742]",
    "lat": 35.7191893,
    "lng": 140.2296742,
    "isClosed": ""
  },
  {
    "id": "chiba-art-2",
    "type": "art",
    "name": "塚本美術館",
    "prefecture": "千葉県",
    "postCode": "285-0024",
    "address": "千葉県佐倉市裏新町1−4",
    "city": "さくら",
    "image": "",
    "url": "https://www.city.sakura.lg.jp/soshiki/sakuranomiryoku/1/3036.html",
    "latlng": "[35.7188062, 140.2283113]",
    "lat": 35.7188062,
    "lng": 140.2283113,
    "isClosed": ""
  },
  {
    "id": "chiba-art-3",
    "type": "art",
    "name": "千葉県立美術館",
    "prefecture": "千葉県",
    "postCode": "260-0024",
    "address": "千葉県千葉市中央区中央港1丁目10−1",
    "city": "ちば",
    "image": "",
    "url": "http://www2.chiba-muse.or.jp/ART/",
    "latlng": "[35.6012342, 140.101033]",
    "lat": 35.6012342,
    "lng": 140.101033,
    "isClosed": ""
  },
  {
    "id": "chiba-art-4",
    "type": "art",
    "name": "成田山書道美術館",
    "prefecture": "千葉県",
    "postCode": "286-0023",
    "address": "千葉県成田市成田640",
    "city": "なりた",
    "image": "",
    "url": "https://www.naritashodo.jp/",
    "latlng": "[35.7875421, 140.3221105]",
    "lat": 35.7875421,
    "lng": 140.3221105,
    "isClosed": ""
  },
  {
    "id": "chiba-art-5",
    "type": "art",
    "name": "茂木本家美術館",
    "prefecture": "千葉県",
    "postCode": "278-0037",
    "address": "千葉県野田市野田242",
    "city": "のだ",
    "image": "",
    "url": "http://www.momoa.jp/",
    "latlng": "[35.9427209, 139.865092]",
    "lat": 35.9427209,
    "lng": 139.865092,
    "isClosed": ""
  },
  {
    "id": "chiba-art-6",
    "type": "art",
    "name": "鋸山美術館",
    "prefecture": "千葉県",
    "postCode": "299-1861",
    "address": "千葉県富津市金谷2146−1",
    "city": "ふっつ",
    "image": "",
    "url": "https://nokogiriyama.com/",
    "latlng": "[35.1693854, 139.8194226]",
    "lat": 35.1693854,
    "lng": 139.8194226,
    "isClosed": ""
  },
  {
    "id": "chiba-art-7",
    "type": "art",
    "name": "茂原市立美術館・郷土資料館",
    "prefecture": "千葉県",
    "postCode": "297-0029",
    "address": "千葉県茂原市高師1345−1",
    "city": "もばら",
    "image": "",
    "url": "https://www.city.mobara.chiba.jp/soshiki/13-10-0-0-0_1.html",
    "latlng": "[35.4301274, 140.2802402]",
    "lat": 35.4301274,
    "lng": 140.2802402,
    "isClosed": ""
  },
  {
    "id": "chiba-art-8",
    "type": "art",
    "name": "DIC川村記念美術館",
    "prefecture": "千葉県",
    "postCode": "285-8505",
    "address": "千葉県佐倉市坂戸 631",
    "city": "さくら",
    "image": "",
    "url": "https://kawamura-museum.dic.co.jp/",
    "latlng": "[35.6532837, 140.2214764]",
    "lat": 35.6532837,
    "lng": 140.2214764,
    "isClosed": ""
  },
  {
    "id": "chiba-art-9",
    "type": "art",
    "name": "城西国際大学水田美術館",
    "prefecture": "千葉県",
    "postCode": "283-0002",
    "address": "千葉県東金市求名1",
    "city": "とうがね",
    "image": "",
    "url": "https://www.jiu.ac.jp/museum/",
    "latlng": "[35.5818348, 140.3919497]",
    "lat": 35.5818348,
    "lng": 140.3919497,
    "isClosed": ""
  },
  {
    "id": "chiba-art-10",
    "type": "art",
    "name": "千葉市美術館",
    "prefecture": "千葉県",
    "postCode": "260-0013",
    "address": "千葉県千葉市中央区中央3丁目10−8",
    "city": "ちば",
    "image": "",
    "url": "https://www.ccma-net.jp/",
    "latlng": "[35.6089447, 140.1246421]",
    "lat": 35.6089447,
    "lng": 140.1246421,
    "isClosed": ""
  }
]