[
  {
    "id": "chiba-museum-1",
    "type": "museum",
    "name": "大原幽学記念館",
    "prefecture": "千葉県",
    "postCode": "289-0502",
    "address": "千葉県旭市長部345−2",
    "city": "あさひ",
    "image": "",
    "url": "http://www.city.asahi.chiba.jp/yugaku/",
    "latlng": "[35.7812705, 140.6214761]",
    "lat": 35.7812705,
    "lng": 140.6214761,
    "isClosed": ""
  },
  {
    "id": "chiba-museum-2",
    "type": "museum",
    "name": "我孫子市鳥の博物館",
    "prefecture": "千葉県",
    "postCode": "270-1145",
    "address": "千葉県我孫子市高野山234−3",
    "city": "あびこ",
    "image": "",
    "url": "https://www.city.abiko.chiba.jp/bird-mus/index.html",
    "latlng": "[35.8613736, 140.0306772]",
    "lat": 35.8613736,
    "lng": 140.0306772,
    "isClosed": ""
  },
  {
    "id": "chiba-museum-3",
    "type": "museum",
    "name": "千葉県立中央博物館大多喜城分館",
    "prefecture": "千葉県",
    "postCode": "298-0216",
    "address": "千葉県夷隅郡大多喜町大多喜481",
    "city": "おおたき",
    "image": "",
    "url": "http://www2.chiba-muse.or.jp/SONAN/index.html",
    "latlng": "[35.2859508, 140.2392223]",
    "lat": 35.2859508,
    "lng": 140.2392223,
    "isClosed": ""
  },
  {
    "id": "chiba-museum-4",
    "type": "museum",
    "name": "市立市川考古博物館",
    "prefecture": "千葉県",
    "postCode": "272-0837",
    "address": "千葉県市川市堀之内2丁目26−1",
    "city": "いちかわ",
    "image": "",
    "url": "https://www.city.ichikawa.lg.jp/edu14/",
    "latlng": "[35.7590201, 139.9121062]",
    "lat": 35.7590201,
    "lng": 139.9121062,
    "isClosed": ""
  },
  {
    "id": "chiba-museum-5",
    "type": "museum",
    "name": "市立市川自然博物館",
    "prefecture": "千葉県",
    "postCode": "272-0801",
    "address": "千葉県市川市大町284",
    "city": "いちかわ",
    "image": "",
    "url": "https://www.city.ichikawa.lg.jp/edu16/",
    "latlng": "[35.7643507, 139.9661025]",
    "lat": 35.7643507,
    "lng": 139.9661025,
    "isClosed": ""
  },
  {
    "id": "chiba-museum-6",
    "type": "museum",
    "name": "市立市川歴史博物館",
    "prefecture": "千葉県",
    "postCode": "272-0837",
    "address": "千葉県市川市堀之内2丁目27−1 市立市川歴史博物館",
    "city": "いちかわ",
    "image": "",
    "url": "https://www.city.ichikawa.lg.jp/edu14/",
    "latlng": "[35.7597742, 139.9116248]",
    "lat": 35.7597742,
    "lng": 139.9116248,
    "isClosed": ""
  },
  {
    "id": "chiba-museum-7",
    "type": "museum",
    "name": "千葉県立現代産業科学館",
    "prefecture": "千葉県",
    "postCode": "272-0015",
    "address": "千葉県市川市鬼高1丁目1−3",
    "city": "いちかわ",
    "image": "",
    "url": "http://www2.chiba-muse.or.jp/SCIENCE/",
    "latlng": "[35.7147817, 139.9329957]",
    "lat": 35.7147817,
    "lng": 139.9329957,
    "isClosed": ""
  },
  {
    "id": "chiba-museum-8",
    "type": "museum",
    "name": "千葉県立房総のむら",
    "prefecture": "千葉県",
    "postCode": "270-1506",
    "address": "千葉県印旛郡栄町龍角寺1028",
    "city": "さかえ",
    "image": "",
    "url": "http://www2.chiba-muse.or.jp/MURA/",
    "latlng": "[35.824596, 140.2723206]",
    "lat": 35.824596,
    "lng": 140.2723206,
    "isClosed": ""
  },
  {
    "id": "chiba-museum-9",
    "type": "museum",
    "name": "浦安市郷土博物館",
    "prefecture": "千葉県",
    "postCode": "279-0004",
    "address": "千葉県浦安市猫実1丁目2−7",
    "city": "うらやす",
    "image": "",
    "url": "https://assarikunn.wixsite.com/website",
    "latlng": "[35.6552817, 139.9011814]",
    "lat": 35.6552817,
    "lng": 139.9011814,
    "isClosed": ""
  },
  {
    "id": "chiba-museum-10",
    "type": "museum",
    "name": "千葉県立中央博物館分館海の博物館",
    "prefecture": "千葉県",
    "postCode": "299-5242",
    "address": "千葉県勝浦市吉尾123",
    "city": "かつうら",
    "image": "",
    "url": "http://www2.chiba-muse.or.jp/UMIHAKU/",
    "latlng": "[35.1370739, 140.2834295]",
    "lat": 35.1370739,
    "lng": 140.2834295,
    "isClosed": ""
  },
  {
    "id": "chiba-museum-11",
    "type": "museum",
    "name": "伊能忠敬記念館",
    "prefecture": "千葉県",
    "postCode": "287-0003",
    "address": "千葉県香取市佐原イ−1722−1",
    "city": "かとり",
    "image": "",
    "url": "https://www.city.katori.lg.jp/sightseeing/museum/",
    "latlng": "[35.8883373, 140.4972257]",
    "lat": 35.8883373,
    "lng": 140.4972257,
    "isClosed": ""
  },
  {
    "id": "chiba-museum-12",
    "type": "museum",
    "name": "千葉県立中央博物館大利根分館",
    "prefecture": "千葉県",
    "postCode": "287-0816",
    "address": "千葉県香取市佐原ハ−4500",
    "city": "かとり",
    "image": "",
    "url": "http://www2.chiba-muse.or.jp/OTONE/index.html",
    "latlng": "[35.9301336, 140.5231335]",
    "lat": 35.9301336,
    "lng": 140.5231335,
    "isClosed": ""
  },
  {
    "id": "chiba-museum-13",
    "type": "museum",
    "name": "木更津市郷土博物館金のすず",
    "prefecture": "千葉県",
    "postCode": "292-0044",
    "address": "千葉県木更津市太田2丁目16−2",
    "city": "きさらづ",
    "image": "",
    "url": "https://www.city.kisarazu.lg.jp/shokai/rekishi/hakubutsukan/1002106.html",
    "latlng": "[35.3796995, 139.9376261]",
    "lat": 35.3796995,
    "lng": 139.9376261,
    "isClosed": ""
  },
  {
    "id": "chiba-museum-14",
    "type": "museum",
    "name": "君津市立久留里城址資料館",
    "prefecture": "千葉県",
    "postCode": "292-0422",
    "address": "千葉県君津市久留里字内山",
    "city": "きみつ",
    "image": "",
    "url": "https://www.city.kimitsu.lg.jp/soshiki/54/",
    "latlng": "[35.2900233, 140.0900307]",
    "lat": 35.2900233,
    "lng": 140.0900307,
    "isClosed": ""
  },
  {
    "id": "chiba-museum-15",
    "type": "museum",
    "name": "航空科学博物館",
    "prefecture": "千葉県",
    "postCode": "289-1608",
    "address": "千葉県山武郡芝山町岩山111−3",
    "city": "しばやま",
    "image": "",
    "url": "http://www.aeromuseum.or.jp/",
    "latlng": "[35.740352, 140.3978477]",
    "lat": 35.740352,
    "lng": 140.3978477,
    "isClosed": ""
  },
  {
    "id": "chiba-museum-16",
    "type": "museum",
    "name": "歴史の里芝山ミューゼアム",
    "prefecture": "千葉県",
    "postCode": "289-1619",
    "address": "千葉県芝山町芝山298",
    "city": "しばやま",
    "image": "",
    "url": "",
    "latlng": "[35.69220524427941, 140.4277273]",
    "lat": 35.6922052442794,
    "lng": 140.4277273,
    "isClosed": ""
  },
  {
    "id": "chiba-museum-17",
    "type": "museum",
    "name": "芝山町立芝山古墳・はにわ博物館",
    "prefecture": "千葉県",
    "postCode": "289-1619",
    "address": "千葉県山武郡芝山町芝山438−1",
    "city": "しばやま",
    "image": "",
    "url": "https://www.haniwakan.com/",
    "latlng": "[35.6939985, 140.4285146]",
    "lat": 35.6939985,
    "lng": 140.4285146,
    "isClosed": ""
  },
  {
    "id": "chiba-museum-18",
    "type": "museum",
    "name": "袖ケ浦市郷土博物館",
    "prefecture": "千葉県",
    "postCode": "299-0255",
    "address": "千葉県袖ケ浦市下新田1133",
    "city": "そでがうら",
    "image": "",
    "url": "https://www.city.sodegaura.lg.jp/soshiki/hakubutsukan/",
    "latlng": "[35.4213897, 139.9954281]",
    "lat": 35.4213897,
    "lng": 139.9954281,
    "isClosed": ""
  },
  {
    "id": "chiba-museum-19",
    "type": "museum",
    "name": "館山市立博物館",
    "prefecture": "千葉県",
    "postCode": "294-0036",
    "address": "千葉県館山市館山351−2",
    "city": "たてやま",
    "image": "",
    "url": "https://www.city.tateyama.chiba.jp/hakubutukan/page100065.html",
    "latlng": "[34.9824865, 139.8544867]",
    "lat": 34.9824865,
    "lng": 139.8544867,
    "isClosed": ""
  },
  {
    "id": "chiba-museum-20",
    "type": "museum",
    "name": "千葉県立中央博物館",
    "prefecture": "千葉県",
    "postCode": "260-0852",
    "address": "千葉県千葉市中央区青葉町955−2",
    "city": "ちば",
    "image": "",
    "url": "http://www2.chiba-muse.or.jp/NATURAL/",
    "latlng": "[35.5998319, 140.1384085]",
    "lat": 35.5998319,
    "lng": 140.1384085,
    "isClosed": ""
  },
  {
    "id": "chiba-museum-21",
    "type": "museum",
    "name": "千葉市立加曽利貝塚博物館",
    "prefecture": "千葉県",
    "postCode": "264-0028",
    "address": "千葉県千葉市若葉区桜木8丁目33−1",
    "city": "ちば",
    "image": "",
    "url": "https://www.city.chiba.jp/kasori/",
    "latlng": "[35.6234251, 140.165458]",
    "lat": 35.6234251,
    "lng": 140.165458,
    "isClosed": ""
  },
  {
    "id": "chiba-museum-22",
    "type": "museum",
    "name": "千葉市立郷土博物館",
    "prefecture": "千葉県",
    "postCode": "260-0856",
    "address": "千葉県千葉市中央区亥鼻1丁目6−1",
    "city": "ちば",
    "image": "",
    "url": "https://www.city.chiba.jp/kyodo/",
    "latlng": "[35.6045569, 140.12721]",
    "lat": 35.6045569,
    "lng": 140.12721,
    "isClosed": ""
  },
  {
    "id": "chiba-museum-23",
    "type": "museum",
    "name": "流山市立博物館",
    "prefecture": "千葉県",
    "postCode": "270-0176",
    "address": "千葉県流山市加1丁目1225−6",
    "city": "ながれやま",
    "image": "",
    "url": "https://www.city.nagareyama.chiba.jp/life/1001780/1001785/index.html",
    "latlng": "[35.8588186, 139.9025581]",
    "lat": 35.8588186,
    "lng": 139.9025581,
    "isClosed": ""
  },
  {
    "id": "chiba-museum-24",
    "type": "museum",
    "name": "成田山霊光館",
    "prefecture": "千葉県",
    "postCode": "286-0021",
    "address": "千葉県成田市土屋238",
    "city": "なりた",
    "image": "",
    "url": "https://maruchiba.jp/sys/data/index/page/id/8938",
    "latlng": "[35.7882, 140.3204671]",
    "lat": 35.7882,
    "lng": 140.3204671,
    "isClosed": ""
  },
  {
    "id": "chiba-museum-25",
    "type": "museum",
    "name": "上花輪歴史館",
    "prefecture": "千葉県",
    "postCode": "278-0033",
    "address": "千葉県野田市上花輪507",
    "city": "のだ",
    "image": "",
    "url": "https://kamihanawa.jp/",
    "latlng": "[35.9395172, 139.8577002]",
    "lat": 35.9395172,
    "lng": 139.8577002,
    "isClosed": ""
  },
  {
    "id": "chiba-museum-26",
    "type": "museum",
    "name": "千葉県立関宿城博物館",
    "prefecture": "千葉県",
    "postCode": "270-0201",
    "address": "千葉県野田市関宿三軒家143−4 千葉県立関宿城博物館",
    "city": "のだ",
    "image": "",
    "url": "http://www2.chiba-muse.or.jp/SEKIYADO/",
    "latlng": "[36.1005375, 139.7825917]",
    "lat": 36.1005375,
    "lng": 139.7825917,
    "isClosed": ""
  },
  {
    "id": "chiba-museum-27",
    "type": "museum",
    "name": "野田市郷土博物館",
    "prefecture": "千葉県",
    "postCode": "278-0037",
    "address": "千葉県野田市野田370−8",
    "city": "のだ",
    "image": "",
    "url": "http://noda-muse.jp/",
    "latlng": "[35.945285, 139.8656359]",
    "lat": 35.945285,
    "lng": 139.8656359,
    "isClosed": ""
  },
  {
    "id": "chiba-museum-28",
    "type": "museum",
    "name": "船橋市郷土資料館",
    "prefecture": "千葉県",
    "postCode": "274-0077",
    "address": "千葉県船橋市薬円台4丁目25−19",
    "city": "ふなばし",
    "image": "",
    "url": "https://www.city.funabashi.lg.jp/shisetsu/bunka/0001/0005/0001/p011081.html",
    "latlng": "[35.7116203, 140.0496286]",
    "lat": 35.7116203,
    "lng": 140.0496286,
    "isClosed": ""
  },
  {
    "id": "chiba-museum-29",
    "type": "museum",
    "name": "船橋市飛ノ台史跡公園博物館",
    "prefecture": "千葉県",
    "postCode": "273-0021",
    "address": "千葉県船橋市海神4丁目28−18",
    "city": "ふなばし",
    "image": "",
    "url": "https://www.city.funabashi.lg.jp/shisetsu/bunka/0001/0006/0001/p036786.html",
    "latlng": "[35.7108124, 139.9743481]",
    "lat": 35.7108124,
    "lng": 139.9743481,
    "isClosed": ""
  },
  {
    "id": "chiba-museum-30",
    "type": "museum",
    "name": "松戸市戸定歴史館",
    "prefecture": "千葉県",
    "postCode": "271-0092",
    "address": "千葉県松戸市松戸714−1",
    "city": "まつど",
    "image": "",
    "url": "https://www.city.matsudo.chiba.jp/tojo/",
    "latlng": "[35.7779308, 139.8994964]",
    "lat": 35.7779308,
    "lng": 139.8994964,
    "isClosed": ""
  },
  {
    "id": "chiba-museum-31",
    "type": "museum",
    "name": "松戸市立博物館",
    "prefecture": "千葉県",
    "postCode": "270-2252",
    "address": "千葉県松戸市千駄堀671",
    "city": "まつど",
    "image": "",
    "url": "https://www.city.matsudo.chiba.jp/m_muse/",
    "latlng": "[35.8008931, 139.9394934]",
    "lat": 35.8008931,
    "lng": 139.9394934,
    "isClosed": ""
  },
  {
    "id": "chiba-museum-32",
    "type": "museum",
    "name": "八千代市立郷土博物館",
    "prefecture": "千葉県",
    "postCode": "276-0028",
    "address": "千葉県八千代市村上1170−2",
    "city": "やちよ",
    "image": "",
    "url": "https://www.yachiyo.ed.jp/yachiyo/sosiki/rekisi/",
    "latlng": "[35.72984880000001, 140.117919]",
    "lat": 35.72984880000001,
    "lng": 140.117919,
    "isClosed": ""
  },
  {
    "id": "chiba-museum-33",
    "type": "museum",
    "name": "市原歴史博物館",
    "prefecture": "千葉県",
    "postCode": "290-0011",
    "address": "千葉県市原市能満1489",
    "city": "いちはら",
    "image": "",
    "url": "https://www.imuseum.jp/index.html",
    "latlng": "[35.5047809, 140.129679]",
    "lat": 35.5047809,
    "lng": 140.129679,
    "isClosed": ""
  },
  {
    "id": "chiba-museum-34",
    "type": "museum",
    "name": "大網白里市デジタル博物館",
    "prefecture": "千葉県",
    "postCode": "",
    "address": "",
    "city": "おおあみしらさと",
    "image": "",
    "url": "https://adeac.jp/oamishirasato-city/top/",
    "latlng": "",
    "lat": "",
    "lng": "",
    "isClosed": ""
  },
  {
    "id": "chiba-museum-35",
    "type": "museum",
    "name": "和洋女子大学文化資料館",
    "prefecture": "千葉県",
    "postCode": "272-0827",
    "address": "千葉県市川市国府台2丁目3−1",
    "city": "いちかわ",
    "image": "",
    "url": "https://www.wayo.ac.jp/facilities_campus/museum",
    "latlng": "[35.7441574, 139.9040593]",
    "lat": 35.7441574,
    "lng": 139.9040593,
    "isClosed": ""
  },
  {
    "id": "chiba-museum-36",
    "type": "museum",
    "name": "鴨川シーワールド",
    "prefecture": "千葉県",
    "postCode": "296-0041",
    "address": "千葉県鴨川市東町1464−18",
    "city": "かもがわ",
    "image": "",
    "url": "https://www.kamogawa-seaworld.jp/",
    "latlng": "[35.1155552, 140.1200407]",
    "lat": 35.1155552,
    "lng": 140.1200407,
    "isClosed": ""
  },
  {
    "id": "chiba-museum-37",
    "type": "museum",
    "name": "千葉経済大学　地域経済博物館",
    "prefecture": "千葉県",
    "postCode": "263-0021",
    "address": "千葉県千葉市稲毛区轟町3丁目9−45",
    "city": "ちば",
    "image": "",
    "url": "https://www.cku.ac.jp/local/museum.html",
    "latlng": "[35.6281918, 140.1111671]",
    "lat": 35.6281918,
    "lng": 140.1111671,
    "isClosed": ""
  },
  {
    "id": "chiba-museum-38",
    "type": "museum",
    "name": "宗吾霊宝殿",
    "prefecture": "千葉県",
    "postCode": "286-0004",
    "address": "千葉県成田市宗吾1丁目558",
    "city": "なりた",
    "image": "",
    "url": "https://www.hokuso-4cities.com/spots/detail/215/",
    "latlng": "[35.7617064, 140.2790269]",
    "lat": 35.7617064,
    "lng": 140.2790269,
    "isClosed": ""
  },
  {
    "id": "chiba-museum-39",
    "type": "museum",
    "name": "日本大学理工学部科学技術史料センター",
    "prefecture": "千葉県",
    "postCode": "101-0062",
    "address": "東京都千代田区神田駿河台1丁目8−14 日本大学理工学部1号館",
    "city": "ちよだ",
    "image": "",
    "url": "https://www.museum.cst.nihon-u.ac.jp/",
    "latlng": "[35.6976118, 139.7636111]",
    "lat": 35.6976118,
    "lng": 139.7636111,
    "isClosed": ""
  },
  {
    "id": "chiba-museum-40",
    "type": "museum",
    "name": "千葉大学海洋バイオシステム研究センター付属水族館",
    "prefecture": "千葉県",
    "postCode": "299-5502",
    "address": "千葉県鴨川市内浦1",
    "city": "かもがわ",
    "image": "",
    "url": "https://toshitoshi.jp/aqua/025.php",
    "latlng": "[35.1208211, 140.1842945]",
    "lat": 35.1208211,
    "lng": 140.1842945,
    "isClosed": ""
  }
]
