[
  {
    "id": "osaka-art-1",
    "type": "art",
    "name": "逸翁美術館",
    "prefecture": "大阪府",
    "postCode": "563-0058",
    "address": "大阪府池田市栄本町12−27",
    "city": "いけだ",
    "image": "",
    "url": "http://www.hankyu-bunka.or.jp/itsuo-museum/",
    "latlng": "[34.8255168, 135.4287347]",
    "lat": 34.8255168,
    "lng": 135.4287347,
    "isClosed": ""
  },
  {
    "id": "osaka-art-2",
    "type": "art",
    "name": "和泉市久保惣記念美術館",
    "prefecture": "大阪府",
    "postCode": "594-1156",
    "address": "大阪府和泉市内田町3丁目6−57 久保惣記念美術館",
    "city": "いずみ",
    "image": "",
    "url": "https://www.ikm-art.jp/",
    "latlng": "[34.4450219, 135.4533753]",
    "lat": 34.4450219,
    "lng": 135.4533753,
    "isClosed": ""
  },
  {
    "id": "osaka-art-3",
    "type": "art",
    "name": "中之島香雪美術館",
    "prefecture": "大阪府",
    "postCode": "530-0005",
    "address": "大阪府大阪市北区中之島3丁目2−4 フェスティバルタワー・ウエスト 4階",
    "city": "おおさか",
    "image": "",
    "url": "https://www.kosetsu-museum.or.jp/nakanoshima/",
    "latlng": "[34.6934479, 135.4957172]",
    "lat": 34.6934479,
    "lng": 135.4957172,
    "isClosed": ""
  },
  {
    "id": "osaka-art-4",
    "type": "art",
    "name": "藤田美術館",
    "prefecture": "大阪府",
    "postCode": "534-0026",
    "address": "大阪府大阪市都島区網島町10−32",
    "city": "おおさか",
    "image": "",
    "url": "https://fujita-museum.or.jp/",
    "latlng": "[34.6950067, 135.5250152]",
    "lat": 34.6950067,
    "lng": 135.5250152,
    "isClosed": ""
  },
  {
    "id": "osaka-art-5",
    "type": "art",
    "name": "湯木美術館",
    "prefecture": "大阪府",
    "postCode": "541-0046",
    "address": "大阪府大阪市中央区平野町3丁目3−9 湯木ビル",
    "city": "おおさか",
    "image": "",
    "url": "http://www.yuki-museum.or.jp/",
    "latlng": "[34.6875032, 135.5022607]",
    "lat": 34.6875032,
    "lng": 135.5022607,
    "isClosed": ""
  },
  {
    "id": "osaka-art-6",
    "type": "art",
    "name": "正木美術館",
    "prefecture": "大阪府",
    "postCode": "595-0812",
    "address": "大阪府泉北郡忠岡町忠岡中2丁目9−26",
    "city": "ただおか",
    "image": "",
    "url": "http://masaki-art-museum.jp/",
    "latlng": "[34.4946683, 135.3921381]",
    "lat": 34.4946683,
    "lng": 135.3921381,
    "isClosed": ""
  },
  {
    "id": "osaka-art-7",
    "type": "art",
    "name": "奥内陶芸美術館",
    "prefecture": "大阪府",
    "postCode": "561-0884",
    "address": "大阪府豊中市岡町北3丁目8−1",
    "city": "とよなか",
    "image": "",
    "url": "http://www.okuuchi-museum.or.jp/",
    "latlng": "[34.7805977, 135.4621717]",
    "lat": 34.7805977,
    "lng": 135.4621717,
    "isClosed": ""
  },
  {
    "id": "osaka-art-8",
    "type": "art",
    "name": "大阪市立東洋陶磁美術館",
    "prefecture": "大阪府",
    "postCode": "530-0005",
    "address": "大阪府大阪市北区中之島1丁目1−26",
    "city": "おおさか",
    "image": "",
    "url": "https://www.moco.or.jp/",
    "latlng": "[34.6934599, 135.5054171]",
    "lat": 34.6934599,
    "lng": 135.5054171,
    "isClosed": ""
  },
  {
    "id": "osaka-art-9",
    "type": "art",
    "name": "大阪市立美術館",
    "prefecture": "大阪府",
    "postCode": "543-0063",
    "address": "大阪府大阪市天王寺区茶臼山町1−82",
    "city": "おおさか",
    "image": "",
    "url": "https://www.osaka-art-museum.jp/",
    "latlng": "[34.6500815, 135.5104851]",
    "lat": 34.6500815,
    "lng": 135.5104851,
    "isClosed": ""
  },
  {
    "id": "osaka-art-10",
    "type": "art",
    "name": "大阪中之島美術館",
    "prefecture": "大阪府",
    "postCode": "530-0005",
    "address": "大阪府大阪市北区中之島4丁目3−1",
    "city": "おおさか",
    "image": "",
    "url": "https://nakka-art.jp/",
    "latlng": "[34.6922899, 135.4913832]",
    "lat": 34.6922899,
    "lng": 135.4913832,
    "isClosed": ""
  },
  {
    "id": "osaka-art-11",
    "type": "art",
    "name": "あべのハルカス美術館",
    "prefecture": "大阪府",
    "postCode": "545-6016",
    "address": "大阪市阿倍野区阿倍野筋1-1-43",
    "city": "おおさか",
    "image": "",
    "url": "https://www.aham.jp/",
    "latlng": "[34.646304, 135.5133393]",
    "lat": 34.646304,
    "lng": 135.5133393,
    "isClosed": ""
  },
  {
    "id": "osaka-art-12",
    "type": "art",
    "name": "国立国際美術館",
    "prefecture": "大阪府",
    "postCode": "530-0005",
    "address": "大阪府大阪市北区中之島4丁目2−55 国立国際美術館",
    "city": "おおさか",
    "image": "",
    "url": "https://www.nmao.go.jp/",
    "latlng": "[34.6917819, 135.491984]",
    "lat": 34.6917819,
    "lng": 135.491984,
    "isClosed": ""
  }
]