[
  {
    "id": "osaka-museum-1",
    "type": "museum",
    "name": "大阪府立弥生文化博物館",
    "prefecture": "大阪府",
    "postCode": "594-0083",
    "address": "大阪府和泉市池上町4丁目8−27",
    "city": "いずみ",
    "image": "",
    "url": "https://yayoi-bunka.com/",
    "latlng": "[34.4992141, 135.4271832]",
    "lat": 34.4992141,
    "lng": 135.4271832,
    "isClosed": ""
  },
  {
    "id": "osaka-museum-2",
    "type": "museum",
    "name": "小谷城郷土館",
    "prefecture": "大阪府",
    "postCode": "590-0106",
    "address": "大阪府堺市南区豊田1602−1",
    "city": "さかい",
    "image": "",
    "url": "https://www.kotanijo.jp/",
    "latlng": "[34.4932257, 135.498429]",
    "lat": 34.4932257,
    "lng": 135.498429,
    "isClosed": ""
  },
  {
    "id": "osaka-museum-3",
    "type": "museum",
    "name": "堺市博物館",
    "prefecture": "大阪府",
    "postCode": "590-0802",
    "address": "大阪府堺市堺区百舌鳥夕雲町2丁 大仙公園内",
    "city": "さかい",
    "image": "",
    "url": "https://www.city.sakai.lg.jp/kanko/hakubutsukan/",
    "latlng": "[34.5584962, 135.4827552]",
    "lat": 34.5584962,
    "lng": 135.4827552,
    "isClosed": ""
  },
  {
    "id": "osaka-museum-4",
    "type": "museum",
    "name": "シマノ自転車博物館",
    "prefecture": "大阪府",
    "postCode": "590-0073",
    "address": "大阪府堺市堺区南向陽町2丁2−1",
    "city": "さかい",
    "image": "",
    "url": "https://www.bikemuse.jp/",
    "latlng": "[34.5789579, 135.4845996]",
    "lat": 34.5789579,
    "lng": 135.4845996,
    "isClosed": ""
  },
  {
    "id": "osaka-museum-5",
    "type": "museum",
    "name": "吹田市立博物館",
    "prefecture": "大阪府",
    "postCode": "564-0001",
    "address": "大阪府吹田市岸部北4丁目10−1",
    "city": "すいた",
    "image": "",
    "url": "http://www2.suita.ed.jp/hak/",
    "latlng": "[34.7834559, 135.5285493]",
    "lat": 34.7834559,
    "lng": 135.5285493,
    "isClosed": ""
  },
  {
    "id": "osaka-museum-6",
    "type": "museum",
    "name": "高槻市立今城塚古代歴史館",
    "prefecture": "大阪府",
    "postCode": "569-1136",
    "address": "大阪府高槻市郡家新町48−8",
    "city": "たかつき",
    "image": "",
    "url": "https://www.city.takatsuki.osaka.jp/site/history/list8.html",
    "latlng": "[34.8524524, 135.5960616]",
    "lat": 34.8524524,
    "lng": 135.5960616,
    "isClosed": ""
  },
  {
    "id": "osaka-museum-7",
    "type": "museum",
    "name": "高槻市立しろあと歴史館",
    "prefecture": "大阪府",
    "postCode": "569-0075",
    "address": "大阪府高槻市城内町1−7",
    "city": "たかつき",
    "image": "",
    "url": "https://www.city.takatsuki.osaka.jp/site/history/4653.html",
    "latlng": "[34.8446347, 135.6229004]",
    "lat": 34.8446347,
    "lng": 135.6229004,
    "isClosed": ""
  },
  {
    "id": "osaka-museum-8",
    "type": "museum",
    "name": "日本民家集落博物館",
    "prefecture": "大阪府",
    "postCode": "561-0873",
    "address": "大阪府豊中市服部緑地1−2",
    "city": "とよなか",
    "image": "",
    "url": "https://www.occh.or.jp/minka/",
    "latlng": "[34.7794818, 135.4872082]",
    "lat": 34.7794818,
    "lng": 135.4872082,
    "isClosed": ""
  },
  {
    "id": "osaka-museum-9",
    "type": "museum",
    "name": "司馬遼太郎記念館",
    "prefecture": "大阪府",
    "postCode": "577-0803",
    "address": "大阪府東大阪市下小阪3丁目11−18",
    "city": "ひがしおおさか",
    "image": "",
    "url": "https://www.shibazaidan.or.jp/",
    "latlng": "[34.6604154, 135.585713]",
    "lat": 34.6604154,
    "lng": 135.585713,
    "isClosed": ""
  },
  {
    "id": "osaka-museum-10",
    "type": "museum",
    "name": "東大阪市立郷土博物館",
    "prefecture": "大阪府",
    "postCode": "579-8052",
    "address": "大阪府東大阪市上四条町18−12",
    "city": "ひがしおおさか",
    "image": "",
    "url": "https://www.city.higashiosaka.lg.jp/0000003607.html",
    "latlng": "[34.6608648, 135.6508339]",
    "lat": 34.6608648,
    "lng": 135.6508339,
    "isClosed": ""
  },
  {
    "id": "osaka-museum-11",
    "type": "museum",
    "name": "大阪府立近つ飛鳥博物館",
    "prefecture": "大阪府",
    "postCode": "585-0001",
    "address": "大阪府南河内郡河南町東山299",
    "city": "かなん",
    "image": "",
    "url": "http://www.chikatsu-asuka.jp/",
    "latlng": "[34.5030879, 135.6436091]",
    "lat": 34.5030879,
    "lng": 135.6436091,
    "isClosed": ""
  },
  {
    "id": "osaka-museum-12",
    "type": "museum",
    "name": "貝塚市立自然遊学館",
    "prefecture": "大阪府",
    "postCode": "597-0091",
    "address": "大阪府貝塚市二色3丁目26−1",
    "city": "かいづか",
    "image": "",
    "url": "https://www.city.kaizuka.lg.jp/shizen/index.html",
    "latlng": "[34.4449402, 135.3378449]",
    "lat": 34.4449402,
    "lng": 135.3378449,
    "isClosed": ""
  },
  {
    "id": "osaka-museum-13",
    "type": "museum",
    "name": "大阪市立科学館",
    "prefecture": "大阪府",
    "postCode": "530-0005",
    "address": "大阪府大阪市北区中之島4丁目2−1",
    "city": "おおさか",
    "image": "",
    "url": "https://www.sci-museum.jp/",
    "latlng": "[34.6912302, 135.4914632]",
    "lat": 34.6912302,
    "lng": 135.4914632,
    "isClosed": ""
  },
  {
    "id": "osaka-museum-14",
    "type": "museum",
    "name": "大阪市立自然史博物館",
    "prefecture": "大阪府",
    "postCode": "546-0034",
    "address": "大阪府大阪市東住吉区長居公園1−23",
    "city": "おおさか",
    "image": "",
    "url": "http://www.mus-nh.city.osaka.jp/",
    "latlng": "[34.6103141, 135.522472]",
    "lat": 34.6103141,
    "lng": 135.522472,
    "isClosed": ""
  },
  {
    "id": "osaka-museum-15",
    "type": "museum",
    "name": "大阪歴史博物館",
    "prefecture": "大阪府",
    "postCode": "540-0008",
    "address": "大阪府大阪市中央区大手前4丁目1−32",
    "city": "おおさか",
    "image": "",
    "url": "http://www.mus-his.city.osaka.jp/",
    "latlng": "[34.6826244, 135.5208035]",
    "lat": 34.6826244,
    "lng": 135.5208035,
    "isClosed": ""
  },
  {
    "id": "osaka-museum-16",
    "type": "museum",
    "name": "泉佐野市立歴史館いずみさの",
    "prefecture": "大阪府",
    "postCode": "598-0005",
    "address": "大阪府泉佐野市市場東1丁目2−295−1",
    "city": "いずみさの",
    "image": "",
    "url": "https://www.occh.or.jp/?s=event/izumisano/",
    "latlng": "[34.4054154, 135.3269661]",
    "lat": 34.4054154,
    "lng": 135.3269661,
    "isClosed": ""
  },
  {
    "id": "osaka-museum-17",
    "type": "museum",
    "name": "大阪・海遊館",
    "prefecture": "大阪府",
    "postCode": "552-0022",
    "address": "大阪府大阪市港区海岸通1丁目1-10",
    "city": "おおさか",
    "image": "",
    "url": "https://www.kaiyukan.com/",
    "latlng": "[34.6563732, 135.4302962]",
    "lat": 34.6563732,
    "lng": 135.4302962,
    "isClosed": ""
  },
  {
    "id": "osaka-museum-18",
    "type": "museum",
    "name": "大阪城天守閣",
    "prefecture": "大阪府",
    "postCode": "540-0002",
    "address": "大阪府大阪市中央区大阪城1−1",
    "city": "おおさか",
    "image": "",
    "url": "https://www.osakacastle.net/",
    "latlng": "[34.6852163, 135.5257022]",
    "lat": 34.6852163,
    "lng": 135.5257022,
    "isClosed": ""
  },
  {
    "id": "osaka-museum-19",
    "type": "museum",
    "name": "大阪市立住まいのミュージアム（大阪くらしの今昔館）",
    "prefecture": "大阪府",
    "postCode": "530-0041",
    "address": "大阪府大阪市北区天神橋6丁目4−20 大阪市立住まい情報センタービル 8F",
    "city": "おおさか",
    "image": "",
    "url": "https://www.osaka-angenet.jp/konjyakukan/",
    "latlng": "[34.7104003, 135.5116186]",
    "lat": 34.7104003,
    "lng": 135.5116186,
    "isClosed": ""
  },
  {
    "id": "osaka-museum-20",
    "type": "museum",
    "name": "きしわだ自然資料館",
    "prefecture": "大阪府",
    "postCode": "596-0072",
    "address": "大阪府岸和田市堺町6−5",
    "city": "きしわだ",
    "image": "",
    "url": "https://www.city.kishiwada.osaka.jp/site/shizenshi/",
    "latlng": "[34.4624102, 135.3706162]",
    "lat": 34.4624102,
    "lng": 135.3706162,
    "isClosed": ""
  },
  {
    "id": "osaka-museum-21",
    "type": "museum",
    "name": "関西大学博物館",
    "prefecture": "大阪府",
    "postCode": "565-0842",
    "address": "大阪府吹田市千里山東3丁目3−35 簡文館",
    "city": "すいた",
    "image": "",
    "url": "https://www.kansai-u.ac.jp/Museum/",
    "latlng": "[34.775377, 135.5106479]",
    "lat": 34.775377,
    "lng": 135.5106479,
    "isClosed": ""
  },
  {
    "id": "osaka-museum-22",
    "type": "museum",
    "name": "高槻市立自然博物館（あくあぴあ芥川）",
    "prefecture": "大阪府",
    "postCode": "569-1042",
    "address": "大阪府高槻市南平台5丁目59−1",
    "city": "たかつき",
    "image": "",
    "url": "http://www.aquapia.net/",
    "latlng": "[34.8640157, 135.5920854]",
    "lat": 34.8640157,
    "lng": 135.5920854,
    "isClosed": ""
  },
  {
    "id": "osaka-museum-23",
    "type": "museum",
    "name": "大阪大谷大学博物館",
    "prefecture": "大阪府",
    "postCode": "584-0066",
    "address": "大阪府富田林市錦織北3丁目11−1",
    "city": "とんだばやし",
    "image": "",
    "url": "https://www.osaka-ohtani.ac.jp/facilities/museum/",
    "latlng": "[34.4811024, 135.5803856]",
    "lat": 34.4811024,
    "lng": 135.5803856,
    "isClosed": ""
  },
  {
    "id": "osaka-museum-24",
    "type": "museum",
    "name": "大阪商業大学商業史博物館",
    "prefecture": "大阪府",
    "postCode": "577-0036",
    "address": "大阪府東大阪市御厨栄町4丁目1−10",
    "city": "ひがしおおさか",
    "image": "",
    "url": "https://ouc.daishodai.ac.jp/museum/",
    "latlng": "[34.6668759, 135.5857315]",
    "lat": 34.6668759,
    "lng": 135.5857315,
    "isClosed": ""
  },
  {
    "id": "osaka-museum-25",
    "type": "museum",
    "name": "大阪芸術大学博物館",
    "prefecture": "大阪府",
    "postCode": "585-0001",
    "address": "大阪府南河内郡河南町東山",
    "city": "かなん",
    "image": "",
    "url": "https://www.osaka-geidai.ac.jp/guide/museum",
    "latlng": "[34.5105785, 135.6302408]",
    "lat": 34.5105785,
    "lng": 135.6302408,
    "isClosed": ""
  },
  {
    "id": "osaka-museum-26",
    "type": "museum",
    "name": "八尾市立歴史民俗資料館",
    "prefecture": "大阪府",
    "postCode": "581-0862",
    "address": "大阪府八尾市千塚3丁目180",
    "city": "やお",
    "image": "",
    "url": "http://www17.plala.or.jp/yaorekimin/",
    "latlng": "[34.6313554, 135.6412546]",
    "lat": 34.6313554,
    "lng": 135.6412546,
    "isClosed": ""
  },
  {
    "id": "osaka-museum-27",
    "type": "museum",
    "name": "大阪国際平和センター（ピースおおさか）",
    "prefecture": "大阪府",
    "postCode": "540-0002",
    "address": "大阪府大阪市中央区大阪城2-1",
    "city": "おおさか",
    "image": "",
    "url": "https://www.peace-osaka.or.jp/",
    "latlng": "[34.6843969, 135.5249913]",
    "lat": 34.6843969,
    "lng": 135.5249913,
    "isClosed": ""
  }
]