[
  {
    "id": "tottori-museum-1",
    "type": "museum",
    "name": "倉吉博物館",
    "prefecture": "鳥取県",
    "postCode": "682-0824",
    "address": "鳥取県倉吉市仲ノ町3445−8",
    "city": "くらよし",
    "image": "",
    "url": "https://www1.city.kurayoshi.lg.jp/hakubutsu/",
    "latlng": "[35.4285283, 133.8255167]",
    "lat": 35.4285283,
    "lng": 133.8255167,
    "isClosed": ""
  },
  {
    "id": "tottori-museum-2",
    "type": "museum",
    "name": "鳥取県立博物館",
    "prefecture": "鳥取県",
    "postCode": "680-0011",
    "address": "鳥取県鳥取市東町2丁目124",
    "city": "とっとり",
    "image": "",
    "url": "https://www.pref.tottori.lg.jp/museum/",
    "latlng": "[35.50832949999999, 134.2361564]",
    "lat": 35.50832949999999,
    "lng": 134.2361564,
    "isClosed": ""
  },
  {
    "id": "tottori-museum-3",
    "type": "museum",
    "name": "鳥取市こども科学館",
    "prefecture": "鳥取県",
    "postCode": "680-0841",
    "address": "鳥取県鳥取市吉方温泉3丁目701",
    "city": "とっとり",
    "image": "",
    "url": "https://tottori-shinkoukai.or.jp/kodomokagaku/",
    "latlng": "[35.4924569, 134.234252]",
    "lat": 35.4924569,
    "lng": 134.234252,
    "isClosed": ""
  },
  {
    "id": "tottori-museum-4",
    "type": "museum",
    "name": "鳥取市歴史博物館（やまびこ館）",
    "prefecture": "鳥取県",
    "postCode": "680-0015",
    "address": "鳥取県鳥取市上町88",
    "city": "とっとり",
    "image": "",
    "url": "http://www.tbz.or.jp/yamabikokan/",
    "latlng": "[35.4989779, 134.2439669]",
    "lat": 35.4989779,
    "lng": 134.2439669,
    "isClosed": ""
  },
  {
    "id": "tottori-museum-5",
    "type": "museum",
    "name": "米子市立山陰歴史館",
    "prefecture": "鳥取県",
    "postCode": "683-0822",
    "address": "鳥取県米子市中町20",
    "city": "よなご",
    "image": "",
    "url": "http://www.yonagobunka.net/rekishi/",
    "latlng": "[35.4292445, 133.3303359]",
    "lat": 35.4292445,
    "lng": 133.3303359,
    "isClosed": ""
  },
  {
    "id": "tottori-museum-6",
    "type": "museum",
    "name": "鳥取市さじアストロパーク",
    "prefecture": "鳥取県",
    "postCode": "689-1312",
    "address": "鳥取県鳥取市佐治町高山1071−1",
    "city": "とっとり",
    "image": "",
    "url": "https://www.city.tottori.lg.jp/www/contents/1425466200201/",
    "latlng": "[35.3419752, 134.11965]",
    "lat": 35.3419752,
    "lng": 134.11965,
    "isClosed": ""
  }
]