[
  {
    "id": "shiga-art-1",
    "type": "art",
    "name": "木下美術館",
    "prefecture": "滋賀県",
    "postCode": "520-0016",
    "address": "滋賀県大津市比叡平2丁目28−21",
    "city": "おおつ",
    "image": "",
    "url": "https://www.kinoshita-museum.com/",
    "latlng": "[35.0271868, 135.8301879]",
    "lat": 35.0271868,
    "lng": 135.8301879,
    "isClosed": ""
  },
  {
    "id": "shiga-art-2",
    "type": "art",
    "name": "滋賀県立美術館",
    "prefecture": "滋賀県",
    "postCode": "520-2122",
    "address": "滋賀県大津市瀬田南大萱町1740−1",
    "city": "おおつ",
    "image": "",
    "url": "https://www.shigamuseum.jp/",
    "latlng": "[34.9710243, 135.9447007]",
    "lat": 34.9710243,
    "lng": 135.9447007,
    "isClosed": ""
  },
  {
    "id": "shiga-art-3",
    "type": "art",
    "name": "膳所焼美術館",
    "prefecture": "滋賀県",
    "postCode": "520-0837",
    "address": "滋賀県大津市中庄1丁目22−28",
    "city": "おおつ",
    "image": "",
    "url": "https://zezeyaki.or.jp/",
    "latlng": "[34.9884901, 135.8948817]",
    "lat": 34.9884901,
    "lng": 135.8948817,
    "isClosed": ""
  },
  {
    "id": "shiga-art-4",
    "type": "art",
    "name": "日登美美術館",
    "prefecture": "滋賀県",
    "postCode": "527-0231",
    "address": "滋賀県東近江市山上町2083",
    "city": "ひがしおうみ",
    "image": "",
    "url": "https://sam.shiga.jp/%E8%B2%A1%E5%9B%A3%E6%B3%95%E4%BA%BA-%E6%97%A5%E7%99%BB%E7%BE%8E%E7%BE%8E%E8%A1%93%E9%A4%A8/",
    "latlng": "[35.0796211, 136.2979741]",
    "lat": 35.0796211,
    "lng": 136.2979741,
    "isClosed": ""
  },
  {
    "id": "shiga-art-5",
    "type": "art",
    "name": "佐川美術館",
    "prefecture": "滋賀県",
    "postCode": "524-0102",
    "address": "滋賀県守山市水保町2891−44",
    "city": "もりやま",
    "image": "",
    "url": "https://www.sagawa-artmuseum.or.jp/",
    "latlng": "[35.1090296, 135.9459895]",
    "lat": 35.1090296,
    "lng": 135.9459895,
    "isClosed": ""
  }
]