[
  {
    "id": "shiga-museum-1",
    "type": "museum",
    "name": "愛荘町立歴史文化博物館",
    "prefecture": "滋賀県",
    "postCode": "529-1202",
    "address": "滋賀県愛知郡愛荘町松尾寺878",
    "city": "あいしょう",
    "image": "",
    "url": "https://www.town.aisho.shiga.jp/hakubutsukan/index.html",
    "latlng": "[35.16420069999999, 136.2791814]",
    "lat": 35.16420069999999,
    "lng": 136.2791814,
    "isClosed": ""
  },
  {
    "id": "shiga-museum-2",
    "type": "museum",
    "name": "滋賀県立安土城考古博物館",
    "prefecture": "滋賀県",
    "postCode": "521-1311",
    "address": "滋賀県近江八幡市安土町下豊浦6678",
    "city": "おうみはちまん",
    "image": "",
    "url": "https://azuchi-museum.or.jp/",
    "latlng": "[35.1508996, 136.148258]",
    "lat": 35.1508996,
    "lng": 136.148258,
    "isClosed": ""
  },
  {
    "id": "shiga-museum-3",
    "type": "museum",
    "name": "大津市歴史博物館",
    "prefecture": "滋賀県",
    "postCode": "520-0037",
    "address": "滋賀県大津市御陵町2−2",
    "city": "おおつ",
    "image": "",
    "url": "https://www.rekihaku.otsu.shiga.jp/",
    "latlng": "[35.0155524, 135.8528219]",
    "lat": 35.0155524,
    "lng": 135.8528219,
    "isClosed": ""
  },
  {
    "id": "shiga-museum-4",
    "type": "museum",
    "name": "滋賀県立琵琶湖博物館",
    "prefecture": "滋賀県",
    "postCode": "525-0001",
    "address": "滋賀県草津市下物町1091",
    "city": "くさつ",
    "image": "",
    "url": "https://www.biwahaku.jp/",
    "latlng": "[35.0730509, 135.9399398]",
    "lat": 35.0730509,
    "lng": 135.9399398,
    "isClosed": ""
  },
  {
    "id": "shiga-museum-5",
    "type": "museum",
    "name": "ＭＩＨＯ　ＭＵＳＥＵＭ",
    "prefecture": "滋賀県",
    "postCode": "529-1814",
    "address": "滋賀県甲賀市信楽町田代桃谷300",
    "city": "こうか",
    "image": "",
    "url": "https://www.miho.jp/",
    "latlng": "[34.9088987, 136.022953]",
    "lat": 34.9088987,
    "lng": 136.022953,
    "isClosed": ""
  },
  {
    "id": "shiga-museum-6",
    "type": "museum",
    "name": "長浜市長浜城歴史博物館",
    "prefecture": "滋賀県",
    "postCode": "526-0065",
    "address": "滋賀県長浜市公園町10−10",
    "city": "ながはま",
    "image": "",
    "url": "https://www.city.nagahama.lg.jp/section/rekihaku/",
    "latlng": "[35.377699, 136.2618115]",
    "lat": 35.377699,
    "lng": 136.2618115,
    "isClosed": ""
  },
  {
    "id": "shiga-museum-7",
    "type": "museum",
    "name": "観峰館",
    "prefecture": "滋賀県",
    "postCode": "529-1421",
    "address": "滋賀県東近江市五個荘竜田町136",
    "city": "ひがしおうみ",
    "image": "",
    "url": "https://kampokan.com/",
    "latlng": "[35.1543264, 136.1883058]",
    "lat": 35.1543264,
    "lng": 136.1883058,
    "isClosed": ""
  },
  {
    "id": "shiga-museum-8",
    "type": "museum",
    "name": "彦根城博物館",
    "prefecture": "滋賀県",
    "postCode": "522-0061",
    "address": "滋賀県彦根市金亀町1−1",
    "city": "ひこね",
    "image": "",
    "url": "https://hikone-castle-museum.jp/",
    "latlng": "[35.2750012, 136.2535442]",
    "lat": 35.2750012,
    "lng": 136.2535442,
    "isClosed": ""
  },
  {
    "id": "shiga-museum-9",
    "type": "museum",
    "name": "野洲市歴史民俗博物館・銅鐸博物館",
    "prefecture": "滋賀県",
    "postCode": "520-2315",
    "address": "滋賀県野洲市辻町57−1",
    "city": "やす",
    "image": "",
    "url": "https://www.city.yasu.lg.jp/soshiki/rekishiminzoku/museum.html",
    "latlng": "[35.0725913, 136.0449228]",
    "lat": 35.0725913,
    "lng": 136.0449228,
    "isClosed": ""
  },
  {
    "id": "shiga-museum-10",
    "type": "museum",
    "name": "栗東歴史民俗博物館",
    "prefecture": "滋賀県",
    "postCode": "520-3016",
    "address": "滋賀県栗東市小野223−8",
    "city": "りっとう",
    "image": "",
    "url": "http://www.city.ritto.lg.jp/hakubutsukan/",
    "latlng": "[35.01805179999999, 136.0089594]",
    "lat": 35.01805179999999,
    "lng": 136.0089594,
    "isClosed": ""
  },
  {
    "id": "shiga-museum-11",
    "type": "museum",
    "name": "ボーダレス・アートミュージアムＮＯ?ＭＡ",
    "prefecture": "滋賀県",
    "postCode": "523-0849",
    "address": "滋賀県近江八幡市永原町上16",
    "city": "おうみはちまん",
    "image": "",
    "url": "https://www.no-ma.jp/",
    "latlng": "[35.1376311, 136.0944713]",
    "lat": 35.1376311,
    "lng": 136.0944713,
    "isClosed": ""
  },
  {
    "id": "shiga-museum-12",
    "type": "museum",
    "name": "近江神宮時計館宝物館",
    "prefecture": "滋賀県",
    "postCode": "520-0015",
    "address": "滋賀県大津市神宮町1−1",
    "city": "おおつ",
    "image": "",
    "url": "https://oumijingu.org/pages/98/",
    "latlng": "[35.0318857, 135.8526378]",
    "lat": 35.0318857,
    "lng": 135.8526378,
    "isClosed": ""
  },
  {
    "id": "shiga-museum-13",
    "type": "museum",
    "name": "田上鉱物博物館",
    "prefecture": "滋賀県",
    "postCode": "520-2275",
    "address": "滋賀県大津市枝3丁目8−4",
    "city": "おおつ",
    "image": "",
    "url": "",
    "latlng": "[34.9377053, 135.9357055]",
    "lat": 34.9377053,
    "lng": 135.9357055,
    "isClosed": ""
  },
  {
    "id": "shiga-museum-14",
    "type": "museum",
    "name": "滋賀大学経済学部附属史料館",
    "prefecture": "滋賀県",
    "postCode": "522-0069",
    "address": "滋賀県彦根市馬場1丁目1−1",
    "city": "ひこね",
    "image": "",
    "url": "https://www.econ.shiga-u.ac.jp/shiryo/10/1/",
    "latlng": "[35.2777202, 136.2460169]",
    "lat": 35.2777202,
    "lng": 136.2460169,
    "isClosed": ""
  }
]